[
   {
      "GoBack" : "1",
      "longitude" : "120.64166",
      "outDis" : "50",
      "Id" : "5409",
      "oid" : "313222698",
      "districtId" : "1",
      "nameZh" : "文修停車場",
      "pgp" : "0",
      "terminal" : "0",
      "latitude" : "24.18505",
      "inDis" : "50",
      "routeId" : "33",
      "seqNo" : "1"
   },
   {
      "GoBack" : "1",
      "longitude" : "120.6403",
      "outDis" : "50",
      "Id" : "2192",
      "oid" : "C64B649F9E384121A6AED87F781EDEC7",
      "districtId" : "1",
      "nameZh" : "西苑高中",
      "pgp" : "0",
      "terminal" : "0",
      "latitude" : "24.18621",
      "inDis" : "50",
      "routeId" : "33",
      "seqNo" : "2"
   },
   {
      "GoBack" : "1",
      "longitude" : "120.64441",
      "outDis" : "50",
      "Id" : "4327",
      "oid" : "9215979667EC4F3B9F00A51978053720",
      "districtId" : "1",
      "nameZh" : "僑光科技大學",
      "pgp" : "0",
      "terminal" : "0",
      "latitude" : "24.18662",
      "inDis" : "50",
      "routeId" : "33",
      "seqNo" : "3"
   },
   {
      "GoBack" : "1",
      "longitude" : "120.64472",
      "outDis" : "50",
      "Id" : "5658",
      "oid" : "313222695",
      "districtId" : "1",
      "nameZh" : "漢翔公司(星享道)",
      "pgp" : "0",
      "terminal" : "0",
      "latitude" : "24.18421",
      "inDis" : "50",
      "routeId" : "33",
      "seqNo" : "4"
   },
   {
      "GoBack" : "1",
      "longitude" : "120.645",
      "outDis" : "50",
      "Id" : "4334",
      "oid" : "1469502CDEEA4E44B528DCDE6FB0EB62",
      "districtId" : "1",
      "nameZh" : "福星西安街口",
      "pgp" : "0",
      "terminal" : "0",
      "latitude" : "24.18148",
      "inDis" : "50",
      "routeId" : "33",
      "seqNo" : "5"
   },
   {
      "GoBack" : "1",
      "longitude" : "120.64513",
      "outDis" : "50",
      "Id" : "4586",
      "oid" : "B53C3A9856FD4F8A8C7A5550A9A236EC",
      "districtId" : "1",
      "nameZh" : "逢甲大學(福星路)",
      "pgp" : "0",
      "terminal" : "0",
      "latitude" : "24.1792",
      "inDis" : "50",
      "routeId" : "33",
      "seqNo" : "6"
   },
   {
      "GoBack" : "1",
      "longitude" : "120.64604",
      "outDis" : "50",
      "Id" : "0112",
      "oid" : "C1A395C39EAE40B6AEA447C92B04D869",
      "districtId" : "1",
      "nameZh" : "福星停車場",
      "pgp" : "0",
      "terminal" : "0",
      "latitude" : "24.17538",
      "inDis" : "50",
      "routeId" : "33",
      "seqNo" : "7"
   },
   {
      "GoBack" : "1",
      "longitude" : "120.64713",
      "outDis" : "50",
      "Id" : "0113",
      "oid" : "11546794433D4E26AE65171B95E2A86F",
      "districtId" : "1",
      "nameZh" : "河南崇義街口",
      "pgp" : "0",
      "terminal" : "0",
      "latitude" : "24.17347",
      "inDis" : "50",
      "routeId" : "33",
      "seqNo" : "8"
   },
   {
      "GoBack" : "1",
      "longitude" : "120.64383",
      "outDis" : "50",
      "Id" : "4615",
      "oid" : "43D7C3CFC3724BF6B2BC5D4CA6647133",
      "districtId" : "1",
      "nameZh" : "河南青海路口",
      "pgp" : "0",
      "terminal" : "0",
      "latitude" : "24.17066",
      "inDis" : "50",
      "routeId" : "33",
      "seqNo" : "9"
   },
   {
      "GoBack" : "1",
      "longitude" : "120.64161",
      "outDis" : "50",
      "Id" : "0015",
      "oid" : "45677986DFD44112BBA1FE1EB7C3A632",
      "districtId" : "1",
      "nameZh" : "教師新村",
      "pgp" : "0",
      "terminal" : "0",
      "latitude" : "24.16699",
      "inDis" : "50",
      "routeId" : "33",
      "seqNo" : "10"
   },
   {
      "GoBack" : "1",
      "longitude" : "120.64427",
      "outDis" : "50",
      "Id" : "0016",
      "oid" : "22DAE8C05F4F497FB0A80566AD6E157E",
      "districtId" : "1",
      "nameZh" : "新光三越",
      "pgp" : "0",
      "terminal" : "0",
      "latitude" : "24.16527",
      "inDis" : "50",
      "routeId" : "33",
      "seqNo" : "11"
   },
   {
      "GoBack" : "1",
      "longitude" : "120.65065",
      "outDis" : "50",
      "Id" : "4269",
      "oid" : "7C620B70271D4EACA561C1050DEE3AE2",
      "districtId" : "1",
      "nameZh" : "文心四川路口",
      "pgp" : "0",
      "terminal" : "0",
      "latitude" : "24.164",
      "inDis" : "50",
      "routeId" : "33",
      "seqNo" : "12"
   },
   {
      "GoBack" : "1",
      "longitude" : "120.6523",
      "outDis" : "50",
      "Id" : "4273",
      "oid" : "6864BB2358694D03A5282F6BE991075B",
      "districtId" : "1",
      "nameZh" : "文心西屯路口",
      "pgp" : "0",
      "terminal" : "0",
      "latitude" : "24.16628",
      "inDis" : "50",
      "routeId" : "33",
      "seqNo" : "13"
   },
   {
      "GoBack" : "1",
      "longitude" : "120.65582",
      "outDis" : "50",
      "Id" : "4271",
      "oid" : "D8B2F340805346C8AFE8F6A61F5DC057",
      "districtId" : "1",
      "nameZh" : "文心甘肅路口",
      "pgp" : "0",
      "terminal" : "0",
      "latitude" : "24.1691",
      "inDis" : "50",
      "routeId" : "33",
      "seqNo" : "14"
   },
   {
      "GoBack" : "1",
      "longitude" : "120.65932",
      "outDis" : "50",
      "Id" : "4612",
      "oid" : "20DFD48D9E7F4EDA9E49596096CBFED0",
      "districtId" : "1",
      "nameZh" : "文華高中(文心路)",
      "pgp" : "0",
      "terminal" : "0",
      "latitude" : "24.17098",
      "inDis" : "50",
      "routeId" : "33",
      "seqNo" : "15"
   },
   {
      "GoBack" : "1",
      "longitude" : "120.66069",
      "outDis" : "50",
      "Id" : "4275",
      "oid" : "12538",
      "districtId" : "1",
      "nameZh" : "文心河南路口",
      "pgp" : "0",
      "terminal" : "0",
      "latitude" : "24.17149",
      "inDis" : "50",
      "routeId" : "33",
      "seqNo" : "16"
   },
   {
      "GoBack" : "1",
      "longitude" : "120.66374",
      "outDis" : "50",
      "Id" : "0230",
      "oid" : "F0FBAAFF93524ABC998EFA02365BA9BE",
      "districtId" : "1",
      "nameZh" : "重慶國小",
      "pgp" : "0",
      "terminal" : "0",
      "latitude" : "24.17237",
      "inDis" : "50",
      "routeId" : "33",
      "seqNo" : "17"
   },
   {
      "GoBack" : "1",
      "longitude" : "120.6659",
      "outDis" : "50",
      "Id" : "0229",
      "oid" : "4F3895BF96144B6DB579DA5DDAD7D720",
      "districtId" : "1",
      "nameZh" : "臺灣日報",
      "pgp" : "0",
      "terminal" : "0",
      "latitude" : "24.17281",
      "inDis" : "50",
      "routeId" : "33",
      "seqNo" : "18"
   },
   {
      "GoBack" : "1",
      "longitude" : "120.66853",
      "outDis" : "50",
      "Id" : "0228",
      "oid" : "132F460AA9F648CB8FE997E923C18144",
      "districtId" : "1",
      "nameZh" : "文心陜西路口",
      "pgp" : "0",
      "terminal" : "0",
      "latitude" : "24.17328",
      "inDis" : "50",
      "routeId" : "33",
      "seqNo" : "19"
   },
   {
      "GoBack" : "1",
      "longitude" : "120.67177",
      "outDis" : "50",
      "Id" : "0805",
      "oid" : "31E2C511159E4E318B0EE618F75A3ED3",
      "districtId" : "1",
      "nameZh" : "頂賴厝",
      "pgp" : "0",
      "terminal" : "0",
      "latitude" : "24.17127",
      "inDis" : "50",
      "routeId" : "33",
      "seqNo" : "20"
   },
   {
      "GoBack" : "1",
      "longitude" : "120.6722",
      "outDis" : "50",
      "Id" : "1629",
      "oid" : "A055D4666235499BBB054A156EF6794E",
      "districtId" : "1",
      "nameZh" : "天津路商圈",
      "pgp" : "0",
      "terminal" : "0",
      "latitude" : "24.16994",
      "inDis" : "50",
      "routeId" : "33",
      "seqNo" : "21"
   },
   {
      "GoBack" : "1",
      "longitude" : "120.67277",
      "outDis" : "50",
      "Id" : "5737",
      "oid" : "2D722FC0E47843B28243577CC3539B59",
      "districtId" : "1",
      "nameZh" : "曉明女中(中清路)",
      "pgp" : "0",
      "terminal" : "0",
      "latitude" : "24.16844",
      "inDis" : "50",
      "routeId" : "33",
      "seqNo" : "22"
   },
   {
      "GoBack" : "1",
      "longitude" : "120.67334",
      "outDis" : "50",
      "Id" : "5736",
      "oid" : "C12F5A4E6D2145A68927AE7627A9CAB9",
      "districtId" : "1",
      "nameZh" : "中清漢口路口",
      "pgp" : "0",
      "terminal" : "0",
      "latitude" : "24.16644",
      "inDis" : "50",
      "routeId" : "33",
      "seqNo" : "23"
   },
   {
      "GoBack" : "1",
      "longitude" : "120.67408",
      "outDis" : "50",
      "Id" : "5735",
      "oid" : "0EA68F68AD9F4867B59D53777D0C302C",
      "districtId" : "1",
      "nameZh" : "中清太原路口",
      "pgp" : "0",
      "terminal" : "0",
      "latitude" : "24.16425",
      "inDis" : "50",
      "routeId" : "33",
      "seqNo" : "24"
   },
   {
      "GoBack" : "1",
      "longitude" : "120.67614",
      "outDis" : "50",
      "Id" : "4625",
      "oid" : "0D7BD8C7D41149368EE6F409485E163F",
      "districtId" : "1",
      "nameZh" : "大道公廟(進化北路)",
      "pgp" : "0",
      "terminal" : "0",
      "latitude" : "24.16306",
      "inDis" : "50",
      "routeId" : "33",
      "seqNo" : "25"
   },
   {
      "GoBack" : "1",
      "longitude" : "120.68017",
      "outDis" : "50",
      "Id" : "0920",
      "oid" : "AF074ACD844A46F197D86C466FB623C2",
      "districtId" : "1",
      "nameZh" : "衛道新世界",
      "pgp" : "0",
      "terminal" : "0",
      "latitude" : "24.16305",
      "inDis" : "50",
      "routeId" : "33",
      "seqNo" : "26"
   },
   {
      "GoBack" : "1",
      "longitude" : "120.68278",
      "outDis" : "50",
      "Id" : "4579",
      "oid" : "AC0A781F0D744F76ADBB57F8D343DA19",
      "districtId" : "1",
      "nameZh" : "進化北永興街口",
      "pgp" : "0",
      "terminal" : "0",
      "latitude" : "24.16306",
      "inDis" : "50",
      "routeId" : "33",
      "seqNo" : "27"
   },
   {
      "GoBack" : "1",
      "longitude" : "120.68642",
      "outDis" : "50",
      "Id" : "0800",
      "oid" : "1209FD62D86B4950AECF360D6B31C3D0",
      "districtId" : "1",
      "nameZh" : "頂厝里",
      "pgp" : "0",
      "terminal" : "0",
      "latitude" : "24.16303",
      "inDis" : "50",
      "routeId" : "33",
      "seqNo" : "28"
   },
   {
      "GoBack" : "1",
      "longitude" : "120.68759",
      "outDis" : "50",
      "Id" : "0830",
      "oid" : "2DF1CCE86CA0417DB4FBC462013C1FF6",
      "districtId" : "1",
      "nameZh" : "稅務新村",
      "pgp" : "0",
      "terminal" : "0",
      "latitude" : "24.16295",
      "inDis" : "50",
      "routeId" : "33",
      "seqNo" : "29"
   },
   {
      "GoBack" : "1",
      "longitude" : "120.68986",
      "outDis" : "50",
      "Id" : "0493",
      "oid" : "12684",
      "districtId" : "1",
      "nameZh" : "北屯市場",
      "pgp" : "0",
      "terminal" : "0",
      "latitude" : "24.16306",
      "inDis" : "50",
      "routeId" : "33",
      "seqNo" : "30"
   },
   {
      "GoBack" : "1",
      "longitude" : "120.69426",
      "outDis" : "50",
      "Id" : "0466",
      "oid" : "F0034EF659A444E38CD10B61FB6D641B",
      "districtId" : "1",
      "nameZh" : "進化天祥街口",
      "pgp" : "0",
      "terminal" : "0",
      "latitude" : "24.16106",
      "inDis" : "50",
      "routeId" : "33",
      "seqNo" : "31"
   },
   {
      "GoBack" : "1",
      "longitude" : "120.69423",
      "outDis" : "50",
      "Id" : "0588",
      "oid" : "DA5FEB0FAD5F4AAAAB352B35F8D5127B",
      "districtId" : "1",
      "nameZh" : "光華高工",
      "pgp" : "0",
      "terminal" : "0",
      "latitude" : "24.15849",
      "inDis" : "50",
      "routeId" : "33",
      "seqNo" : "32"
   },
   {
      "GoBack" : "1",
      "longitude" : "120.69439",
      "outDis" : "50",
      "Id" : "0754",
      "oid" : "074E49A5E8EC4F5A9F3318D8E842A891",
      "districtId" : "1",
      "nameZh" : "進化國瑞街口",
      "pgp" : "0",
      "terminal" : "0",
      "latitude" : "24.15711",
      "inDis" : "50",
      "routeId" : "33",
      "seqNo" : "33"
   },
   {
      "GoBack" : "1",
      "longitude" : "120.69437",
      "outDis" : "50",
      "Id" : "0932",
      "oid" : "76E4DF1569604BE19F8F689DCFD7E66F",
      "districtId" : "1",
      "nameZh" : "進化興進路口",
      "pgp" : "0",
      "terminal" : "0",
      "latitude" : "24.15437",
      "inDis" : "50",
      "routeId" : "33",
      "seqNo" : "34"
   },
   {
      "GoBack" : "1",
      "longitude" : "120.69437",
      "outDis" : "50",
      "Id" : "0313",
      "oid" : "B2AA45357AFD485C9A79D2A8F8C6C7DD",
      "districtId" : "1",
      "nameZh" : "進化力行路口",
      "pgp" : "0",
      "terminal" : "0",
      "latitude" : "24.15253",
      "inDis" : "50",
      "routeId" : "33",
      "seqNo" : "35"
   },
   {
      "GoBack" : "1",
      "longitude" : "120.69434",
      "outDis" : "50",
      "Id" : "0599",
      "oid" : "590780388CF24B81875932BD6F0F4662",
      "districtId" : "1",
      "nameZh" : "合作市場",
      "pgp" : "0",
      "terminal" : "0",
      "latitude" : "24.1503",
      "inDis" : "50",
      "routeId" : "33",
      "seqNo" : "36"
   },
   {
      "GoBack" : "1",
      "longitude" : "120.69432",
      "outDis" : "50",
      "Id" : "0844",
      "oid" : "4831B64E036546DDA35197EA951ECFD2",
      "districtId" : "1",
      "nameZh" : "進德國小",
      "pgp" : "0",
      "terminal" : "0",
      "latitude" : "24.14551",
      "inDis" : "50",
      "routeId" : "33",
      "seqNo" : "37"
   },
   {
      "GoBack" : "1",
      "longitude" : "120.69219",
      "outDis" : "50",
      "Id" : "0073",
      "oid" : "DC58FAFF2823409C85D41F4069BA53F3",
      "districtId" : "1",
      "nameZh" : "明功堂醫院",
      "pgp" : "0",
      "terminal" : "0",
      "latitude" : "24.14272",
      "inDis" : "50",
      "routeId" : "33",
      "seqNo" : "38"
   },
   {
      "GoBack" : "1",
      "longitude" : "120.69065",
      "outDis" : "50",
      "Id" : "2030",
      "oid" : "4D6EAB1C5E774951B5CA349A8B84E625",
      "districtId" : "1",
      "nameZh" : "自由富台東街口",
      "pgp" : "0",
      "terminal" : "0",
      "latitude" : "24.14281",
      "inDis" : "50",
      "routeId" : "33",
      "seqNo" : "39"
   },
   {
      "GoBack" : "1",
      "longitude" : "120.68759",
      "outDis" : "50",
      "Id" : "5318",
      "oid" : "A1B75E6B58034DD092CF2F3BFF2785FE",
      "districtId" : "1",
      "nameZh" : "立體停車場(自由路)",
      "pgp" : "0",
      "terminal" : "0",
      "latitude" : "24.14304",
      "inDis" : "50",
      "routeId" : "33",
      "seqNo" : "40"
   },
   {
      "GoBack" : "1",
      "longitude" : "120.68585",
      "outDis" : "50",
      "Id" : "0402",
      "oid" : "886B6E3A15404A9DA096743A9B50A85C",
      "districtId" : "1",
      "nameZh" : "干城站",
      "pgp" : "0",
      "terminal" : "0",
      "latitude" : "24.14086",
      "inDis" : "50",
      "routeId" : "33",
      "seqNo" : "41"
   },
   {
      "GoBack" : "1",
      "longitude" : "120.68455",
      "outDis" : "75",
      "Id" : "1824",
      "oid" : "301454436",
      "districtId" : "1",
      "nameZh" : "臺中火車站",
      "pgp" : "0",
      "terminal" : "0",
      "latitude" : "24.1372",
      "inDis" : "75",
      "routeId" : "33",
      "seqNo" : "42"
   },
   {
      "GoBack" : "1",
      "longitude" : "120.6822",
      "outDis" : "50",
      "Id" : "0518",
      "oid" : "6E444CACEA1341AAB81CA410AE8B55B3",
      "districtId" : "1",
      "nameZh" : "臺中酒廠(復興路)",
      "pgp" : "0",
      "terminal" : "0",
      "latitude" : "24.13411",
      "inDis" : "50",
      "routeId" : "33",
      "seqNo" : "43"
   },
   {
      "GoBack" : "1",
      "longitude" : "120.67994",
      "outDis" : "50",
      "Id" : "1659",
      "oid" : "EC33BF1624CE495F89558F475C1E12FF",
      "districtId" : "1",
      "nameZh" : "文化創意園區",
      "pgp" : "0",
      "terminal" : "0",
      "latitude" : "24.13317",
      "inDis" : "50",
      "routeId" : "33",
      "seqNo" : "44"
   },
   {
      "GoBack" : "1",
      "longitude" : "120.67845",
      "outDis" : "50",
      "Id" : "0180",
      "oid" : "226C48F26C514DBFA042772FB6A79E5A",
      "districtId" : "1",
      "nameZh" : "林祖厝",
      "pgp" : "0",
      "terminal" : "0",
      "latitude" : "24.13248",
      "inDis" : "50",
      "routeId" : "33",
      "seqNo" : "45"
   },
   {
      "GoBack" : "1",
      "longitude" : "120.67715",
      "outDis" : "50",
      "Id" : "4313",
      "oid" : "4C51C81A00A14D9FAAB66F3AE600DF99",
      "districtId" : "1",
      "nameZh" : "醒修宮",
      "pgp" : "0",
      "terminal" : "0",
      "latitude" : "24.13075",
      "inDis" : "50",
      "routeId" : "33",
      "seqNo" : "46"
   },
   {
      "GoBack" : "1",
      "longitude" : "120.67875",
      "outDis" : "50",
      "Id" : "0735",
      "oid" : "98B874161DD94FBE851935B21B65CA9F",
      "districtId" : "1",
      "nameZh" : "恩光堂 ",
      "pgp" : "0",
      "terminal" : "0",
      "latitude" : "24.12747",
      "inDis" : "50",
      "routeId" : "33",
      "seqNo" : "47"
   },
   {
      "GoBack" : "1",
      "longitude" : "120.67929",
      "outDis" : "50",
      "Id" : "0038",
      "oid" : "42F0554CADFF4C81A5EB3D098EAECBD3",
      "districtId" : "1",
      "nameZh" : "國光國小 ",
      "pgp" : "0",
      "terminal" : "0",
      "latitude" : "24.12583",
      "inDis" : "50",
      "routeId" : "33",
      "seqNo" : "48"
   },
   {
      "GoBack" : "1",
      "longitude" : "120.67578",
      "outDis" : "50",
      "Id" : "0037",
      "oid" : "A0862ECE28294E379A22D5F222A23856",
      "districtId" : "1",
      "nameZh" : "中興大學(興大路)",
      "pgp" : "0",
      "terminal" : "0",
      "latitude" : "24.12421",
      "inDis" : "50",
      "routeId" : "33",
      "seqNo" : "49"
   },
   {
      "GoBack" : "1",
      "longitude" : "120.6708",
      "outDis" : "50",
      "Id" : "5119",
      "oid" : "97EF85607928447292F182D3737E6E50",
      "districtId" : "1",
      "nameZh" : "美村五權南路口",
      "pgp" : "0",
      "terminal" : "0",
      "latitude" : "24.12231",
      "inDis" : "50",
      "routeId" : "33",
      "seqNo" : "50"
   },
   {
      "GoBack" : "1",
      "longitude" : "120.66775",
      "outDis" : "50",
      "Id" : "0245",
      "oid" : "21834707B96640E9A557BC700BB5CF11",
      "districtId" : "1",
      "nameZh" : "信義國小(美村路)",
      "pgp" : "0",
      "terminal" : "0",
      "latitude" : "24.12238",
      "inDis" : "50",
      "routeId" : "33",
      "seqNo" : "51"
   },
   {
      "GoBack" : "1",
      "longitude" : "120.66672",
      "outDis" : "50",
      "Id" : "4542",
      "oid" : "EBB75782EDFB4343AAFB386551183020",
      "districtId" : "1",
      "nameZh" : "美村南忠明南路口",
      "pgp" : "0",
      "terminal" : "0",
      "latitude" : "24.12033",
      "inDis" : "50",
      "routeId" : "33",
      "seqNo" : "52"
   },
   {
      "GoBack" : "1",
      "longitude" : "120.66687",
      "outDis" : "50",
      "Id" : "2582",
      "oid" : "783D1E62B6C84EDC9EF1400A609139EE",
      "districtId" : "1",
      "nameZh" : "南和里",
      "pgp" : "0",
      "terminal" : "0",
      "latitude" : "24.11732",
      "inDis" : "50",
      "routeId" : "33",
      "seqNo" : "53"
   },
   {
      "GoBack" : "1",
      "longitude" : "120.66685",
      "outDis" : "50",
      "Id" : "4617",
      "oid" : "13DC44680A0B4385AB4E712C36C95ED5",
      "districtId" : "1",
      "nameZh" : "僑泰中學(美村南路)",
      "pgp" : "0",
      "terminal" : "0",
      "latitude" : "24.11428",
      "inDis" : "50",
      "routeId" : "33",
      "seqNo" : "54"
   },
   {
      "GoBack" : "1",
      "longitude" : "120.66525",
      "outDis" : "50",
      "Id" : "4258",
      "oid" : "304914050",
      "districtId" : "1",
      "nameZh" : "工學一街口",
      "pgp" : "0",
      "terminal" : "0",
      "latitude" : "24.1139",
      "inDis" : "50",
      "routeId" : "33",
      "seqNo" : "55"
   },
   {
      "GoBack" : "1",
      "longitude" : "120.66213",
      "outDis" : "50",
      "Id" : "4537",
      "oid" : "54285B539A3240379BB547ECBF84520B",
      "districtId" : "1",
      "nameZh" : "臺中高工(高工路)",
      "pgp" : "0",
      "terminal" : "0",
      "latitude" : "24.11318",
      "inDis" : "50",
      "routeId" : "33",
      "seqNo" : "56"
   },
   {
      "GoBack" : "1",
      "longitude" : "120.65879",
      "outDis" : "50",
      "Id" : "4289",
      "oid" : "12606",
      "districtId" : "1",
      "nameZh" : "高工文心南路口",
      "pgp" : "0",
      "terminal" : "0",
      "latitude" : "24.11333",
      "inDis" : "50",
      "routeId" : "33",
      "seqNo" : "57"
   },
   {
      "GoBack" : "1",
      "longitude" : "120.65422",
      "outDis" : "50",
      "Id" : "4536",
      "oid" : "7670",
      "districtId" : "1",
      "nameZh" : "復興大慶街口",
      "pgp" : "0",
      "terminal" : "0",
      "latitude" : "24.11444",
      "inDis" : "50",
      "routeId" : "33",
      "seqNo" : "58"
   },
   {
      "GoBack" : "1",
      "longitude" : "120.65076",
      "outDis" : "50",
      "Id" : "3330",
      "oid" : "33E51C31CDAF4F988F38F610E423009A",
      "districtId" : "1",
      "nameZh" : "勤工派出所",
      "pgp" : "0",
      "terminal" : "0",
      "latitude" : "24.11193",
      "inDis" : "50",
      "routeId" : "33",
      "seqNo" : "59"
   },
   {
      "GoBack" : "1",
      "longitude" : "120.64738",
      "outDis" : "50",
      "Id" : "5195",
      "oid" : "8DDA808125F84A61B1381FFE1CBBC528",
      "districtId" : "1",
      "nameZh" : "復興環中路口",
      "pgp" : "0",
      "terminal" : "0",
      "latitude" : "24.11079",
      "inDis" : "50",
      "routeId" : "33",
      "seqNo" : "60"
   },
   {
      "GoBack" : "1",
      "longitude" : "120.645",
      "outDis" : "50",
      "Id" : "3790",
      "oid" : "48E7A99515244AF48EB3E238DC9CE30E",
      "districtId" : "1",
      "nameZh" : "樹仔腳",
      "pgp" : "0",
      "terminal" : "1",
      "latitude" : "24.11004",
      "inDis" : "50",
      "routeId" : "33",
      "seqNo" : "61"
   },
   {
      "GoBack" : "1",
      "longitude" : "120.64138",
      "outDis" : "50",
      "Id" : "0994",
      "oid" : "6F8F8A7DF94A4D2E94A4C2662D22B76F",
      "districtId" : "1",
      "nameZh" : "九張犁",
      "pgp" : "0",
      "terminal" : "0",
      "latitude" : "24.10887",
      "inDis" : "50",
      "routeId" : "33",
      "seqNo" : "62"
   },
   {
      "GoBack" : "1",
      "longitude" : "120.6384",
      "outDis" : "50",
      "Id" : "2366",
      "oid" : "CAB262DF731B446CAFBF21C0AC89C11F",
      "districtId" : "1",
      "nameZh" : "明道花園城",
      "pgp" : "0",
      "terminal" : "0",
      "latitude" : "24.10795",
      "inDis" : "50",
      "routeId" : "33",
      "seqNo" : "63"
   },
   {
      "GoBack" : "1",
      "longitude" : "120.63665",
      "outDis" : "50",
      "Id" : "2365",
      "oid" : "342B228353A0458CB9C2D6C4AD2CE094",
      "districtId" : "1",
      "nameZh" : "明道中學",
      "pgp" : "0",
      "terminal" : "0",
      "latitude" : "24.10731",
      "inDis" : "50",
      "routeId" : "33",
      "seqNo" : "64"
   },
   {
      "GoBack" : "1",
      "longitude" : "120.63294",
      "outDis" : "50",
      "Id" : "2821",
      "oid" : "7377",
      "districtId" : "1",
      "nameZh" : "烏日橋",
      "pgp" : "0",
      "terminal" : "0",
      "latitude" : "24.10581",
      "inDis" : "50",
      "routeId" : "33",
      "seqNo" : "65"
   },
   {
      "GoBack" : "1",
      "longitude" : "120.62763",
      "outDis" : "50",
      "Id" : "4916",
      "oid" : "307333052",
      "districtId" : "1",
      "nameZh" : "新興五光路口",
      "pgp" : "0",
      "terminal" : "0",
      "latitude" : "24.10415",
      "inDis" : "50",
      "routeId" : "33",
      "seqNo" : "66"
   },
   {
      "GoBack" : "1",
      "longitude" : "120.62807",
      "outDis" : "50",
      "Id" : "0040",
      "oid" : "313736919",
      "districtId" : "1",
      "nameZh" : "五光公園三街口",
      "pgp" : "0",
      "terminal" : "0",
      "latitude" : "24.10298",
      "inDis" : "50",
      "routeId" : "33",
      "seqNo" : "67"
   },
   {
      "GoBack" : "1",
      "longitude" : "120.62698",
      "outDis" : "50",
      "Id" : "5278",
      "oid" : "310953050",
      "districtId" : "1",
      "nameZh" : "公園五光路口",
      "pgp" : "0",
      "terminal" : "0",
      "latitude" : "24.10192",
      "inDis" : "50",
      "routeId" : "33",
      "seqNo" : "68"
   },
   {
      "GoBack" : "1",
      "longitude" : "120.62453",
      "outDis" : "50",
      "Id" : "5277",
      "oid" : "310953048",
      "districtId" : "1",
      "nameZh" : "公園光日路口",
      "pgp" : "0",
      "terminal" : "0",
      "latitude" : "24.10251",
      "inDis" : "50",
      "routeId" : "33",
      "seqNo" : "69"
   },
   {
      "GoBack" : "1",
      "longitude" : "120.62445",
      "outDis" : "50",
      "Id" : "5125",
      "oid" : "308843474",
      "districtId" : "1",
      "nameZh" : "烏日區公所(新興路)",
      "pgp" : "0",
      "terminal" : "0",
      "latitude" : "24.10429",
      "inDis" : "50",
      "routeId" : "33",
      "seqNo" : "70"
   },
   {
      "GoBack" : "1",
      "longitude" : "120.62169",
      "outDis" : "50",
      "Id" : "5124",
      "oid" : "308843476",
      "districtId" : "1",
      "nameZh" : "烏日(新興路)",
      "pgp" : "0",
      "terminal" : "0",
      "latitude" : "24.10511",
      "inDis" : "50",
      "routeId" : "33",
      "seqNo" : "71"
   },
   {
      "GoBack" : "1",
      "longitude" : "120.61784",
      "outDis" : "50",
      "Id" : "5126",
      "oid" : "308843478",
      "districtId" : "1",
      "nameZh" : "烏日國中(新興路)",
      "pgp" : "0",
      "terminal" : "0",
      "latitude" : "24.10581",
      "inDis" : "50",
      "routeId" : "33",
      "seqNo" : "72"
   },
   {
      "GoBack" : "1",
      "longitude" : "120.61715",
      "outDis" : "50",
      "Id" : "2907",
      "oid" : "9DBBAA82F4F84B2D8468B499C7CCCF87",
      "districtId" : "1",
      "nameZh" : "高鐵臺中站(17月台)",
      "pgp" : "0",
      "terminal" : "0",
      "latitude" : "24.11181",
      "inDis" : "50",
      "routeId" : "33",
      "seqNo" : "73"
   },
   {
      "GoBack" : "2",
      "longitude" : "120.61803",
      "outDis" : "50",
      "Id" : "2907",
      "oid" : "312664215",
      "districtId" : "1",
      "nameZh" : "高鐵臺中站(17月台)",
      "pgp" : "0",
      "terminal" : "0",
      "latitude" : "24.11128",
      "inDis" : "50",
      "routeId" : "33",
      "seqNo" : "1"
   },
   {
      "GoBack" : "2",
      "longitude" : "120.61784",
      "outDis" : "50",
      "Id" : "5126",
      "oid" : "308843479",
      "districtId" : "1",
      "nameZh" : "烏日國中(新興路)",
      "pgp" : "0",
      "terminal" : "0",
      "latitude" : "24.10581",
      "inDis" : "50",
      "routeId" : "33",
      "seqNo" : "2"
   },
   {
      "GoBack" : "2",
      "longitude" : "120.62169",
      "outDis" : "50",
      "Id" : "5124",
      "oid" : "308843477",
      "districtId" : "1",
      "nameZh" : "烏日(新興路)",
      "pgp" : "0",
      "terminal" : "0",
      "latitude" : "24.10511",
      "inDis" : "50",
      "routeId" : "33",
      "seqNo" : "3"
   },
   {
      "GoBack" : "2",
      "longitude" : "120.62445",
      "outDis" : "50",
      "Id" : "5125",
      "oid" : "308843475",
      "districtId" : "1",
      "nameZh" : "烏日區公所(新興路)",
      "pgp" : "0",
      "terminal" : "0",
      "latitude" : "24.10429",
      "inDis" : "50",
      "routeId" : "33",
      "seqNo" : "4"
   },
   {
      "GoBack" : "2",
      "longitude" : "120.62453",
      "outDis" : "50",
      "Id" : "5277",
      "oid" : "310953048",
      "districtId" : "1",
      "nameZh" : "公園光日路口",
      "pgp" : "0",
      "terminal" : "0",
      "latitude" : "24.10251",
      "inDis" : "50",
      "routeId" : "33",
      "seqNo" : "5"
   },
   {
      "GoBack" : "2",
      "longitude" : "120.62698",
      "outDis" : "50",
      "Id" : "5278",
      "oid" : "310953050",
      "districtId" : "1",
      "nameZh" : "公園五光路口",
      "pgp" : "0",
      "terminal" : "0",
      "latitude" : "24.10192",
      "inDis" : "50",
      "routeId" : "33",
      "seqNo" : "6"
   },
   {
      "GoBack" : "2",
      "longitude" : "120.62807",
      "outDis" : "50",
      "Id" : "0040",
      "oid" : "313736919",
      "districtId" : "1",
      "nameZh" : "五光公園三街口",
      "pgp" : "0",
      "terminal" : "0",
      "latitude" : "24.10298",
      "inDis" : "50",
      "routeId" : "33",
      "seqNo" : "7"
   },
   {
      "GoBack" : "2",
      "longitude" : "120.62715",
      "outDis" : "50",
      "Id" : "4916",
      "oid" : "308843529",
      "districtId" : "1",
      "nameZh" : "新興五光路口",
      "pgp" : "0",
      "terminal" : "0",
      "latitude" : "24.10414",
      "inDis" : "50",
      "routeId" : "33",
      "seqNo" : "8"
   },
   {
      "GoBack" : "2",
      "longitude" : "120.63287",
      "outDis" : "50",
      "Id" : "2821",
      "oid" : "8218",
      "districtId" : "1",
      "nameZh" : "烏日橋",
      "pgp" : "0",
      "terminal" : "0",
      "latitude" : "24.10578",
      "inDis" : "50",
      "routeId" : "33",
      "seqNo" : "9"
   },
   {
      "GoBack" : "2",
      "longitude" : "120.63707",
      "outDis" : "50",
      "Id" : "2365",
      "oid" : "3742",
      "districtId" : "1",
      "nameZh" : "明道中學",
      "pgp" : "0",
      "terminal" : "0",
      "latitude" : "24.10751",
      "inDis" : "50",
      "routeId" : "33",
      "seqNo" : "10"
   },
   {
      "GoBack" : "2",
      "longitude" : "120.63859",
      "outDis" : "50",
      "Id" : "2366",
      "oid" : "3729",
      "districtId" : "1",
      "nameZh" : "明道花園城",
      "pgp" : "0",
      "terminal" : "0",
      "latitude" : "24.10799",
      "inDis" : "50",
      "routeId" : "33",
      "seqNo" : "11"
   },
   {
      "GoBack" : "2",
      "longitude" : "120.64137",
      "outDis" : "50",
      "Id" : "0994",
      "oid" : "92B24BAC1ECA49FB9D5A2EA1F2F516C7",
      "districtId" : "1",
      "nameZh" : "九張犁",
      "pgp" : "0",
      "terminal" : "0",
      "latitude" : "24.10873",
      "inDis" : "50",
      "routeId" : "33",
      "seqNo" : "12"
   },
   {
      "GoBack" : "2",
      "longitude" : "120.64555",
      "outDis" : "50",
      "Id" : "3790",
      "oid" : "14DAE3F6EB4D48678FD2DE1F0A5668F6",
      "districtId" : "1",
      "nameZh" : "樹仔腳",
      "pgp" : "0",
      "terminal" : "0",
      "latitude" : "24.11009",
      "inDis" : "50",
      "routeId" : "33",
      "seqNo" : "14"
   },
   {
      "GoBack" : "2",
      "longitude" : "120.64791",
      "outDis" : "50",
      "Id" : "5195",
      "oid" : "1986DF669E5243AE890B41EF8E56E7DC",
      "districtId" : "1",
      "nameZh" : "復興環中路口",
      "pgp" : "0",
      "terminal" : "0",
      "latitude" : "24.11084",
      "inDis" : "50",
      "routeId" : "33",
      "seqNo" : "15"
   },
   {
      "GoBack" : "2",
      "longitude" : "120.64969",
      "outDis" : "50",
      "Id" : "3330",
      "oid" : "B04F63665E7B40B9A474793C439BD590",
      "districtId" : "1",
      "nameZh" : "勤工派出所",
      "pgp" : "0",
      "terminal" : "0",
      "latitude" : "24.11149",
      "inDis" : "50",
      "routeId" : "33",
      "seqNo" : "16"
   },
   {
      "GoBack" : "2",
      "longitude" : "120.65307",
      "outDis" : "50",
      "Id" : "4536",
      "oid" : "602727BFE39B4A2BA256A52BF9D2D1BD",
      "districtId" : "1",
      "nameZh" : "復興大慶街口",
      "pgp" : "0",
      "terminal" : "0",
      "latitude" : "24.11335",
      "inDis" : "50",
      "routeId" : "33",
      "seqNo" : "17"
   },
   {
      "GoBack" : "2",
      "longitude" : "120.656",
      "outDis" : "50",
      "Id" : "4354",
      "oid" : "13123",
      "districtId" : "1",
      "nameZh" : "文心南大慶街口",
      "pgp" : "0",
      "terminal" : "0",
      "latitude" : "24.11419",
      "inDis" : "50",
      "routeId" : "33",
      "seqNo" : "18"
   },
   {
      "GoBack" : "2",
      "longitude" : "120.65844",
      "outDis" : "50",
      "Id" : "4289",
      "oid" : "761A2F34DECC40ECA9FE4A7C2584D9EF",
      "districtId" : "1",
      "nameZh" : "高工文心南路口",
      "pgp" : "0",
      "terminal" : "0",
      "latitude" : "24.11325",
      "inDis" : "50",
      "routeId" : "33",
      "seqNo" : "19"
   },
   {
      "GoBack" : "2",
      "longitude" : "120.66242",
      "outDis" : "50",
      "Id" : "4537",
      "oid" : "13C06345D3CC4B7480E50302FF7AAAB4",
      "districtId" : "1",
      "nameZh" : "臺中高工(高工路)",
      "pgp" : "0",
      "terminal" : "0",
      "latitude" : "24.11324",
      "inDis" : "50",
      "routeId" : "33",
      "seqNo" : "20"
   },
   {
      "GoBack" : "2",
      "longitude" : "120.66582",
      "outDis" : "50",
      "Id" : "4258",
      "oid" : "304914051",
      "districtId" : "1",
      "nameZh" : "工學一街口",
      "pgp" : "0",
      "terminal" : "0",
      "latitude" : "24.11401",
      "inDis" : "50",
      "routeId" : "33",
      "seqNo" : "21"
   },
   {
      "GoBack" : "2",
      "longitude" : "120.66682",
      "outDis" : "50",
      "Id" : "4617",
      "oid" : "167EAFFDACC74DAFBE161DACF0499BED",
      "districtId" : "1",
      "nameZh" : "僑泰中學(美村南路)",
      "pgp" : "0",
      "terminal" : "0",
      "latitude" : "24.11465",
      "inDis" : "50",
      "routeId" : "33",
      "seqNo" : "22"
   },
   {
      "GoBack" : "2",
      "longitude" : "120.66683",
      "outDis" : "50",
      "Id" : "2582",
      "oid" : "22D5E3D737234675963E89FF6D31A731",
      "districtId" : "1",
      "nameZh" : "南和里",
      "pgp" : "0",
      "terminal" : "0",
      "latitude" : "24.11734",
      "inDis" : "50",
      "routeId" : "33",
      "seqNo" : "23"
   },
   {
      "GoBack" : "2",
      "longitude" : "120.66688",
      "outDis" : "50",
      "Id" : "4542",
      "oid" : "86495561A52D41B1AEE36B07C08DFDF7",
      "districtId" : "1",
      "nameZh" : "美村南忠明南路口",
      "pgp" : "0",
      "terminal" : "0",
      "latitude" : "24.1202",
      "inDis" : "50",
      "routeId" : "33",
      "seqNo" : "24"
   },
   {
      "GoBack" : "2",
      "longitude" : "120.66805",
      "outDis" : "50",
      "Id" : "0245",
      "oid" : "74F162973F9948AFA8E252731C686903",
      "districtId" : "1",
      "nameZh" : "信義國小(美村路)",
      "pgp" : "0",
      "terminal" : "0",
      "latitude" : "24.12225",
      "inDis" : "50",
      "routeId" : "33",
      "seqNo" : "25"
   },
   {
      "GoBack" : "2",
      "longitude" : "120.6706",
      "outDis" : "50",
      "Id" : "5119",
      "oid" : "87160F54778C4F1285E4F5A43C4A03D2",
      "districtId" : "1",
      "nameZh" : "美村五權南路口",
      "pgp" : "0",
      "terminal" : "0",
      "latitude" : "24.12237",
      "inDis" : "50",
      "routeId" : "33",
      "seqNo" : "26"
   },
   {
      "GoBack" : "2",
      "longitude" : "120.67584",
      "outDis" : "50",
      "Id" : "0037",
      "oid" : "CC8CEAE028DE427D95AC28CE6FDEDE18",
      "districtId" : "1",
      "nameZh" : "中興大學(興大路)",
      "pgp" : "0",
      "terminal" : "0",
      "latitude" : "24.12412",
      "inDis" : "50",
      "routeId" : "33",
      "seqNo" : "27"
   },
   {
      "GoBack" : "2",
      "longitude" : "120.6794",
      "outDis" : "50",
      "Id" : "0038",
      "oid" : "F119E3617F4244879DF4C23165F43B69",
      "districtId" : "1",
      "nameZh" : "國光國小 ",
      "pgp" : "0",
      "terminal" : "0",
      "latitude" : "24.12589",
      "inDis" : "50",
      "routeId" : "33",
      "seqNo" : "28"
   },
   {
      "GoBack" : "2",
      "longitude" : "120.67891",
      "outDis" : "50",
      "Id" : "0735",
      "oid" : "303E3C88D6D242F29C88B3F6AFD33CB6",
      "districtId" : "1",
      "nameZh" : "恩光堂 ",
      "pgp" : "0",
      "terminal" : "0",
      "latitude" : "24.12748",
      "inDis" : "50",
      "routeId" : "33",
      "seqNo" : "29"
   },
   {
      "GoBack" : "2",
      "longitude" : "120.67757",
      "outDis" : "50",
      "Id" : "4313",
      "oid" : "77F7AD2D7FAC4DB48C14848B39ABAC86",
      "districtId" : "1",
      "nameZh" : "醒修宮",
      "pgp" : "0",
      "terminal" : "0",
      "latitude" : "24.13005",
      "inDis" : "50",
      "routeId" : "33",
      "seqNo" : "30"
   },
   {
      "GoBack" : "2",
      "longitude" : "120.67699",
      "outDis" : "50",
      "Id" : "0180",
      "oid" : "EA1E6C24B09247488A247764B0A4D72E",
      "districtId" : "1",
      "nameZh" : "林祖厝",
      "pgp" : "0",
      "terminal" : "0",
      "latitude" : "24.13194",
      "inDis" : "50",
      "routeId" : "33",
      "seqNo" : "31"
   },
   {
      "GoBack" : "2",
      "longitude" : "120.67994",
      "outDis" : "50",
      "Id" : "1659",
      "oid" : "F0E68041DAE4459F8CF5BD93C31AB18D",
      "districtId" : "1",
      "nameZh" : "文化創意園區",
      "pgp" : "0",
      "terminal" : "0",
      "latitude" : "24.13317",
      "inDis" : "50",
      "routeId" : "33",
      "seqNo" : "32"
   },
   {
      "GoBack" : "2",
      "longitude" : "120.6823",
      "outDis" : "50",
      "Id" : "0518",
      "oid" : "6BEA7C413AB54424AC87114455E50ED2",
      "districtId" : "1",
      "nameZh" : "臺中酒廠(復興路)",
      "pgp" : "0",
      "terminal" : "0",
      "latitude" : "24.13418",
      "inDis" : "50",
      "routeId" : "33",
      "seqNo" : "33"
   },
   {
      "GoBack" : "2",
      "longitude" : "120.68469",
      "outDis" : "50",
      "Id" : "1824",
      "oid" : "475945820A884C94AC1C14ECA280A6A6",
      "districtId" : "1",
      "nameZh" : "臺中火車站",
      "pgp" : "0",
      "terminal" : "0",
      "latitude" : "24.13732",
      "inDis" : "50",
      "routeId" : "33",
      "seqNo" : "34"
   },
   {
      "GoBack" : "2",
      "longitude" : "120.686",
      "outDis" : "50",
      "Id" : "0402",
      "oid" : "A9B32E71251F49699B8E37779568F148",
      "districtId" : "1",
      "nameZh" : "干城站",
      "pgp" : "0",
      "terminal" : "0",
      "latitude" : "24.14094",
      "inDis" : "50",
      "routeId" : "33",
      "seqNo" : "35"
   },
   {
      "GoBack" : "2",
      "longitude" : "120.68582",
      "outDis" : "50",
      "Id" : "4561",
      "oid" : "4C0F8426770D41898B45F60F2EFB829E",
      "districtId" : "1",
      "nameZh" : "立體停車場(雙十路)",
      "pgp" : "0",
      "terminal" : "0",
      "latitude" : "24.14248",
      "inDis" : "50",
      "routeId" : "33",
      "seqNo" : "36"
   },
   {
      "GoBack" : "2",
      "longitude" : "120.68759",
      "outDis" : "50",
      "Id" : "5318",
      "oid" : "A1B75E6B58034DD092CF2F3BFF2785FE",
      "districtId" : "1",
      "nameZh" : "立體停車場(自由路)",
      "pgp" : "0",
      "terminal" : "0",
      "latitude" : "24.14304",
      "inDis" : "50",
      "routeId" : "33",
      "seqNo" : "37"
   },
   {
      "GoBack" : "2",
      "longitude" : "120.69054",
      "outDis" : "50",
      "Id" : "2030",
      "oid" : "CA8BB0F24DEA42C3AEE75ECA93177574",
      "districtId" : "1",
      "nameZh" : "自由富台東街口",
      "pgp" : "0",
      "terminal" : "0",
      "latitude" : "24.14284",
      "inDis" : "50",
      "routeId" : "33",
      "seqNo" : "38"
   },
   {
      "GoBack" : "2",
      "longitude" : "120.69227",
      "outDis" : "50",
      "Id" : "0073",
      "oid" : "45C26874FBE1463BA5B86C19C0133C55",
      "districtId" : "1",
      "nameZh" : "明功堂醫院",
      "pgp" : "0",
      "terminal" : "0",
      "latitude" : "24.14277",
      "inDis" : "50",
      "routeId" : "33",
      "seqNo" : "39"
   },
   {
      "GoBack" : "2",
      "longitude" : "120.69446",
      "outDis" : "50",
      "Id" : "0844",
      "oid" : "3F5DCE23C20344838E493E8F98BFD105",
      "districtId" : "1",
      "nameZh" : "進德國小",
      "pgp" : "0",
      "terminal" : "0",
      "latitude" : "24.14541",
      "inDis" : "50",
      "routeId" : "33",
      "seqNo" : "40"
   },
   {
      "GoBack" : "2",
      "longitude" : "120.69447",
      "outDis" : "50",
      "Id" : "0599",
      "oid" : "899DB8F4371F4C06BD2901DA5E6AFD6C",
      "districtId" : "1",
      "nameZh" : "合作市場",
      "pgp" : "0",
      "terminal" : "0",
      "latitude" : "24.1503",
      "inDis" : "50",
      "routeId" : "33",
      "seqNo" : "41"
   },
   {
      "GoBack" : "2",
      "longitude" : "120.69445",
      "outDis" : "50",
      "Id" : "0313",
      "oid" : "7D729E5DDE6644FDB14D8121E42F8C3E",
      "districtId" : "1",
      "nameZh" : "進化力行路口",
      "pgp" : "0",
      "terminal" : "0",
      "latitude" : "24.15233",
      "inDis" : "50",
      "routeId" : "33",
      "seqNo" : "42"
   },
   {
      "GoBack" : "2",
      "longitude" : "120.69442",
      "outDis" : "50",
      "Id" : "0932",
      "oid" : "6B7815CCF0DB4C2EA085B4A7044A2B3A",
      "districtId" : "1",
      "nameZh" : "進化興進路口",
      "pgp" : "0",
      "terminal" : "0",
      "latitude" : "24.15449",
      "inDis" : "50",
      "routeId" : "33",
      "seqNo" : "43"
   },
   {
      "GoBack" : "2",
      "longitude" : "120.69447",
      "outDis" : "50",
      "Id" : "0754",
      "oid" : "9F8FB96847CF4996A8297E341EF5E7F9",
      "districtId" : "1",
      "nameZh" : "進化國瑞街口",
      "pgp" : "0",
      "terminal" : "0",
      "latitude" : "24.15692",
      "inDis" : "50",
      "routeId" : "33",
      "seqNo" : "44"
   },
   {
      "GoBack" : "2",
      "longitude" : "120.69443",
      "outDis" : "50",
      "Id" : "0588",
      "oid" : "0A5DF33BAA1D46FA850CD7BAA06BBEF3",
      "districtId" : "1",
      "nameZh" : "光華高工",
      "pgp" : "0",
      "terminal" : "0",
      "latitude" : "24.15799",
      "inDis" : "50",
      "routeId" : "33",
      "seqNo" : "45"
   },
   {
      "GoBack" : "2",
      "longitude" : "120.69418",
      "outDis" : "50",
      "Id" : "0466",
      "oid" : "BA8BB3F2E826468DB85D7C1DEE68983E",
      "districtId" : "1",
      "nameZh" : "進化天祥街口",
      "pgp" : "0",
      "terminal" : "0",
      "latitude" : "24.16052",
      "inDis" : "50",
      "routeId" : "33",
      "seqNo" : "46"
   },
   {
      "GoBack" : "2",
      "longitude" : "120.69194",
      "outDis" : "50",
      "Id" : "5515",
      "oid" : "315467329",
      "districtId" : "1",
      "nameZh" : "北屯國小(進化北路)",
      "pgp" : "0",
      "terminal" : "0",
      "latitude" : "24.16284",
      "inDis" : "50",
      "routeId" : "33",
      "seqNo" : "47"
   },
   {
      "GoBack" : "2",
      "longitude" : "120.68986",
      "outDis" : "50",
      "Id" : "0493",
      "oid" : "12684",
      "districtId" : "1",
      "nameZh" : "北屯市場",
      "pgp" : "0",
      "terminal" : "0",
      "latitude" : "24.16306",
      "inDis" : "50",
      "routeId" : "33",
      "seqNo" : "48"
   },
   {
      "GoBack" : "2",
      "longitude" : "120.68751",
      "outDis" : "50",
      "Id" : "0830",
      "oid" : "2C9952B04AC043DDAA0046DA0EED0C18",
      "districtId" : "1",
      "nameZh" : "稅務新村",
      "pgp" : "0",
      "terminal" : "0",
      "latitude" : "24.16315",
      "inDis" : "50",
      "routeId" : "33",
      "seqNo" : "49"
   },
   {
      "GoBack" : "2",
      "longitude" : "120.68618",
      "outDis" : "50",
      "Id" : "0800",
      "oid" : "B1017BE3A0784F43B2B0836CE0B7DD83",
      "districtId" : "1",
      "nameZh" : "頂厝里",
      "pgp" : "0",
      "terminal" : "0",
      "latitude" : "24.16307",
      "inDis" : "50",
      "routeId" : "33",
      "seqNo" : "50"
   },
   {
      "GoBack" : "2",
      "longitude" : "120.6826",
      "outDis" : "50",
      "Id" : "4579",
      "oid" : "E2712A208AD64C028BC4F57E6CA98A60",
      "districtId" : "1",
      "nameZh" : "進化北永興街口",
      "pgp" : "0",
      "terminal" : "0",
      "latitude" : "24.16319",
      "inDis" : "50",
      "routeId" : "33",
      "seqNo" : "51"
   },
   {
      "GoBack" : "2",
      "longitude" : "120.68022",
      "outDis" : "50",
      "Id" : "0920",
      "oid" : "49D30389CC2B412AA5F92C1902F633F8",
      "districtId" : "1",
      "nameZh" : "衛道新世界",
      "pgp" : "0",
      "terminal" : "0",
      "latitude" : "24.16321",
      "inDis" : "50",
      "routeId" : "33",
      "seqNo" : "52"
   },
   {
      "GoBack" : "2",
      "longitude" : "120.67596",
      "outDis" : "50",
      "Id" : "4625",
      "oid" : "BA0A8079FB7C4283A0BD0BC5BBF534C8",
      "districtId" : "1",
      "nameZh" : "大道公廟(進化北路)",
      "pgp" : "0",
      "terminal" : "0",
      "latitude" : "24.16333",
      "inDis" : "50",
      "routeId" : "33",
      "seqNo" : "53"
   },
   {
      "GoBack" : "2",
      "longitude" : "120.67413",
      "outDis" : "50",
      "Id" : "5735",
      "oid" : "224A36EE9C8349EAB76F3E693B4E3DDD",
      "districtId" : "1",
      "nameZh" : "中清太原路口",
      "pgp" : "0",
      "terminal" : "0",
      "latitude" : "24.16422",
      "inDis" : "50",
      "routeId" : "33",
      "seqNo" : "54"
   },
   {
      "GoBack" : "2",
      "longitude" : "120.67336",
      "outDis" : "50",
      "Id" : "5736",
      "oid" : "6FBBA193659F44ECA284DFB223DB0EB5",
      "districtId" : "1",
      "nameZh" : "中清漢口路口",
      "pgp" : "0",
      "terminal" : "0",
      "latitude" : "24.16663",
      "inDis" : "50",
      "routeId" : "33",
      "seqNo" : "55"
   },
   {
      "GoBack" : "2",
      "longitude" : "120.67288",
      "outDis" : "50",
      "Id" : "5737",
      "oid" : "4D2F694B16124EE4870B11CD54A14338",
      "districtId" : "1",
      "nameZh" : "曉明女中(中清路)",
      "pgp" : "0",
      "terminal" : "0",
      "latitude" : "24.16835",
      "inDis" : "50",
      "routeId" : "33",
      "seqNo" : "56"
   },
   {
      "GoBack" : "2",
      "longitude" : "120.67221",
      "outDis" : "50",
      "Id" : "1629",
      "oid" : "B8F6E784289C41B197399A812576038B",
      "districtId" : "1",
      "nameZh" : "天津路商圈",
      "pgp" : "0",
      "terminal" : "0",
      "latitude" : "24.1707",
      "inDis" : "50",
      "routeId" : "33",
      "seqNo" : "57"
   },
   {
      "GoBack" : "2",
      "longitude" : "120.67177",
      "outDis" : "50",
      "Id" : "0805",
      "oid" : "E68DD3CB6E6A4DCF97BD39E873B295B6",
      "districtId" : "1",
      "nameZh" : "頂賴厝",
      "pgp" : "0",
      "terminal" : "0",
      "latitude" : "24.17222",
      "inDis" : "50",
      "routeId" : "33",
      "seqNo" : "58"
   },
   {
      "GoBack" : "2",
      "longitude" : "120.66994",
      "outDis" : "50",
      "Id" : "5201",
      "oid" : "310787708",
      "districtId" : "1",
      "nameZh" : "文心中清西一街口",
      "pgp" : "0",
      "terminal" : "0",
      "latitude" : "24.17356",
      "inDis" : "50",
      "routeId" : "33",
      "seqNo" : "59"
   },
   {
      "GoBack" : "2",
      "longitude" : "120.66782",
      "outDis" : "50",
      "Id" : "0228",
      "oid" : "15AFE114EA17452887F132572A0F9EFC",
      "districtId" : "1",
      "nameZh" : "文心陜西路口",
      "pgp" : "0",
      "terminal" : "0",
      "latitude" : "24.1734",
      "inDis" : "50",
      "routeId" : "33",
      "seqNo" : "60"
   },
   {
      "GoBack" : "2",
      "longitude" : "120.66657",
      "outDis" : "50",
      "Id" : "0229",
      "oid" : "D92F3CBA06A14377B306A7EC912248F3",
      "districtId" : "1",
      "nameZh" : "臺灣日報",
      "pgp" : "0",
      "terminal" : "0",
      "latitude" : "24.17316",
      "inDis" : "50",
      "routeId" : "33",
      "seqNo" : "61"
   },
   {
      "GoBack" : "2",
      "longitude" : "120.6636",
      "outDis" : "50",
      "Id" : "0230",
      "oid" : "1ECF862F636D402DBD1497309537CA86",
      "districtId" : "1",
      "nameZh" : "重慶國小",
      "pgp" : "0",
      "terminal" : "0",
      "latitude" : "24.17254",
      "inDis" : "50",
      "routeId" : "33",
      "seqNo" : "62"
   },
   {
      "GoBack" : "2",
      "longitude" : "120.66069",
      "outDis" : "50",
      "Id" : "4275",
      "oid" : "12538",
      "districtId" : "1",
      "nameZh" : "文心河南路口",
      "pgp" : "0",
      "terminal" : "0",
      "latitude" : "24.17149",
      "inDis" : "50",
      "routeId" : "33",
      "seqNo" : "63"
   },
   {
      "GoBack" : "2",
      "longitude" : "120.65932",
      "outDis" : "50",
      "Id" : "4612",
      "oid" : "855B50CA9C494212B59F8FA4D81CD6F6",
      "districtId" : "1",
      "nameZh" : "文華高中(文心路)",
      "pgp" : "0",
      "terminal" : "0",
      "latitude" : "24.17105",
      "inDis" : "50",
      "routeId" : "33",
      "seqNo" : "64"
   },
   {
      "GoBack" : "2",
      "longitude" : "120.65558",
      "outDis" : "50",
      "Id" : "4271",
      "oid" : "40BEB55ECB8B46FAB835D7B1C06697BB",
      "districtId" : "1",
      "nameZh" : "文心甘肅路口",
      "pgp" : "0",
      "terminal" : "0",
      "latitude" : "24.16922",
      "inDis" : "50",
      "routeId" : "33",
      "seqNo" : "65"
   },
   {
      "GoBack" : "2",
      "longitude" : "120.65211",
      "outDis" : "50",
      "Id" : "4273",
      "oid" : "6510CE7B6ACC44A69CA377C4E9F0C4C8",
      "districtId" : "1",
      "nameZh" : "文心西屯路口",
      "pgp" : "0",
      "terminal" : "0",
      "latitude" : "24.16628",
      "inDis" : "50",
      "routeId" : "33",
      "seqNo" : "66"
   },
   {
      "GoBack" : "2",
      "longitude" : "120.65044",
      "outDis" : "50",
      "Id" : "4269",
      "oid" : "3345D5367879424B94CB5AFB8EC63E55",
      "districtId" : "1",
      "nameZh" : "文心四川路口",
      "pgp" : "0",
      "terminal" : "0",
      "latitude" : "24.16417",
      "inDis" : "50",
      "routeId" : "33",
      "seqNo" : "67"
   },
   {
      "GoBack" : "2",
      "longitude" : "120.64695",
      "outDis" : "50",
      "Id" : "0017",
      "oid" : "B2669619A411465F88C6578BC58E4BB3",
      "districtId" : "1",
      "nameZh" : "臺中市政府",
      "pgp" : "0",
      "terminal" : "0",
      "latitude" : "24.16435",
      "inDis" : "50",
      "routeId" : "33",
      "seqNo" : "68"
   },
   {
      "GoBack" : "2",
      "longitude" : "120.64424",
      "outDis" : "50",
      "Id" : "0016",
      "oid" : "ECD83286C8AA4913967560250EBECCBA",
      "districtId" : "1",
      "nameZh" : "新光三越",
      "pgp" : "0",
      "terminal" : "0",
      "latitude" : "24.16589",
      "inDis" : "50",
      "routeId" : "33",
      "seqNo" : "69"
   },
   {
      "GoBack" : "2",
      "longitude" : "120.64203",
      "outDis" : "50",
      "Id" : "0015",
      "oid" : "B9589ADC613646CE9A7E15F44756B26F",
      "districtId" : "1",
      "nameZh" : "教師新村",
      "pgp" : "0",
      "terminal" : "0",
      "latitude" : "24.16722",
      "inDis" : "50",
      "routeId" : "33",
      "seqNo" : "70"
   },
   {
      "GoBack" : "2",
      "longitude" : "120.64151",
      "outDis" : "50",
      "Id" : "4530",
      "oid" : "2CADF75B955C48E99E2C4E3271D3F461",
      "districtId" : "1",
      "nameZh" : "河南臺灣大道口",
      "pgp" : "0",
      "terminal" : "0",
      "latitude" : "24.16841",
      "inDis" : "50",
      "routeId" : "33",
      "seqNo" : "71"
   },
   {
      "GoBack" : "2",
      "longitude" : "120.64358",
      "outDis" : "50",
      "Id" : "4615",
      "oid" : "9620897DB82B44B0B74C84243AED5CB5",
      "districtId" : "1",
      "nameZh" : "河南青海路口",
      "pgp" : "0",
      "terminal" : "0",
      "latitude" : "24.17064",
      "inDis" : "50",
      "routeId" : "33",
      "seqNo" : "72"
   },
   {
      "GoBack" : "2",
      "longitude" : "120.64714",
      "outDis" : "50",
      "Id" : "0113",
      "oid" : "5CF75898EE3546EABA7F8FA0DC830C54",
      "districtId" : "1",
      "nameZh" : "河南崇義街口",
      "pgp" : "0",
      "terminal" : "0",
      "latitude" : "24.1736",
      "inDis" : "50",
      "routeId" : "33",
      "seqNo" : "73"
   },
   {
      "GoBack" : "2",
      "longitude" : "120.64578",
      "outDis" : "50",
      "Id" : "0112",
      "oid" : "4919A9047F1145FDA9FAAE02E314F88E",
      "districtId" : "1",
      "nameZh" : "福星停車場",
      "pgp" : "0",
      "terminal" : "0",
      "latitude" : "24.1756",
      "inDis" : "50",
      "routeId" : "33",
      "seqNo" : "74"
   },
   {
      "GoBack" : "2",
      "longitude" : "120.64508",
      "outDis" : "50",
      "Id" : "4586",
      "oid" : "C44FF45B061A4710A3B709188C1692D4",
      "districtId" : "1",
      "nameZh" : "逢甲大學(福星路)",
      "pgp" : "0",
      "terminal" : "0",
      "latitude" : "24.17935",
      "inDis" : "50",
      "routeId" : "33",
      "seqNo" : "75"
   },
   {
      "GoBack" : "2",
      "longitude" : "120.64494",
      "outDis" : "50",
      "Id" : "4334",
      "oid" : "C3A75E355DDC4E9EA1094EE6AB9BAC8C",
      "districtId" : "1",
      "nameZh" : "福星西安街口",
      "pgp" : "0",
      "terminal" : "0",
      "latitude" : "24.1816",
      "inDis" : "50",
      "routeId" : "33",
      "seqNo" : "76"
   },
   {
      "GoBack" : "2",
      "longitude" : "120.64472",
      "outDis" : "50",
      "Id" : "5658",
      "oid" : "313222695",
      "districtId" : "1",
      "nameZh" : "漢翔公司(星享道)",
      "pgp" : "0",
      "terminal" : "0",
      "latitude" : "24.18421",
      "inDis" : "50",
      "routeId" : "33",
      "seqNo" : "77"
   },
   {
      "GoBack" : "2",
      "longitude" : "120.64438",
      "outDis" : "50",
      "Id" : "4327",
      "oid" : "6F802D2B4C9F409C96C8E60D546E71FA",
      "districtId" : "1",
      "nameZh" : "僑光科技大學",
      "pgp" : "0",
      "terminal" : "0",
      "latitude" : "24.18661",
      "inDis" : "50",
      "routeId" : "33",
      "seqNo" : "78"
   },
   {
      "GoBack" : "2",
      "longitude" : "120.64029",
      "outDis" : "50",
      "Id" : "2192",
      "oid" : "C641E5624A3744FB97968FE3906C29CC",
      "districtId" : "1",
      "nameZh" : "西苑高中",
      "pgp" : "0",
      "terminal" : "0",
      "latitude" : "24.18621",
      "inDis" : "50",
      "routeId" : "33",
      "seqNo" : "79"
   },
   {
      "GoBack" : "2",
      "longitude" : "120.64166",
      "outDis" : "50",
      "Id" : "5409",
      "oid" : "313222698",
      "districtId" : "1",
      "nameZh" : "文修停車場",
      "pgp" : "0",
      "terminal" : "0",
      "latitude" : "24.18505",
      "inDis" : "50",
      "routeId" : "33",
      "seqNo" : "80"
   }
]
