[
   {
      "GoBack" : "1",
      "longitude" : "120.61901",
      "outDis" : "1400",
      "Id" : "2908",
      "oid" : "2CEFFFBF403D4455A55DD92C2072139F",
      "districtId" : "1",
      "nameZh" : "高鐵臺中站(16月台)",
      "pgp" : "0",
      "terminal" : "0",
      "latitude" : "24.11052",
      "inDis" : "300",
      "routeId" : "85",
      "seqNo" : "1"
   },
   {
      "GoBack" : "1",
      "longitude" : "120.62606",
      "outDis" : "50",
      "Id" : "4176",
      "oid" : "129833958",
      "districtId" : "1",
      "nameZh" : "光日站",
      "pgp" : "0",
      "terminal" : "0",
      "latitude" : "24.1086",
      "inDis" : "50",
      "routeId" : "85",
      "seqNo" : "2"
   },
   {
      "GoBack" : "1",
      "longitude" : "120.63425",
      "outDis" : "50",
      "Id" : "5379",
      "oid" : "312026957",
      "districtId" : "1",
      "nameZh" : "九德(建國路)",
      "pgp" : "0",
      "terminal" : "0",
      "latitude" : "24.11078",
      "inDis" : "50",
      "routeId" : "85",
      "seqNo" : "4"
   },
   {
      "GoBack" : "1",
      "longitude" : "120.64784",
      "outDis" : "50",
      "Id" : "0132",
      "oid" : "A7B7EB56349D4701963C3057A95E4DE9",
      "districtId" : "1",
      "nameZh" : "大慶火車站",
      "pgp" : "0",
      "terminal" : "0",
      "latitude" : "24.11913",
      "inDis" : "50",
      "routeId" : "85",
      "seqNo" : "5"
   },
   {
      "GoBack" : "1",
      "longitude" : "120.64888",
      "outDis" : "50",
      "Id" : "4034",
      "oid" : "CED84887F2D3418BBE207D5533C690FB",
      "districtId" : "1",
      "nameZh" : "中山醫學大學",
      "pgp" : "0",
      "terminal" : "0",
      "latitude" : "24.12248",
      "inDis" : "50",
      "routeId" : "85",
      "seqNo" : "6"
   },
   {
      "GoBack" : "1",
      "longitude" : "120.64654",
      "outDis" : "50",
      "Id" : "0026",
      "oid" : "76C2DE005C1C459E922C6FEBA9D2DD6A",
      "districtId" : "1",
      "nameZh" : "豐樂公園",
      "pgp" : "0",
      "terminal" : "0",
      "latitude" : "24.13028",
      "inDis" : "50",
      "routeId" : "85",
      "seqNo" : "8"
   },
   {
      "GoBack" : "1",
      "longitude" : "120.64659",
      "outDis" : "50",
      "Id" : "5097",
      "oid" : "C46F9B7FA64C432CB48DC4D98C73D15C",
      "districtId" : "1",
      "nameZh" : "文心南永春東路口",
      "pgp" : "0",
      "terminal" : "0",
      "latitude" : "24.1343",
      "inDis" : "50",
      "routeId" : "85",
      "seqNo" : "9"
   },
   {
      "GoBack" : "1",
      "longitude" : "120.64668",
      "outDis" : "50",
      "Id" : "5098",
      "oid" : "EA6BCA8DB78640EB9E5A173D7C1771C9",
      "districtId" : "1",
      "nameZh" : "文心南南屯路口",
      "pgp" : "0",
      "terminal" : "0",
      "latitude" : "24.13681",
      "inDis" : "50",
      "routeId" : "85",
      "seqNo" : "10"
   },
   {
      "GoBack" : "1",
      "longitude" : "120.64661",
      "outDis" : "50",
      "Id" : "4267",
      "oid" : "12529",
      "districtId" : "1",
      "nameZh" : "文心五權西路口",
      "pgp" : "0",
      "terminal" : "0",
      "latitude" : "24.14042",
      "inDis" : "50",
      "routeId" : "85",
      "seqNo" : "11"
   },
   {
      "GoBack" : "1",
      "longitude" : "120.6468",
      "outDis" : "50",
      "Id" : "4272",
      "oid" : "EF0696B78D1B434CBC5C035636016CB6",
      "districtId" : "1",
      "nameZh" : "文心向心路口",
      "pgp" : "0",
      "terminal" : "0",
      "latitude" : "24.14241",
      "inDis" : "50",
      "routeId" : "85",
      "seqNo" : "12"
   },
   {
      "GoBack" : "1",
      "longitude" : "120.6466",
      "outDis" : "50",
      "Id" : "5477",
      "oid" : "F2C49570188149F196E6C224DFDFE4BD",
      "districtId" : "1",
      "nameZh" : "文心大墩七街口",
      "pgp" : "0",
      "terminal" : "0",
      "latitude" : "24.14419",
      "inDis" : "50",
      "routeId" : "85",
      "seqNo" : "13"
   },
   {
      "GoBack" : "1",
      "longitude" : "120.6465",
      "outDis" : "75",
      "Id" : "4356",
      "oid" : "10994",
      "districtId" : "1",
      "nameZh" : "文心森林公園",
      "pgp" : "0",
      "terminal" : "0",
      "latitude" : "24.14631",
      "inDis" : "75",
      "routeId" : "85",
      "seqNo" : "14"
   },
   {
      "GoBack" : "1",
      "longitude" : "120.64682",
      "outDis" : "50",
      "Id" : "4268",
      "oid" : "3C00F5DBC3DE467A938DE103FC5DFA6F",
      "districtId" : "1",
      "nameZh" : "文心公益路口",
      "pgp" : "0",
      "terminal" : "0",
      "latitude" : "24.15045",
      "inDis" : "50",
      "routeId" : "85",
      "seqNo" : "15"
   },
   {
      "GoBack" : "1",
      "longitude" : "120.64694",
      "outDis" : "50",
      "Id" : "4270",
      "oid" : "714BAC6DE05344E494EC097F3CB1DA02",
      "districtId" : "1",
      "nameZh" : "文心市政路口",
      "pgp" : "0",
      "terminal" : "0",
      "latitude" : "24.15468",
      "inDis" : "50",
      "routeId" : "85",
      "seqNo" : "16"
   },
   {
      "GoBack" : "1",
      "longitude" : "120.64691",
      "outDis" : "50",
      "Id" : "1433",
      "oid" : "63FE9199DF944579B9043B26F68CEF3A",
      "districtId" : "1",
      "nameZh" : "中央健保局(文心路)",
      "pgp" : "0",
      "terminal" : "0",
      "latitude" : "24.15768",
      "inDis" : "50",
      "routeId" : "85",
      "seqNo" : "17"
   },
   {
      "GoBack" : "1",
      "longitude" : "120.64759",
      "outDis" : "50",
      "Id" : "0019",
      "oid" : "599B953749374273BACF21BB110728F2",
      "districtId" : "1",
      "nameZh" : "市警局",
      "pgp" : "0",
      "terminal" : "0",
      "latitude" : "24.15935",
      "inDis" : "50",
      "routeId" : "85",
      "seqNo" : "18"
   },
   {
      "GoBack" : "1",
      "longitude" : "120.64841",
      "outDis" : "50",
      "Id" : "4266",
      "oid" : "19911439637A4442AE204283BC4937C0",
      "districtId" : "1",
      "nameZh" : "文心臺灣大道口",
      "pgp" : "0",
      "terminal" : "0",
      "latitude" : "24.16053",
      "inDis" : "50",
      "routeId" : "85",
      "seqNo" : "19"
   },
   {
      "GoBack" : "1",
      "longitude" : "120.65063",
      "outDis" : "50",
      "Id" : "4269",
      "oid" : "F776864AE3F94E90B9117DE7C1807F91",
      "districtId" : "1",
      "nameZh" : "文心四川路口",
      "pgp" : "0",
      "terminal" : "0",
      "latitude" : "24.16404",
      "inDis" : "50",
      "routeId" : "85",
      "seqNo" : "20"
   },
   {
      "GoBack" : "1",
      "longitude" : "120.65239",
      "outDis" : "50",
      "Id" : "4273",
      "oid" : "3441C2EE6BF149F497309CAB7A00958A",
      "districtId" : "1",
      "nameZh" : "文心西屯路口",
      "pgp" : "0",
      "terminal" : "0",
      "latitude" : "24.16628",
      "inDis" : "50",
      "routeId" : "85",
      "seqNo" : "21"
   },
   {
      "GoBack" : "1",
      "longitude" : "120.6558",
      "outDis" : "50",
      "Id" : "4271",
      "oid" : "CAB219797E8941308DBBC1AC6B640A15",
      "districtId" : "1",
      "nameZh" : "文心甘肅路口",
      "pgp" : "0",
      "terminal" : "0",
      "latitude" : "24.16913",
      "inDis" : "50",
      "routeId" : "85",
      "seqNo" : "22"
   },
   {
      "GoBack" : "1",
      "longitude" : "120.65932",
      "outDis" : "50",
      "Id" : "4612",
      "oid" : "855B50CA9C494212B59F8FA4D81CD6F6",
      "districtId" : "1",
      "nameZh" : "文華高中(文心路)",
      "pgp" : "0",
      "terminal" : "0",
      "latitude" : "24.17105",
      "inDis" : "50",
      "routeId" : "85",
      "seqNo" : "23"
   },
   {
      "GoBack" : "1",
      "longitude" : "120.66078",
      "outDis" : "50",
      "Id" : "4275",
      "oid" : "4BEDCF1F935245F68A5CA1992193DD96",
      "districtId" : "1",
      "nameZh" : "文心河南路口",
      "pgp" : "0",
      "terminal" : "0",
      "latitude" : "24.17142",
      "inDis" : "50",
      "routeId" : "85",
      "seqNo" : "24"
   },
   {
      "GoBack" : "1",
      "longitude" : "120.66365",
      "outDis" : "50",
      "Id" : "0230",
      "oid" : "79F1BC481AA8463C99B82F83FC08BAC7",
      "districtId" : "1",
      "nameZh" : "重慶國小",
      "pgp" : "0",
      "terminal" : "0",
      "latitude" : "24.17232",
      "inDis" : "50",
      "routeId" : "85",
      "seqNo" : "25"
   },
   {
      "GoBack" : "1",
      "longitude" : "120.66594",
      "outDis" : "50",
      "Id" : "0229",
      "oid" : "7249727376BB4346B7E1265F460F72A7",
      "districtId" : "1",
      "nameZh" : "臺灣日報",
      "pgp" : "0",
      "terminal" : "0",
      "latitude" : "24.17283",
      "inDis" : "50",
      "routeId" : "85",
      "seqNo" : "26"
   },
   {
      "GoBack" : "1",
      "longitude" : "120.66853",
      "outDis" : "50",
      "Id" : "0228",
      "oid" : "132F460AA9F648CB8FE997E923C18144",
      "districtId" : "1",
      "nameZh" : "文心陜西路口",
      "pgp" : "0",
      "terminal" : "0",
      "latitude" : "24.17328",
      "inDis" : "50",
      "routeId" : "85",
      "seqNo" : "27"
   },
   {
      "GoBack" : "1",
      "longitude" : "120.67201",
      "outDis" : "50",
      "Id" : "4265",
      "oid" : "D97540BE8B86487A8BA3973A52FA8D66",
      "districtId" : "1",
      "nameZh" : "文心中清路口",
      "pgp" : "0",
      "terminal" : "0",
      "latitude" : "24.17386",
      "inDis" : "50",
      "routeId" : "85",
      "seqNo" : "28"
   },
   {
      "GoBack" : "1",
      "longitude" : "120.67455",
      "outDis" : "50",
      "Id" : "4276",
      "oid" : "ADC1B27AAE7B4FD5BF4D6B97A5517E71",
      "districtId" : "1",
      "nameZh" : "文心青島東街口",
      "pgp" : "0",
      "terminal" : "0",
      "latitude" : "24.17377",
      "inDis" : "50",
      "routeId" : "85",
      "seqNo" : "29"
   },
   {
      "GoBack" : "1",
      "longitude" : "120.67656",
      "outDis" : "50",
      "Id" : "4277",
      "oid" : "13117",
      "districtId" : "1",
      "nameZh" : "文心山西路口",
      "pgp" : "0",
      "terminal" : "0",
      "latitude" : "24.17347",
      "inDis" : "50",
      "routeId" : "85",
      "seqNo" : "30"
   },
   {
      "GoBack" : "1",
      "longitude" : "120.67904",
      "outDis" : "50",
      "Id" : "4280",
      "oid" : "2D425598FE1049E8807C4ABDA54FEBF6",
      "districtId" : "1",
      "nameZh" : "文心梅川西路口",
      "pgp" : "0",
      "terminal" : "0",
      "latitude" : "24.17293",
      "inDis" : "50",
      "routeId" : "85",
      "seqNo" : "31"
   },
   {
      "GoBack" : "1",
      "longitude" : "120.68259",
      "outDis" : "50",
      "Id" : "0224",
      "oid" : "423CACADA221428ABB79DC25B8C5E2DA",
      "districtId" : "1",
      "nameZh" : "文心國小",
      "pgp" : "0",
      "terminal" : "0",
      "latitude" : "24.17234",
      "inDis" : "50",
      "routeId" : "85",
      "seqNo" : "32"
   },
   {
      "GoBack" : "1",
      "longitude" : "120.68574",
      "outDis" : "50",
      "Id" : "4279",
      "oid" : "C0B08BDE38D04BC3BAB4DD929A039539",
      "districtId" : "1",
      "nameZh" : "文心崇德路口",
      "pgp" : "0",
      "terminal" : "0",
      "latitude" : "24.17209",
      "inDis" : "50",
      "routeId" : "85",
      "seqNo" : "33"
   },
   {
      "GoBack" : "1",
      "longitude" : "120.68784",
      "outDis" : "50",
      "Id" : "4283",
      "oid" : "20E0DD94C277421E9438650B86CB509F",
      "districtId" : "1",
      "nameZh" : "文心熱河路口",
      "pgp" : "0",
      "terminal" : "0",
      "latitude" : "24.17186",
      "inDis" : "50",
      "routeId" : "85",
      "seqNo" : "34"
   },
   {
      "GoBack" : "1",
      "longitude" : "120.69192",
      "outDis" : "50",
      "Id" : "4274",
      "oid" : "C06D8432EC32463195CCEC6F2E51D5C6",
      "districtId" : "1",
      "nameZh" : "文心昌平路口",
      "pgp" : "0",
      "terminal" : "0",
      "latitude" : "24.17132",
      "inDis" : "50",
      "routeId" : "85",
      "seqNo" : "35"
   },
   {
      "GoBack" : "1",
      "longitude" : "120.69447",
      "outDis" : "50",
      "Id" : "5780",
      "oid" : "320882893",
      "districtId" : "1",
      "nameZh" : "文心興安路口",
      "pgp" : "0",
      "terminal" : "0",
      "latitude" : "24.17109",
      "inDis" : "50",
      "routeId" : "85",
      "seqNo" : "36"
   },
   {
      "GoBack" : "1",
      "longitude" : "120.69631",
      "outDis" : "50",
      "Id" : "0102",
      "oid" : "72308DACE3E94C77BBF31D503103383F",
      "districtId" : "1",
      "nameZh" : "四維國小",
      "pgp" : "0",
      "terminal" : "0",
      "latitude" : "24.1708",
      "inDis" : "50",
      "routeId" : "85",
      "seqNo" : "37"
   },
   {
      "GoBack" : "1",
      "longitude" : "120.69882",
      "outDis" : "50",
      "Id" : "0222",
      "oid" : "F61D48EE051B4FEF94238526BA382013",
      "districtId" : "1",
      "nameZh" : "聯安醫院",
      "pgp" : "0",
      "terminal" : "0",
      "latitude" : "24.1703",
      "inDis" : "50",
      "routeId" : "85",
      "seqNo" : "38"
   },
   {
      "GoBack" : "1",
      "longitude" : "120.70295",
      "outDis" : "50",
      "Id" : "4312",
      "oid" : "4C8894C2573741E197F7358F2566A661",
      "districtId" : "1",
      "nameZh" : "東光國小",
      "pgp" : "0",
      "terminal" : "0",
      "latitude" : "24.16971",
      "inDis" : "50",
      "routeId" : "85",
      "seqNo" : "39"
   },
   {
      "GoBack" : "1",
      "longitude" : "120.7048",
      "outDis" : "50",
      "Id" : "5712",
      "oid" : "12466",
      "districtId" : "1",
      "nameZh" : "三和/東光里",
      "pgp" : "0",
      "terminal" : "0",
      "latitude" : "24.16954",
      "inDis" : "50",
      "routeId" : "85",
      "seqNo" : "40"
   },
   {
      "GoBack" : "1",
      "longitude" : "120.7067",
      "outDis" : "50",
      "Id" : "0679",
      "oid" : "12B2C9FE77974FC6B3D672D3F901C4E5",
      "districtId" : "1",
      "nameZh" : "玫瑰新村",
      "pgp" : "0",
      "terminal" : "0",
      "latitude" : "24.16958",
      "inDis" : "50",
      "routeId" : "85",
      "seqNo" : "41"
   },
   {
      "GoBack" : "1",
      "longitude" : "120.70839",
      "outDis" : "50",
      "Id" : "0484",
      "oid" : "B3F14B47B19748BD910AA55D8267C322",
      "districtId" : "1",
      "nameZh" : "水景里",
      "pgp" : "0",
      "terminal" : "0",
      "latitude" : "24.17039",
      "inDis" : "50",
      "routeId" : "85",
      "seqNo" : "42"
   },
   {
      "GoBack" : "1",
      "longitude" : "120.70955",
      "outDis" : "50",
      "Id" : "0325",
      "oid" : "A5615F1450574B37BCA9E6CD430341C9",
      "districtId" : "1",
      "nameZh" : "三和社區",
      "pgp" : "0",
      "terminal" : "0",
      "latitude" : "24.17124",
      "inDis" : "50",
      "routeId" : "85",
      "seqNo" : "43"
   },
   {
      "GoBack" : "1",
      "longitude" : "120.71107",
      "outDis" : "50",
      "Id" : "0485",
      "oid" : "4E80F6CB25184EB386E29D94A5918F26",
      "districtId" : "1",
      "nameZh" : "水景頭",
      "pgp" : "0",
      "terminal" : "0",
      "latitude" : "24.17209",
      "inDis" : "50",
      "routeId" : "85",
      "seqNo" : "44"
   },
   {
      "GoBack" : "1",
      "longitude" : "120.71443",
      "outDis" : "50",
      "Id" : "0365",
      "oid" : "67AD32D1CBDF4B739CD4E7A6BB528E51",
      "districtId" : "1",
      "nameZh" : "大華新村",
      "pgp" : "0",
      "terminal" : "0",
      "latitude" : "24.17381",
      "inDis" : "50",
      "routeId" : "85",
      "seqNo" : "45"
   },
   {
      "GoBack" : "1",
      "longitude" : "120.71735",
      "outDis" : "50",
      "Id" : "0703",
      "oid" : "3749442DAA1E468EB61DE8B25CFF569F",
      "districtId" : "1",
      "nameZh" : "建功國小",
      "pgp" : "0",
      "terminal" : "0",
      "latitude" : "24.17547",
      "inDis" : "50",
      "routeId" : "85",
      "seqNo" : "46"
   },
   {
      "GoBack" : "1",
      "longitude" : "120.7199",
      "outDis" : "50",
      "Id" : "0727",
      "oid" : "3913E35A2E314AFEBBE612DE1D193FAF",
      "districtId" : "1",
      "nameZh" : "軍功里",
      "pgp" : "0",
      "terminal" : "0",
      "latitude" : "24.17589",
      "inDis" : "50",
      "routeId" : "85",
      "seqNo" : "47"
   },
   {
      "GoBack" : "1",
      "longitude" : "120.72228",
      "outDis" : "50",
      "Id" : "4592",
      "oid" : "FC143B82291C4C08ABDF2B51BF62AEFC",
      "districtId" : "1",
      "nameZh" : "和平里(東山路)",
      "pgp" : "0",
      "terminal" : "0",
      "latitude" : "24.17601",
      "inDis" : "50",
      "routeId" : "85",
      "seqNo" : "48"
   },
   {
      "GoBack" : "1",
      "longitude" : "120.72448",
      "outDis" : "50",
      "Id" : "0687",
      "oid" : "C528A974983F4D56BE6EEAC4C28494A6",
      "districtId" : "1",
      "nameZh" : "長興塑膠",
      "pgp" : "0",
      "terminal" : "0",
      "latitude" : "24.17609",
      "inDis" : "50",
      "routeId" : "85",
      "seqNo" : "49"
   },
   {
      "GoBack" : "1",
      "longitude" : "120.72693",
      "outDis" : "50",
      "Id" : "0555",
      "oid" : "1DB8F5DEBDEF4DBFAF214EA1717B3DDD",
      "districtId" : "1",
      "nameZh" : "正覺寺",
      "pgp" : "0",
      "terminal" : "0",
      "latitude" : "24.17651",
      "inDis" : "50",
      "routeId" : "85",
      "seqNo" : "50"
   },
   {
      "GoBack" : "1",
      "longitude" : "120.73185",
      "outDis" : "50",
      "Id" : "0854",
      "oid" : "4CC3A1B994334874AA89BB2B800E4B16",
      "districtId" : "1",
      "nameZh" : "圓山新村",
      "pgp" : "0",
      "terminal" : "0",
      "latitude" : "24.17703",
      "inDis" : "50",
      "routeId" : "85",
      "seqNo" : "51"
   },
   {
      "GoBack" : "1",
      "longitude" : "120.73464",
      "outDis" : "50",
      "Id" : "0534",
      "oid" : "1462E6ACAA2C43469D9DAE4671739058",
      "districtId" : "1",
      "nameZh" : "台電東山所",
      "pgp" : "0",
      "terminal" : "0",
      "latitude" : "24.17712",
      "inDis" : "50",
      "routeId" : "85",
      "seqNo" : "52"
   },
   {
      "GoBack" : "1",
      "longitude" : "120.7356",
      "outDis" : "50",
      "Id" : "0768",
      "oid" : "469E9A79CBF749D1AD6C22AA23C69774",
      "districtId" : "1",
      "nameZh" : "梨仔園",
      "pgp" : "0",
      "terminal" : "0",
      "latitude" : "24.1777",
      "inDis" : "50",
      "routeId" : "85",
      "seqNo" : "53"
   },
   {
      "GoBack" : "1",
      "longitude" : "120.73721",
      "outDis" : "50",
      "Id" : "0784",
      "oid" : "311262894",
      "districtId" : "1",
      "nameZh" : "逢甲橋",
      "pgp" : "0",
      "terminal" : "0",
      "latitude" : "24.17842",
      "inDis" : "50",
      "routeId" : "85",
      "seqNo" : "54"
   },
   {
      "GoBack" : "1",
      "longitude" : "120.7399",
      "outDis" : "50",
      "Id" : "0350",
      "oid" : "D3DDD869EC2E4C7C86F4F157D7A191A2",
      "districtId" : "1",
      "nameZh" : "大坑圓環",
      "pgp" : "0",
      "terminal" : "0",
      "latitude" : "24.17893",
      "inDis" : "50",
      "routeId" : "85",
      "seqNo" : "55"
   },
   {
      "GoBack" : "1",
      "longitude" : "120.74129",
      "outDis" : "50",
      "Id" : "0434",
      "oid" : "7F1D7764CEA6497AB3A94821FA7568F2",
      "districtId" : "1",
      "nameZh" : "中興巷",
      "pgp" : "0",
      "terminal" : "0",
      "latitude" : "24.17943",
      "inDis" : "50",
      "routeId" : "85",
      "seqNo" : "56"
   },
   {
      "GoBack" : "1",
      "longitude" : "120.73956",
      "outDis" : "50",
      "Id" : "0351",
      "oid" : "E707341FB8BE4E12B010EBED6E43ED4E",
      "districtId" : "1",
      "nameZh" : "大坑橋",
      "pgp" : "0",
      "terminal" : "0",
      "latitude" : "24.17773",
      "inDis" : "50",
      "routeId" : "85",
      "seqNo" : "57"
   },
   {
      "GoBack" : "1",
      "longitude" : "120.73798",
      "outDis" : "50",
      "Id" : "0917",
      "oid" : "86AE8F6F6098417EB1211C416160939D",
      "districtId" : "1",
      "nameZh" : "樂達利山莊",
      "pgp" : "0",
      "terminal" : "0",
      "latitude" : "24.17627",
      "inDis" : "50",
      "routeId" : "85",
      "seqNo" : "58"
   },
   {
      "GoBack" : "1",
      "longitude" : "120.73547",
      "outDis" : "50",
      "Id" : "1429",
      "oid" : "9627371628844801996BE04AE7B72A32",
      "districtId" : "1",
      "nameZh" : "中臺科技大學",
      "pgp" : "0",
      "terminal" : "1",
      "latitude" : "24.17436",
      "inDis" : "50",
      "routeId" : "85",
      "seqNo" : "59"
   },
   {
      "GoBack" : "1",
      "longitude" : "120.73405",
      "outDis" : "50",
      "Id" : "0682",
      "oid" : "228064299A454394B97EB05DD5084DC0",
      "districtId" : "1",
      "nameZh" : "花園新城",
      "pgp" : "0",
      "terminal" : "0",
      "latitude" : "24.17229",
      "inDis" : "50",
      "routeId" : "85",
      "seqNo" : "60"
   },
   {
      "GoBack" : "1",
      "longitude" : "120.73343",
      "outDis" : "50",
      "Id" : "0755",
      "oid" : "FAB53C47C09F4FA98CE24E88533F1DA4",
      "districtId" : "1",
      "nameZh" : "國際青年之家",
      "pgp" : "0",
      "terminal" : "0",
      "latitude" : "24.17029",
      "inDis" : "50",
      "routeId" : "85",
      "seqNo" : "61"
   },
   {
      "GoBack" : "1",
      "longitude" : "120.73326",
      "outDis" : "50",
      "Id" : "4154",
      "oid" : "310755629",
      "districtId" : "1",
      "nameZh" : "部子景賢路口",
      "pgp" : "0",
      "terminal" : "0",
      "latitude" : "24.16729",
      "inDis" : "50",
      "routeId" : "85",
      "seqNo" : "62"
   },
   {
      "GoBack" : "1",
      "longitude" : "120.73342",
      "outDis" : "50",
      "Id" : "3079",
      "oid" : "C3961CDDD66641FA9B70FABE432EF113",
      "districtId" : "1",
      "nameZh" : "部子巷口",
      "pgp" : "0",
      "terminal" : "0",
      "latitude" : "24.16609",
      "inDis" : "50",
      "routeId" : "85",
      "seqNo" : "63"
   },
   {
      "GoBack" : "1",
      "longitude" : "120.7334",
      "outDis" : "50",
      "Id" : "5035",
      "oid" : "7C1EDE15A7D14D609574D790E54E2A56",
      "districtId" : "1",
      "nameZh" : "部子太原路口",
      "pgp" : "0",
      "terminal" : "0",
      "latitude" : "24.16202",
      "inDis" : "50",
      "routeId" : "85",
      "seqNo" : "64"
   },
   {
      "GoBack" : "1",
      "longitude" : "120.74424",
      "outDis" : "50",
      "Id" : "4155",
      "oid" : "310755630",
      "districtId" : "1",
      "nameZh" : "華盛頓中學",
      "pgp" : "0",
      "terminal" : "0",
      "latitude" : "24.15866",
      "inDis" : "50",
      "routeId" : "85",
      "seqNo" : "65"
   },
   {
      "GoBack" : "1",
      "longitude" : "120.74233",
      "outDis" : "50",
      "Id" : "5341",
      "oid" : "311451528",
      "districtId" : "1",
      "nameZh" : "大興十九街口",
      "pgp" : "0",
      "terminal" : "0",
      "latitude" : "24.15759",
      "inDis" : "50",
      "routeId" : "85",
      "seqNo" : "66"
   },
   {
      "GoBack" : "1",
      "longitude" : "120.73755",
      "outDis" : "50",
      "Id" : "5465",
      "oid" : "311451529",
      "districtId" : "1",
      "nameZh" : "大興十五街口",
      "pgp" : "0",
      "terminal" : "0",
      "latitude" : "24.157",
      "inDis" : "50",
      "routeId" : "85",
      "seqNo" : "67"
   },
   {
      "GoBack" : "1",
      "longitude" : "120.73511",
      "outDis" : "50",
      "Id" : "4158",
      "oid" : "310755633",
      "districtId" : "1",
      "nameZh" : "屯區藝文中心(大興路)",
      "pgp" : "0",
      "terminal" : "0",
      "latitude" : "24.15656",
      "inDis" : "50",
      "routeId" : "85",
      "seqNo" : "68"
   },
   {
      "GoBack" : "1",
      "longitude" : "120.73333",
      "outDis" : "50",
      "Id" : "5619",
      "oid" : "305514292",
      "districtId" : "1",
      "nameZh" : "大興五街口",
      "pgp" : "0",
      "terminal" : "0",
      "latitude" : "24.15291",
      "inDis" : "50",
      "routeId" : "85",
      "seqNo" : "69"
   },
   {
      "GoBack" : "1",
      "longitude" : "120.73317",
      "outDis" : "50",
      "Id" : "5618",
      "oid" : "13252",
      "districtId" : "1",
      "nameZh" : "大興一街口",
      "pgp" : "0",
      "terminal" : "0",
      "latitude" : "24.1513",
      "inDis" : "50",
      "routeId" : "85",
      "seqNo" : "70"
   },
   {
      "GoBack" : "1",
      "longitude" : "120.72996",
      "outDis" : "50",
      "Id" : "2934",
      "oid" : "3853",
      "districtId" : "1",
      "nameZh" : "國軍臺中總醫院",
      "pgp" : "0",
      "terminal" : "0",
      "latitude" : "24.15018",
      "inDis" : "50",
      "routeId" : "85",
      "seqNo" : "71"
   },
   {
      "GoBack" : "2",
      "longitude" : "120.72996",
      "outDis" : "50",
      "Id" : "2934",
      "oid" : "3853",
      "districtId" : "1",
      "nameZh" : "國軍臺中總醫院",
      "pgp" : "0",
      "terminal" : "0",
      "latitude" : "24.15018",
      "inDis" : "50",
      "routeId" : "85",
      "seqNo" : "1"
   },
   {
      "GoBack" : "2",
      "longitude" : "120.73317",
      "outDis" : "50",
      "Id" : "5618",
      "oid" : "13252",
      "districtId" : "1",
      "nameZh" : "大興一街口",
      "pgp" : "0",
      "terminal" : "0",
      "latitude" : "24.1513",
      "inDis" : "50",
      "routeId" : "85",
      "seqNo" : "2"
   },
   {
      "GoBack" : "2",
      "longitude" : "120.73333",
      "outDis" : "50",
      "Id" : "5619",
      "oid" : "305514292",
      "districtId" : "1",
      "nameZh" : "大興五街口",
      "pgp" : "0",
      "terminal" : "0",
      "latitude" : "24.15291",
      "inDis" : "50",
      "routeId" : "85",
      "seqNo" : "3"
   },
   {
      "GoBack" : "2",
      "longitude" : "120.73511",
      "outDis" : "50",
      "Id" : "4158",
      "oid" : "310755633",
      "districtId" : "1",
      "nameZh" : "屯區藝文中心(大興路)",
      "pgp" : "0",
      "terminal" : "0",
      "latitude" : "24.15656",
      "inDis" : "50",
      "routeId" : "85",
      "seqNo" : "4"
   },
   {
      "GoBack" : "2",
      "longitude" : "120.73755",
      "outDis" : "50",
      "Id" : "5465",
      "oid" : "311451529",
      "districtId" : "1",
      "nameZh" : "大興十五街口",
      "pgp" : "0",
      "terminal" : "0",
      "latitude" : "24.157",
      "inDis" : "50",
      "routeId" : "85",
      "seqNo" : "5"
   },
   {
      "GoBack" : "2",
      "longitude" : "120.74233",
      "outDis" : "50",
      "Id" : "5341",
      "oid" : "311451528",
      "districtId" : "1",
      "nameZh" : "大興十九街口",
      "pgp" : "0",
      "terminal" : "0",
      "latitude" : "24.15759",
      "inDis" : "50",
      "routeId" : "85",
      "seqNo" : "6"
   },
   {
      "GoBack" : "2",
      "longitude" : "120.74424",
      "outDis" : "50",
      "Id" : "4155",
      "oid" : "310755630",
      "districtId" : "1",
      "nameZh" : "華盛頓中學",
      "pgp" : "0",
      "terminal" : "0",
      "latitude" : "24.15866",
      "inDis" : "50",
      "routeId" : "85",
      "seqNo" : "7"
   },
   {
      "GoBack" : "2",
      "longitude" : "120.73324",
      "outDis" : "50",
      "Id" : "5035",
      "oid" : "44530F8B31FE49A5944E4C349CBEA170",
      "districtId" : "1",
      "nameZh" : "部子太原路口",
      "pgp" : "0",
      "terminal" : "0",
      "latitude" : "24.16199",
      "inDis" : "50",
      "routeId" : "85",
      "seqNo" : "8"
   },
   {
      "GoBack" : "2",
      "longitude" : "120.73325",
      "outDis" : "50",
      "Id" : "3079",
      "oid" : "41AE2374FAC044CDB39D4936D47A2839",
      "districtId" : "1",
      "nameZh" : "部子巷口",
      "pgp" : "0",
      "terminal" : "0",
      "latitude" : "24.16632",
      "inDis" : "50",
      "routeId" : "85",
      "seqNo" : "9"
   },
   {
      "GoBack" : "2",
      "longitude" : "120.73326",
      "outDis" : "50",
      "Id" : "4154",
      "oid" : "310755629",
      "districtId" : "1",
      "nameZh" : "部子景賢路口",
      "pgp" : "0",
      "terminal" : "0",
      "latitude" : "24.16729",
      "inDis" : "50",
      "routeId" : "85",
      "seqNo" : "10"
   },
   {
      "GoBack" : "2",
      "longitude" : "120.73342",
      "outDis" : "50",
      "Id" : "0755",
      "oid" : "1D259DEC29734047B8A5C55302D48CD5",
      "districtId" : "1",
      "nameZh" : "國際青年之家",
      "pgp" : "0",
      "terminal" : "0",
      "latitude" : "24.17027",
      "inDis" : "50",
      "routeId" : "85",
      "seqNo" : "11"
   },
   {
      "GoBack" : "2",
      "longitude" : "120.73421",
      "outDis" : "50",
      "Id" : "0682",
      "oid" : "D21DCDBF1FD647F188AF5E14F565994E",
      "districtId" : "1",
      "nameZh" : "花園新城",
      "pgp" : "0",
      "terminal" : "0",
      "latitude" : "24.17243",
      "inDis" : "50",
      "routeId" : "85",
      "seqNo" : "12"
   },
   {
      "GoBack" : "2",
      "longitude" : "120.73547",
      "outDis" : "50",
      "Id" : "1429",
      "oid" : "76AB9BFCBD0D410D9125310A15DE03F2",
      "districtId" : "1",
      "nameZh" : "中臺科技大學",
      "pgp" : "0",
      "terminal" : "0",
      "latitude" : "24.17442",
      "inDis" : "50",
      "routeId" : "85",
      "seqNo" : "13"
   },
   {
      "GoBack" : "2",
      "longitude" : "120.73832",
      "outDis" : "50",
      "Id" : "0917",
      "oid" : "3C30D07552B144D98749FB0A968D0082",
      "districtId" : "1",
      "nameZh" : "樂達利山莊",
      "pgp" : "0",
      "terminal" : "0",
      "latitude" : "24.17635",
      "inDis" : "50",
      "routeId" : "85",
      "seqNo" : "14"
   },
   {
      "GoBack" : "2",
      "longitude" : "120.73957",
      "outDis" : "50",
      "Id" : "0351",
      "oid" : "D79E13E4512141078091608043000DBF",
      "districtId" : "1",
      "nameZh" : "大坑橋",
      "pgp" : "0",
      "terminal" : "0",
      "latitude" : "24.17763",
      "inDis" : "50",
      "routeId" : "85",
      "seqNo" : "15"
   },
   {
      "GoBack" : "2",
      "longitude" : "120.73992",
      "outDis" : "50",
      "Id" : "0350",
      "oid" : "2407D07AA6BA4ADD8D1BE191307CA53D",
      "districtId" : "1",
      "nameZh" : "大坑圓環",
      "pgp" : "0",
      "terminal" : "0",
      "latitude" : "24.17918",
      "inDis" : "50",
      "routeId" : "85",
      "seqNo" : "16"
   },
   {
      "GoBack" : "2",
      "longitude" : "120.73721",
      "outDis" : "50",
      "Id" : "0784",
      "oid" : "311262894",
      "districtId" : "1",
      "nameZh" : "逢甲橋",
      "pgp" : "0",
      "terminal" : "0",
      "latitude" : "24.17842",
      "inDis" : "50",
      "routeId" : "85",
      "seqNo" : "17"
   },
   {
      "GoBack" : "2",
      "longitude" : "120.7357",
      "outDis" : "50",
      "Id" : "0768",
      "oid" : "B6D9E223F5014754B80231E046A2E5CC",
      "districtId" : "1",
      "nameZh" : "梨仔園",
      "pgp" : "0",
      "terminal" : "0",
      "latitude" : "24.17784",
      "inDis" : "50",
      "routeId" : "85",
      "seqNo" : "18"
   },
   {
      "GoBack" : "2",
      "longitude" : "120.73464",
      "outDis" : "50",
      "Id" : "0534",
      "oid" : "1462E6ACAA2C43469D9DAE4671739058",
      "districtId" : "1",
      "nameZh" : "台電東山所",
      "pgp" : "0",
      "terminal" : "0",
      "latitude" : "24.17712",
      "inDis" : "50",
      "routeId" : "85",
      "seqNo" : "19"
   },
   {
      "GoBack" : "2",
      "longitude" : "120.73188",
      "outDis" : "50",
      "Id" : "0854",
      "oid" : "04CDBF38233E435AA5CFF51E70AEBB4B",
      "districtId" : "1",
      "nameZh" : "圓山新村",
      "pgp" : "0",
      "terminal" : "0",
      "latitude" : "24.17713",
      "inDis" : "50",
      "routeId" : "85",
      "seqNo" : "20"
   },
   {
      "GoBack" : "2",
      "longitude" : "120.72768",
      "outDis" : "50",
      "Id" : "0555",
      "oid" : "7F508F8EE8A84ED2A61551BE9EE4E94B",
      "districtId" : "1",
      "nameZh" : "正覺寺",
      "pgp" : "0",
      "terminal" : "0",
      "latitude" : "24.17669",
      "inDis" : "50",
      "routeId" : "85",
      "seqNo" : "21"
   },
   {
      "GoBack" : "2",
      "longitude" : "120.72445",
      "outDis" : "50",
      "Id" : "0687",
      "oid" : "FF1D117DD3834CEEA96AD77E62739076",
      "districtId" : "1",
      "nameZh" : "長興塑膠",
      "pgp" : "0",
      "terminal" : "0",
      "latitude" : "24.1762",
      "inDis" : "50",
      "routeId" : "85",
      "seqNo" : "22"
   },
   {
      "GoBack" : "2",
      "longitude" : "120.72225",
      "outDis" : "50",
      "Id" : "4592",
      "oid" : "5AEA1B8A26B14D84BCFE9EF922E294C2",
      "districtId" : "1",
      "nameZh" : "和平里(東山路)",
      "pgp" : "0",
      "terminal" : "0",
      "latitude" : "24.17602",
      "inDis" : "50",
      "routeId" : "85",
      "seqNo" : "23"
   },
   {
      "GoBack" : "2",
      "longitude" : "120.7198",
      "outDis" : "50",
      "Id" : "0727",
      "oid" : "B854B6D63FAC45BEACF5EAC3FC8C844C",
      "districtId" : "1",
      "nameZh" : "軍功里",
      "pgp" : "0",
      "terminal" : "0",
      "latitude" : "24.17591",
      "inDis" : "50",
      "routeId" : "85",
      "seqNo" : "24"
   },
   {
      "GoBack" : "2",
      "longitude" : "120.71686",
      "outDis" : "50",
      "Id" : "0703",
      "oid" : "7F1746A89032464B81FE00329F4C9778",
      "districtId" : "1",
      "nameZh" : "建功國小",
      "pgp" : "0",
      "terminal" : "0",
      "latitude" : "24.17543",
      "inDis" : "50",
      "routeId" : "85",
      "seqNo" : "25"
   },
   {
      "GoBack" : "2",
      "longitude" : "120.71447",
      "outDis" : "50",
      "Id" : "0365",
      "oid" : "7FA644CA751940F1A03DD91741C3D5C4",
      "districtId" : "1",
      "nameZh" : "大華新村",
      "pgp" : "0",
      "terminal" : "0",
      "latitude" : "24.17374",
      "inDis" : "50",
      "routeId" : "85",
      "seqNo" : "26"
   },
   {
      "GoBack" : "2",
      "longitude" : "120.71114",
      "outDis" : "50",
      "Id" : "0485",
      "oid" : "361BBE45A23B40F090E075A90DDA77A9",
      "districtId" : "1",
      "nameZh" : "水景頭",
      "pgp" : "0",
      "terminal" : "0",
      "latitude" : "24.17217",
      "inDis" : "50",
      "routeId" : "85",
      "seqNo" : "27"
   },
   {
      "GoBack" : "2",
      "longitude" : "120.70945",
      "outDis" : "50",
      "Id" : "0325",
      "oid" : "D99D06A66EEC4A49B54FC5B65D42EA8A",
      "districtId" : "1",
      "nameZh" : "三和社區",
      "pgp" : "0",
      "terminal" : "0",
      "latitude" : "24.17124",
      "inDis" : "50",
      "routeId" : "85",
      "seqNo" : "28"
   },
   {
      "GoBack" : "2",
      "longitude" : "120.70845",
      "outDis" : "50",
      "Id" : "0484",
      "oid" : "F02EA2BC0671451DACE916ABAB9730FE",
      "districtId" : "1",
      "nameZh" : "水景里",
      "pgp" : "0",
      "terminal" : "0",
      "latitude" : "24.17053",
      "inDis" : "50",
      "routeId" : "85",
      "seqNo" : "29"
   },
   {
      "GoBack" : "2",
      "longitude" : "120.70695",
      "outDis" : "50",
      "Id" : "0679",
      "oid" : "321A12F9CB87409C8ED69FBCD248609A",
      "districtId" : "1",
      "nameZh" : "玫瑰新村",
      "pgp" : "0",
      "terminal" : "0",
      "latitude" : "24.16968",
      "inDis" : "50",
      "routeId" : "85",
      "seqNo" : "30"
   },
   {
      "GoBack" : "2",
      "longitude" : "120.7048",
      "outDis" : "50",
      "Id" : "5712",
      "oid" : "12466",
      "districtId" : "1",
      "nameZh" : "三和/東光里",
      "pgp" : "0",
      "terminal" : "0",
      "latitude" : "24.16954",
      "inDis" : "50",
      "routeId" : "85",
      "seqNo" : "31"
   },
   {
      "GoBack" : "2",
      "longitude" : "120.70264",
      "outDis" : "50",
      "Id" : "4312",
      "oid" : "0B5044BA46484B9F8F810F47BC0AEC8B",
      "districtId" : "1",
      "nameZh" : "東光國小",
      "pgp" : "0",
      "terminal" : "0",
      "latitude" : "24.16987",
      "inDis" : "50",
      "routeId" : "85",
      "seqNo" : "32"
   },
   {
      "GoBack" : "2",
      "longitude" : "120.69887",
      "outDis" : "50",
      "Id" : "0222",
      "oid" : "2ABEA2C4D0A6468E8D3F2C49579699B2",
      "districtId" : "1",
      "nameZh" : "聯安醫院",
      "pgp" : "0",
      "terminal" : "0",
      "latitude" : "24.17034",
      "inDis" : "50",
      "routeId" : "85",
      "seqNo" : "33"
   },
   {
      "GoBack" : "2",
      "longitude" : "120.69623",
      "outDis" : "50",
      "Id" : "0102",
      "oid" : "EDCE364FD36F44C395466C9ACA5154DE",
      "districtId" : "1",
      "nameZh" : "四維國小",
      "pgp" : "0",
      "terminal" : "0",
      "latitude" : "24.17109",
      "inDis" : "50",
      "routeId" : "85",
      "seqNo" : "34"
   },
   {
      "GoBack" : "2",
      "longitude" : "120.69447",
      "outDis" : "50",
      "Id" : "5780",
      "oid" : "320882893",
      "districtId" : "1",
      "nameZh" : "文心興安路口",
      "pgp" : "0",
      "terminal" : "0",
      "latitude" : "24.17109",
      "inDis" : "50",
      "routeId" : "85",
      "seqNo" : "35"
   },
   {
      "GoBack" : "2",
      "longitude" : "120.69171",
      "outDis" : "50",
      "Id" : "4274",
      "oid" : "D708945CD84248DDA59808863D7CC049",
      "districtId" : "1",
      "nameZh" : "文心昌平路口",
      "pgp" : "0",
      "terminal" : "0",
      "latitude" : "24.17152",
      "inDis" : "50",
      "routeId" : "85",
      "seqNo" : "36"
   },
   {
      "GoBack" : "2",
      "longitude" : "120.68785",
      "outDis" : "50",
      "Id" : "4283",
      "oid" : "65D5601650724290B6A9349E7137BADC",
      "districtId" : "1",
      "nameZh" : "文心熱河路口",
      "pgp" : "0",
      "terminal" : "0",
      "latitude" : "24.17191",
      "inDis" : "50",
      "routeId" : "85",
      "seqNo" : "37"
   },
   {
      "GoBack" : "2",
      "longitude" : "120.68615",
      "outDis" : "50",
      "Id" : "4279",
      "oid" : "F2A9EBF3C22749DCA88B1E0EFA11FEFA",
      "districtId" : "1",
      "nameZh" : "文心崇德路口",
      "pgp" : "0",
      "terminal" : "0",
      "latitude" : "24.17214",
      "inDis" : "50",
      "routeId" : "85",
      "seqNo" : "38"
   },
   {
      "GoBack" : "2",
      "longitude" : "120.68287",
      "outDis" : "50",
      "Id" : "0224",
      "oid" : "D202D8204BFE40C1B5DCF582BA46E6E1",
      "districtId" : "1",
      "nameZh" : "文心國小",
      "pgp" : "0",
      "terminal" : "0",
      "latitude" : "24.17254",
      "inDis" : "50",
      "routeId" : "85",
      "seqNo" : "39"
   },
   {
      "GoBack" : "2",
      "longitude" : "120.68006",
      "outDis" : "50",
      "Id" : "4280",
      "oid" : "37C1F91BF4C94A4B879964921792A5B5",
      "districtId" : "1",
      "nameZh" : "文心梅川西路口",
      "pgp" : "0",
      "terminal" : "0",
      "latitude" : "24.17298",
      "inDis" : "50",
      "routeId" : "85",
      "seqNo" : "40"
   },
   {
      "GoBack" : "2",
      "longitude" : "120.67656",
      "outDis" : "50",
      "Id" : "4277",
      "oid" : "13117",
      "districtId" : "1",
      "nameZh" : "文心山西路口",
      "pgp" : "0",
      "terminal" : "0",
      "latitude" : "24.17347",
      "inDis" : "50",
      "routeId" : "85",
      "seqNo" : "41"
   },
   {
      "GoBack" : "2",
      "longitude" : "120.67469",
      "outDis" : "50",
      "Id" : "4276",
      "oid" : "19BDB0F9E3194BF7A0469517FB3D9D24",
      "districtId" : "1",
      "nameZh" : "文心青島東街口",
      "pgp" : "0",
      "terminal" : "0",
      "latitude" : "24.17394",
      "inDis" : "50",
      "routeId" : "85",
      "seqNo" : "42"
   },
   {
      "GoBack" : "2",
      "longitude" : "120.67199",
      "outDis" : "50",
      "Id" : "4265",
      "oid" : "B064E665D534495F9A44697FE2214998",
      "districtId" : "1",
      "nameZh" : "文心中清路口",
      "pgp" : "0",
      "terminal" : "0",
      "latitude" : "24.17404",
      "inDis" : "50",
      "routeId" : "85",
      "seqNo" : "43"
   },
   {
      "GoBack" : "2",
      "longitude" : "120.66782",
      "outDis" : "50",
      "Id" : "0228",
      "oid" : "15AFE114EA17452887F132572A0F9EFC",
      "districtId" : "1",
      "nameZh" : "文心陜西路口",
      "pgp" : "0",
      "terminal" : "0",
      "latitude" : "24.1734",
      "inDis" : "50",
      "routeId" : "85",
      "seqNo" : "44"
   },
   {
      "GoBack" : "2",
      "longitude" : "120.66652",
      "outDis" : "50",
      "Id" : "0229",
      "oid" : "911FA3426F6F452DAED009F6E6FA21BE",
      "districtId" : "1",
      "nameZh" : "臺灣日報",
      "pgp" : "0",
      "terminal" : "0",
      "latitude" : "24.17318",
      "inDis" : "50",
      "routeId" : "85",
      "seqNo" : "45"
   },
   {
      "GoBack" : "2",
      "longitude" : "120.66357",
      "outDis" : "50",
      "Id" : "0230",
      "oid" : "040A5C518158442A82F51A361CD6EA9A",
      "districtId" : "1",
      "nameZh" : "重慶國小",
      "pgp" : "0",
      "terminal" : "0",
      "latitude" : "24.17252",
      "inDis" : "50",
      "routeId" : "85",
      "seqNo" : "46"
   },
   {
      "GoBack" : "2",
      "longitude" : "120.66067",
      "outDis" : "50",
      "Id" : "4275",
      "oid" : "C500DD79FC044103A516C45B67A84551",
      "districtId" : "1",
      "nameZh" : "文心河南路口",
      "pgp" : "0",
      "terminal" : "0",
      "latitude" : "24.17167",
      "inDis" : "50",
      "routeId" : "85",
      "seqNo" : "47"
   },
   {
      "GoBack" : "2",
      "longitude" : "120.65951",
      "outDis" : "50",
      "Id" : "0231",
      "oid" : "EB733D0514C34BF6ACB83C60239445B9",
      "districtId" : "1",
      "nameZh" : "文華高中",
      "pgp" : "0",
      "terminal" : "0",
      "latitude" : "24.17137",
      "inDis" : "50",
      "routeId" : "85",
      "seqNo" : "48"
   },
   {
      "GoBack" : "2",
      "longitude" : "120.65548",
      "outDis" : "50",
      "Id" : "4271",
      "oid" : "935BD48AE27F4583986C9B1BAB89F437",
      "districtId" : "1",
      "nameZh" : "文心甘肅路口",
      "pgp" : "0",
      "terminal" : "0",
      "latitude" : "24.16915",
      "inDis" : "50",
      "routeId" : "85",
      "seqNo" : "49"
   },
   {
      "GoBack" : "2",
      "longitude" : "120.65204",
      "outDis" : "50",
      "Id" : "4273",
      "oid" : "FEA434FB86C64DB3A5129B5A72613E08",
      "districtId" : "1",
      "nameZh" : "文心西屯路口",
      "pgp" : "0",
      "terminal" : "0",
      "latitude" : "24.16627",
      "inDis" : "50",
      "routeId" : "85",
      "seqNo" : "50"
   },
   {
      "GoBack" : "2",
      "longitude" : "120.65041",
      "outDis" : "50",
      "Id" : "4269",
      "oid" : "6CA2BB65E7024902BE0FEC2622DB0033",
      "districtId" : "1",
      "nameZh" : "文心四川路口",
      "pgp" : "0",
      "terminal" : "0",
      "latitude" : "24.16415",
      "inDis" : "50",
      "routeId" : "85",
      "seqNo" : "51"
   },
   {
      "GoBack" : "2",
      "longitude" : "120.64861",
      "outDis" : "50",
      "Id" : "4266",
      "oid" : "A8C197279CF143529C1ED7BB55E58D4A",
      "districtId" : "1",
      "nameZh" : "文心臺灣大道口",
      "pgp" : "0",
      "terminal" : "0",
      "latitude" : "24.16141",
      "inDis" : "50",
      "routeId" : "85",
      "seqNo" : "52"
   },
   {
      "GoBack" : "2",
      "longitude" : "120.6475",
      "outDis" : "50",
      "Id" : "0019",
      "oid" : "8F0D93E1742E4DD987D405D07F4CAA0B",
      "districtId" : "1",
      "nameZh" : "市警局",
      "pgp" : "0",
      "terminal" : "0",
      "latitude" : "24.15979",
      "inDis" : "50",
      "routeId" : "85",
      "seqNo" : "53"
   },
   {
      "GoBack" : "2",
      "longitude" : "120.64666",
      "outDis" : "50",
      "Id" : "1433",
      "oid" : "9194BD0409174799828DD33163CF35F0",
      "districtId" : "1",
      "nameZh" : "中央健保局(文心路)",
      "pgp" : "0",
      "terminal" : "0",
      "latitude" : "24.15744",
      "inDis" : "50",
      "routeId" : "85",
      "seqNo" : "54"
   },
   {
      "GoBack" : "2",
      "longitude" : "120.64675",
      "outDis" : "50",
      "Id" : "4270",
      "oid" : "928AF71769ED4BFAA100CFD8154BC0B1",
      "districtId" : "1",
      "nameZh" : "文心市政路口",
      "pgp" : "0",
      "terminal" : "0",
      "latitude" : "24.15431",
      "inDis" : "50",
      "routeId" : "85",
      "seqNo" : "55"
   },
   {
      "GoBack" : "2",
      "longitude" : "120.64658",
      "outDis" : "50",
      "Id" : "4268",
      "oid" : "A7BD191BF11442A49FBBDD1B78301BC0",
      "districtId" : "1",
      "nameZh" : "文心公益路口",
      "pgp" : "0",
      "terminal" : "0",
      "latitude" : "24.15023",
      "inDis" : "50",
      "routeId" : "85",
      "seqNo" : "56"
   },
   {
      "GoBack" : "2",
      "longitude" : "120.6465",
      "outDis" : "75",
      "Id" : "4356",
      "oid" : "10994",
      "districtId" : "1",
      "nameZh" : "文心森林公園",
      "pgp" : "0",
      "terminal" : "0",
      "latitude" : "24.14631",
      "inDis" : "75",
      "routeId" : "85",
      "seqNo" : "57"
   },
   {
      "GoBack" : "2",
      "longitude" : "120.6466",
      "outDis" : "50",
      "Id" : "5477",
      "oid" : "3B3F48D8373B4E6DA0BD94B9D11AD0F7",
      "districtId" : "1",
      "nameZh" : "文心大墩七街口",
      "pgp" : "0",
      "terminal" : "0",
      "latitude" : "24.14419",
      "inDis" : "50",
      "routeId" : "85",
      "seqNo" : "58"
   },
   {
      "GoBack" : "2",
      "longitude" : "120.64661",
      "outDis" : "50",
      "Id" : "4272",
      "oid" : "54042D209C14442FA0239A70EFDEE4F2",
      "districtId" : "1",
      "nameZh" : "文心向心路口",
      "pgp" : "0",
      "terminal" : "0",
      "latitude" : "24.14217",
      "inDis" : "50",
      "routeId" : "85",
      "seqNo" : "59"
   },
   {
      "GoBack" : "2",
      "longitude" : "120.64682",
      "outDis" : "50",
      "Id" : "4267",
      "oid" : "12530",
      "districtId" : "1",
      "nameZh" : "文心五權西路口",
      "pgp" : "0",
      "terminal" : "0",
      "latitude" : "24.13858",
      "inDis" : "50",
      "routeId" : "85",
      "seqNo" : "60"
   },
   {
      "GoBack" : "2",
      "longitude" : "120.64668",
      "outDis" : "50",
      "Id" : "5098",
      "oid" : "EA6BCA8DB78640EB9E5A173D7C1771C9",
      "districtId" : "1",
      "nameZh" : "文心南南屯路口",
      "pgp" : "0",
      "terminal" : "0",
      "latitude" : "24.13681",
      "inDis" : "50",
      "routeId" : "85",
      "seqNo" : "61"
   },
   {
      "GoBack" : "2",
      "longitude" : "120.64636",
      "outDis" : "50",
      "Id" : "5097",
      "oid" : "86748B4E497048EEB5974B571D7602F3",
      "districtId" : "1",
      "nameZh" : "文心南永春東路口",
      "pgp" : "0",
      "terminal" : "0",
      "latitude" : "24.13443",
      "inDis" : "50",
      "routeId" : "85",
      "seqNo" : "62"
   },
   {
      "GoBack" : "2",
      "longitude" : "120.64627",
      "outDis" : "50",
      "Id" : "0026",
      "oid" : "6758F8AB0EB04579827258110C4F8C28",
      "districtId" : "1",
      "nameZh" : "豐樂公園",
      "pgp" : "0",
      "terminal" : "0",
      "latitude" : "24.13024",
      "inDis" : "50",
      "routeId" : "85",
      "seqNo" : "63"
   },
   {
      "GoBack" : "2",
      "longitude" : "120.64862",
      "outDis" : "50",
      "Id" : "4034",
      "oid" : "7D35DE8EA9DB4BA6A91FA598920232D5",
      "districtId" : "1",
      "nameZh" : "中山醫學大學",
      "pgp" : "0",
      "terminal" : "0",
      "latitude" : "24.12238",
      "inDis" : "50",
      "routeId" : "85",
      "seqNo" : "65"
   },
   {
      "GoBack" : "2",
      "longitude" : "120.6476",
      "outDis" : "50",
      "Id" : "0132",
      "oid" : "BA4A87349B4D4FB3A60BD2E78B06CD64",
      "districtId" : "1",
      "nameZh" : "大慶火車站",
      "pgp" : "0",
      "terminal" : "0",
      "latitude" : "24.1192",
      "inDis" : "50",
      "routeId" : "85",
      "seqNo" : "66"
   },
   {
      "GoBack" : "2",
      "longitude" : "120.63425",
      "outDis" : "50",
      "Id" : "5379",
      "oid" : "312026957",
      "districtId" : "1",
      "nameZh" : "九德(建國路)",
      "pgp" : "0",
      "terminal" : "0",
      "latitude" : "24.11078",
      "inDis" : "50",
      "routeId" : "85",
      "seqNo" : "67"
   },
   {
      "GoBack" : "2",
      "longitude" : "120.62663",
      "outDis" : "50",
      "Id" : "4176",
      "oid" : "129833955",
      "districtId" : "1",
      "nameZh" : "光日站",
      "pgp" : "0",
      "terminal" : "0",
      "latitude" : "24.1088",
      "inDis" : "50",
      "routeId" : "85",
      "seqNo" : "69"
   },
   {
      "GoBack" : "2",
      "longitude" : "120.61654",
      "outDis" : "50",
      "Id" : "2908",
      "oid" : "F0901BCF715D49C88C2B0BAD2B8D2FAC",
      "districtId" : "1",
      "nameZh" : "高鐵臺中站(16月台)",
      "pgp" : "0",
      "terminal" : "0",
      "latitude" : "24.11184",
      "inDis" : "50",
      "routeId" : "85",
      "seqNo" : "70"
   }
]
