[
   {
      "GoBack" : "1",
      "longitude" : "120.6845",
      "outDis" : "50",
      "Id" : "0443",
      "oid" : "856C616F5B4E453BA69AFCC223CB73A6",
      "districtId" : "1",
      "nameZh" : "仁友東站",
      "pgp" : "0",
      "terminal" : "0",
      "latitude" : "24.13897",
      "inDis" : "50",
      "routeId" : "20",
      "seqNo" : "1"
   },
   {
      "GoBack" : "1",
      "longitude" : "120.68359",
      "outDis" : "50",
      "Id" : "0049",
      "oid" : "CE06A40523514DD4A5FEA9FBBEECC167",
      "districtId" : "1",
      "nameZh" : "第三市場(臺中家商)",
      "pgp" : "0",
      "terminal" : "0",
      "latitude" : "24.13287",
      "inDis" : "50",
      "routeId" : "20",
      "seqNo" : "3"
   },
   {
      "GoBack" : "1",
      "longitude" : "120.68498",
      "outDis" : "50",
      "Id" : "0257",
      "oid" : "4F0ACB185D1B4C1AAC611209D90FBA47",
      "districtId" : "1",
      "nameZh" : "臺中國小",
      "pgp" : "0",
      "terminal" : "0",
      "latitude" : "24.1304",
      "inDis" : "50",
      "routeId" : "20",
      "seqNo" : "4"
   },
   {
      "GoBack" : "1",
      "longitude" : "120.68556",
      "outDis" : "50",
      "Id" : "5647",
      "oid" : "12688",
      "districtId" : "1",
      "nameZh" : "興大附農(建成路)",
      "pgp" : "0",
      "terminal" : "0",
      "latitude" : "24.12981",
      "inDis" : "50",
      "routeId" : "20",
      "seqNo" : "5"
   },
   {
      "GoBack" : "1",
      "longitude" : "120.68796",
      "outDis" : "50",
      "Id" : "2029",
      "oid" : "D3086F66E37B4F7EAAF7061EBE11F43B",
      "districtId" : "1",
      "nameZh" : "建成立德街口",
      "pgp" : "0",
      "terminal" : "0",
      "latitude" : "24.13072",
      "inDis" : "50",
      "routeId" : "20",
      "seqNo" : "6"
   },
   {
      "GoBack" : "1",
      "longitude" : "120.6899",
      "outDis" : "50",
      "Id" : "4655",
      "oid" : "F11989A287CC4570801A0AF39FE472E4",
      "districtId" : "1",
      "nameZh" : "建成大智路口",
      "pgp" : "0",
      "terminal" : "0",
      "latitude" : "24.13148",
      "inDis" : "50",
      "routeId" : "20",
      "seqNo" : "7"
   },
   {
      "GoBack" : "1",
      "longitude" : "120.69233",
      "outDis" : "50",
      "Id" : "4362",
      "oid" : "AE8C3775B4774AB188B1DA065EC4EBC4",
      "districtId" : "1",
      "nameZh" : "建成大振街口",
      "pgp" : "0",
      "terminal" : "0",
      "latitude" : "24.13251",
      "inDis" : "50",
      "routeId" : "20",
      "seqNo" : "8"
   },
   {
      "GoBack" : "1",
      "longitude" : "120.69397",
      "outDis" : "50",
      "Id" : "0188",
      "oid" : "D9E51935F5AD4D1FA82D6FCA317507EE",
      "districtId" : "1",
      "nameZh" : "大東紡織(建成路)",
      "pgp" : "0",
      "terminal" : "0",
      "latitude" : "24.13319",
      "inDis" : "50",
      "routeId" : "20",
      "seqNo" : "9"
   },
   {
      "GoBack" : "1",
      "longitude" : "120.6961",
      "outDis" : "50",
      "Id" : "2402",
      "oid" : "CD40C2C7754245F08AD68963A4681641",
      "districtId" : "1",
      "nameZh" : "建成東光園路口",
      "pgp" : "0",
      "terminal" : "0",
      "latitude" : "24.13468",
      "inDis" : "50",
      "routeId" : "20",
      "seqNo" : "10"
   },
   {
      "GoBack" : "1",
      "longitude" : "120.69665",
      "outDis" : "50",
      "Id" : "4562",
      "oid" : "9CDA9D0041E54FBE887C7AEB65E17DEB",
      "districtId" : "1",
      "nameZh" : "建成樂業路口",
      "pgp" : "0",
      "terminal" : "0",
      "latitude" : "24.13814",
      "inDis" : "50",
      "routeId" : "20",
      "seqNo" : "11"
   },
   {
      "GoBack" : "1",
      "longitude" : "120.69678",
      "outDis" : "50",
      "Id" : "5176",
      "oid" : "98AAB916754D4F658F2E89E636F38744",
      "districtId" : "1",
      "nameZh" : "東光旱溪街口",
      "pgp" : "0",
      "terminal" : "0",
      "latitude" : "24.14076",
      "inDis" : "50",
      "routeId" : "20",
      "seqNo" : "12"
   },
   {
      "GoBack" : "1",
      "longitude" : "120.69755",
      "outDis" : "50",
      "Id" : "5180",
      "oid" : "B3F4720A4D024F85B9AA8F387A3FDDF5",
      "districtId" : "1",
      "nameZh" : "東光十甲路口",
      "pgp" : "0",
      "terminal" : "0",
      "latitude" : "24.14432",
      "inDis" : "50",
      "routeId" : "20",
      "seqNo" : "13"
   },
   {
      "GoBack" : "1",
      "longitude" : "120.69784",
      "outDis" : "50",
      "Id" : "5116",
      "oid" : "4772E4237E264D97AA10E04CED730AD2",
      "districtId" : "1",
      "nameZh" : "東光精武路口",
      "pgp" : "0",
      "terminal" : "0",
      "latitude" : "24.1463",
      "inDis" : "50",
      "routeId" : "20",
      "seqNo" : "14"
   },
   {
      "GoBack" : "1",
      "longitude" : "120.69848",
      "outDis" : "50",
      "Id" : "5114",
      "oid" : "5495E9B4682B40C4BD9A25116A2964C5",
      "districtId" : "1",
      "nameZh" : "東光力行路口",
      "pgp" : "0",
      "terminal" : "0",
      "latitude" : "24.15095",
      "inDis" : "50",
      "routeId" : "20",
      "seqNo" : "15"
   },
   {
      "GoBack" : "1",
      "longitude" : "120.69884",
      "outDis" : "50",
      "Id" : "2398",
      "oid" : "2C76CD82AFB84F968764E2138F3E0608",
      "districtId" : "1",
      "nameZh" : "東光三街口",
      "pgp" : "0",
      "terminal" : "0",
      "latitude" : "24.15366",
      "inDis" : "50",
      "routeId" : "20",
      "seqNo" : "16"
   },
   {
      "GoBack" : "1",
      "longitude" : "120.6992",
      "outDis" : "50",
      "Id" : "2165",
      "oid" : "FD074BD4D5A04F3C9D85165E8774DED8",
      "districtId" : "1",
      "nameZh" : "肉品市場",
      "pgp" : "0",
      "terminal" : "0",
      "latitude" : "24.15615",
      "inDis" : "50",
      "routeId" : "20",
      "seqNo" : "17"
   },
   {
      "GoBack" : "1",
      "longitude" : "120.69947",
      "outDis" : "50",
      "Id" : "2399",
      "oid" : "2D87EF37B2604BE38D954DF69E690E96",
      "districtId" : "1",
      "nameZh" : "東光六街口",
      "pgp" : "0",
      "terminal" : "0",
      "latitude" : "24.15832",
      "inDis" : "50",
      "routeId" : "20",
      "seqNo" : "18"
   },
   {
      "GoBack" : "1",
      "longitude" : "120.69957",
      "outDis" : "50",
      "Id" : "5115",
      "oid" : "5C1C0F069C4F4712A58BE0DDF1E0099D",
      "districtId" : "1",
      "nameZh" : "東光天祥街口",
      "pgp" : "0",
      "terminal" : "0",
      "latitude" : "24.15979",
      "inDis" : "50",
      "routeId" : "20",
      "seqNo" : "19"
   },
   {
      "GoBack" : "1",
      "longitude" : "120.70026",
      "outDis" : "50",
      "Id" : "4351",
      "oid" : "9C0C78B28E02431588BDD31BB75A5636",
      "districtId" : "1",
      "nameZh" : "太原火車站",
      "pgp" : "0",
      "terminal" : "0",
      "latitude" : "24.16643",
      "inDis" : "50",
      "routeId" : "20",
      "seqNo" : "20"
   },
   {
      "GoBack" : "1",
      "longitude" : "120.70292",
      "outDis" : "50",
      "Id" : "0218",
      "oid" : "3D3502137AFA4EB694CC5D8EF243E19E",
      "districtId" : "1",
      "nameZh" : "三川福德祠",
      "pgp" : "0",
      "terminal" : "0",
      "latitude" : "24.16474",
      "inDis" : "50",
      "routeId" : "20",
      "seqNo" : "21"
   },
   {
      "GoBack" : "1",
      "longitude" : "120.70621",
      "outDis" : "90",
      "Id" : "0470",
      "oid" : "68D7F787D67B43BB8D728BAE37A2CBD8",
      "districtId" : "1",
      "nameZh" : "太原二號橋",
      "pgp" : "0",
      "terminal" : "0",
      "latitude" : "24.16468",
      "inDis" : "50",
      "routeId" : "20",
      "seqNo" : "22"
   },
   {
      "GoBack" : "1",
      "longitude" : "120.71275",
      "outDis" : "50",
      "Id" : "5113",
      "oid" : "307455177",
      "districtId" : "1",
      "nameZh" : "東山高中(太原路)",
      "pgp" : "0",
      "terminal" : "0",
      "latitude" : "24.16436",
      "inDis" : "50",
      "routeId" : "20",
      "seqNo" : "23"
   },
   {
      "GoBack" : "1",
      "longitude" : "120.71434",
      "outDis" : "50",
      "Id" : "5175",
      "oid" : "8E1E39FEE65645F2BE38C8017CE33990",
      "districtId" : "1",
      "nameZh" : "太原軍功路口",
      "pgp" : "0",
      "terminal" : "0",
      "latitude" : "24.1642",
      "inDis" : "50",
      "routeId" : "20",
      "seqNo" : "24"
   },
   {
      "GoBack" : "1",
      "longitude" : "120.71676",
      "outDis" : "50",
      "Id" : "1430",
      "oid" : "7224D7E6DD4D408E9533CEC9DAEA0434",
      "districtId" : "1",
      "nameZh" : "中台駕訓班",
      "pgp" : "0",
      "terminal" : "0",
      "latitude" : "24.16359",
      "inDis" : "50",
      "routeId" : "20",
      "seqNo" : "25"
   },
   {
      "GoBack" : "1",
      "longitude" : "120.72192",
      "outDis" : "50",
      "Id" : "0809",
      "oid" : "C407541392C7424A8FFDA2690D6EC677",
      "districtId" : "1",
      "nameZh" : "弘光復健醫院",
      "pgp" : "0",
      "terminal" : "0",
      "latitude" : "24.16229",
      "inDis" : "50",
      "routeId" : "20",
      "seqNo" : "26"
   },
   {
      "GoBack" : "1",
      "longitude" : "120.72644",
      "outDis" : "50",
      "Id" : "0471",
      "oid" : "F8EE7542E2FC4372B98708A1FAEC5F93",
      "districtId" : "1",
      "nameZh" : "太原六號橋",
      "pgp" : "0",
      "terminal" : "0",
      "latitude" : "24.16111",
      "inDis" : "50",
      "routeId" : "20",
      "seqNo" : "27"
   },
   {
      "GoBack" : "1",
      "longitude" : "120.7334",
      "outDis" : "50",
      "Id" : "5035",
      "oid" : "7C1EDE15A7D14D609574D790E54E2A56",
      "districtId" : "1",
      "nameZh" : "部子太原路口",
      "pgp" : "0",
      "terminal" : "0",
      "latitude" : "24.16202",
      "inDis" : "50",
      "routeId" : "20",
      "seqNo" : "28"
   },
   {
      "GoBack" : "1",
      "longitude" : "120.73342",
      "outDis" : "50",
      "Id" : "3079",
      "oid" : "C3961CDDD66641FA9B70FABE432EF113",
      "districtId" : "1",
      "nameZh" : "部子巷口",
      "pgp" : "0",
      "terminal" : "0",
      "latitude" : "24.16609",
      "inDis" : "50",
      "routeId" : "20",
      "seqNo" : "29"
   },
   {
      "GoBack" : "1",
      "longitude" : "120.73331",
      "outDis" : "50",
      "Id" : "4154",
      "oid" : "311451525",
      "districtId" : "1",
      "nameZh" : "部子景賢路口",
      "pgp" : "0",
      "terminal" : "0",
      "latitude" : "24.16719",
      "inDis" : "50",
      "routeId" : "20",
      "seqNo" : "30"
   },
   {
      "GoBack" : "1",
      "longitude" : "120.73343",
      "outDis" : "50",
      "Id" : "0755",
      "oid" : "FAB53C47C09F4FA98CE24E88533F1DA4",
      "districtId" : "1",
      "nameZh" : "國際青年之家",
      "pgp" : "0",
      "terminal" : "0",
      "latitude" : "24.17029",
      "inDis" : "50",
      "routeId" : "20",
      "seqNo" : "31"
   },
   {
      "GoBack" : "1",
      "longitude" : "120.73422",
      "outDis" : "50",
      "Id" : "0682",
      "oid" : "4ABE551F01834FEC9DDDE47B975F0922",
      "districtId" : "1",
      "nameZh" : "花園新城",
      "pgp" : "0",
      "terminal" : "0",
      "latitude" : "24.17238",
      "inDis" : "50",
      "routeId" : "20",
      "seqNo" : "32"
   },
   {
      "GoBack" : "1",
      "longitude" : "120.73632",
      "outDis" : "50",
      "Id" : "1428",
      "oid" : "01B5DE6354654D658B0EE9EE308EA8B5",
      "districtId" : "1",
      "nameZh" : "中臺科大",
      "pgp" : "0",
      "terminal" : "0",
      "latitude" : "24.17555",
      "inDis" : "50",
      "routeId" : "20",
      "seqNo" : "33"
   },
   {
      "GoBack" : "1",
      "longitude" : "120.73834",
      "outDis" : "50",
      "Id" : "0917",
      "oid" : "AE0EBFABD8134E42B8244DC4FC65AD02",
      "districtId" : "1",
      "nameZh" : "樂達利山莊",
      "pgp" : "0",
      "terminal" : "0",
      "latitude" : "24.17637",
      "inDis" : "50",
      "routeId" : "20",
      "seqNo" : "34"
   },
   {
      "GoBack" : "1",
      "longitude" : "120.73952",
      "outDis" : "50",
      "Id" : "0351",
      "oid" : "ACE082561E104A29B2965BED44371707",
      "districtId" : "1",
      "nameZh" : "大坑橋",
      "pgp" : "0",
      "terminal" : "0",
      "latitude" : "24.17775",
      "inDis" : "50",
      "routeId" : "20",
      "seqNo" : "35"
   },
   {
      "GoBack" : "1",
      "longitude" : "120.73994",
      "outDis" : "50",
      "Id" : "0350",
      "oid" : "4DA918651F964923A5EE934EFDEE4E07",
      "districtId" : "1",
      "nameZh" : "大坑圓環",
      "pgp" : "0",
      "terminal" : "0",
      "latitude" : "24.17918",
      "inDis" : "50",
      "routeId" : "20",
      "seqNo" : "36"
   },
   {
      "GoBack" : "1",
      "longitude" : "120.73714",
      "outDis" : "50",
      "Id" : "0784",
      "oid" : "311262896",
      "districtId" : "1",
      "nameZh" : "逢甲橋",
      "pgp" : "0",
      "terminal" : "0",
      "latitude" : "24.17847",
      "inDis" : "50",
      "routeId" : "20",
      "seqNo" : "37"
   },
   {
      "GoBack" : "1",
      "longitude" : "120.73565",
      "outDis" : "50",
      "Id" : "0768",
      "oid" : "A1F0F386E93C421587F6261F2A2E3264",
      "districtId" : "1",
      "nameZh" : "梨仔園",
      "pgp" : "0",
      "terminal" : "0",
      "latitude" : "24.1778",
      "inDis" : "50",
      "routeId" : "20",
      "seqNo" : "38"
   },
   {
      "GoBack" : "1",
      "longitude" : "120.73467",
      "outDis" : "50",
      "Id" : "0534",
      "oid" : "378E3BE4F9674973972396B7FF13FEA0",
      "districtId" : "1",
      "nameZh" : "台電東山所",
      "pgp" : "0",
      "terminal" : "0",
      "latitude" : "24.17726",
      "inDis" : "50",
      "routeId" : "20",
      "seqNo" : "39"
   },
   {
      "GoBack" : "1",
      "longitude" : "120.73195",
      "outDis" : "50",
      "Id" : "0854",
      "oid" : "2546A583849A4B72A031DAF4D8817559",
      "districtId" : "1",
      "nameZh" : "圓山新村",
      "pgp" : "0",
      "terminal" : "0",
      "latitude" : "24.17708",
      "inDis" : "50",
      "routeId" : "20",
      "seqNo" : "40"
   },
   {
      "GoBack" : "1",
      "longitude" : "120.72754",
      "outDis" : "50",
      "Id" : "0555",
      "oid" : "A5A13DD3944C4E52B6847AEF47627C0B",
      "districtId" : "1",
      "nameZh" : "正覺寺",
      "pgp" : "0",
      "terminal" : "0",
      "latitude" : "24.1767",
      "inDis" : "50",
      "routeId" : "20",
      "seqNo" : "41"
   },
   {
      "GoBack" : "1",
      "longitude" : "120.72436",
      "outDis" : "50",
      "Id" : "0687",
      "oid" : "7DFEF6597F874B5D9DD970E9CC196CFC",
      "districtId" : "1",
      "nameZh" : "長興塑膠",
      "pgp" : "0",
      "terminal" : "0",
      "latitude" : "24.17618",
      "inDis" : "50",
      "routeId" : "20",
      "seqNo" : "42"
   },
   {
      "GoBack" : "1",
      "longitude" : "120.72222",
      "outDis" : "50",
      "Id" : "4592",
      "oid" : "939419A71DCC4D969A21AA4907DC5E2C",
      "districtId" : "1",
      "nameZh" : "和平里(東山路)",
      "pgp" : "0",
      "terminal" : "0",
      "latitude" : "24.17606",
      "inDis" : "50",
      "routeId" : "20",
      "seqNo" : "43"
   },
   {
      "GoBack" : "1",
      "longitude" : "120.71975",
      "outDis" : "80",
      "Id" : "0727",
      "oid" : "C25B0BE6A8B0444BBA34EFE9F31ADF1F",
      "districtId" : "1",
      "nameZh" : "軍功里",
      "pgp" : "0",
      "terminal" : "0",
      "latitude" : "24.17591",
      "inDis" : "50",
      "routeId" : "20",
      "seqNo" : "44"
   },
   {
      "GoBack" : "1",
      "longitude" : "120.71935",
      "outDis" : "80",
      "Id" : "2723",
      "oid" : "1231D4FD99824DA49C314A4A979CA80C",
      "districtId" : "1",
      "nameZh" : "軍功農會",
      "pgp" : "0",
      "terminal" : "0",
      "latitude" : "24.17728",
      "inDis" : "50",
      "routeId" : "20",
      "seqNo" : "45"
   },
   {
      "GoBack" : "1",
      "longitude" : "120.71968",
      "outDis" : "80",
      "Id" : "2631",
      "oid" : "8F2888792AA24CF595E9D627CBDD0615",
      "districtId" : "1",
      "nameZh" : "建功橋頭",
      "pgp" : "0",
      "terminal" : "0",
      "latitude" : "24.17988",
      "inDis" : "50",
      "routeId" : "20",
      "seqNo" : "46"
   },
   {
      "GoBack" : "1",
      "longitude" : "120.71934",
      "outDis" : "80",
      "Id" : "0729",
      "oid" : "18383732",
      "districtId" : "1",
      "nameZh" : "軍功松竹路口",
      "pgp" : "0",
      "terminal" : "0",
      "latitude" : "24.18293",
      "inDis" : "30",
      "routeId" : "20",
      "seqNo" : "47"
   },
   {
      "GoBack" : "1",
      "longitude" : "120.71914",
      "outDis" : "50",
      "Id" : "1552",
      "oid" : "06340D92E3CB491880FCA9C3C856C706",
      "districtId" : "1",
      "nameZh" : "仁愛之家",
      "pgp" : "0",
      "terminal" : "0",
      "latitude" : "24.18439",
      "inDis" : "50",
      "routeId" : "20",
      "seqNo" : "48"
   },
   {
      "GoBack" : "1",
      "longitude" : "120.71836",
      "outDis" : "50",
      "Id" : "2078",
      "oid" : "0A0EC3414C214921876BCB6FA36AA9BF",
      "districtId" : "1",
      "nameZh" : "名人球場",
      "pgp" : "0",
      "terminal" : "0",
      "latitude" : "24.18839",
      "inDis" : "50",
      "routeId" : "20",
      "seqNo" : "49"
   },
   {
      "GoBack" : "1",
      "longitude" : "120.71984",
      "outDis" : "80",
      "Id" : "4976",
      "oid" : "309256353",
      "districtId" : "1",
      "nameZh" : "慈濟中醫院",
      "pgp" : "0",
      "terminal" : "0",
      "latitude" : "24.19385",
      "inDis" : "30",
      "routeId" : "20",
      "seqNo" : "50"
   },
   {
      "GoBack" : "1",
      "longitude" : "120.72097",
      "outDis" : "60",
      "Id" : "3359",
      "oid" : "309256355",
      "districtId" : "1",
      "nameZh" : "慈濟醫院",
      "pgp" : "0",
      "terminal" : "0",
      "latitude" : "24.19567",
      "inDis" : "20",
      "routeId" : "20",
      "seqNo" : "51"
   },
   {
      "GoBack" : "1",
      "longitude" : "120.72196",
      "outDis" : "50",
      "Id" : "1504",
      "oid" : "5352",
      "districtId" : "1",
      "nameZh" : "中興",
      "pgp" : "0",
      "terminal" : "0",
      "latitude" : "24.19924",
      "inDis" : "50",
      "routeId" : "20",
      "seqNo" : "52"
   },
   {
      "GoBack" : "1",
      "longitude" : "120.72265",
      "outDis" : "50",
      "Id" : "3432",
      "oid" : "6452",
      "districtId" : "1",
      "nameZh" : "新興",
      "pgp" : "0",
      "terminal" : "0",
      "latitude" : "24.20362",
      "inDis" : "50",
      "routeId" : "20",
      "seqNo" : "53"
   },
   {
      "GoBack" : "1",
      "longitude" : "120.71989",
      "outDis" : "50",
      "Id" : "5621",
      "oid" : "139010575",
      "districtId" : "1",
      "nameZh" : "翔仁社區",
      "pgp" : "0",
      "terminal" : "0",
      "latitude" : "24.2042",
      "inDis" : "50",
      "routeId" : "20",
      "seqNo" : "54"
   },
   {
      "GoBack" : "1",
      "longitude" : "120.71477",
      "outDis" : "50",
      "Id" : "5620",
      "oid" : "139010573",
      "districtId" : "1",
      "nameZh" : "聚興福德祠",
      "pgp" : "0",
      "terminal" : "0",
      "latitude" : "24.20498",
      "inDis" : "50",
      "routeId" : "20",
      "seqNo" : "55"
   },
   {
      "GoBack" : "1",
      "longitude" : "120.71334",
      "outDis" : "50",
      "Id" : "5761",
      "oid" : "320650275",
      "districtId" : "1",
      "nameZh" : "久豪社區",
      "pgp" : "0",
      "terminal" : "0",
      "latitude" : "24.20536",
      "inDis" : "50",
      "routeId" : "20",
      "seqNo" : "56"
   },
   {
      "GoBack" : "1",
      "longitude" : "120.7103",
      "outDis" : "50",
      "Id" : "5623",
      "oid" : "139145842",
      "districtId" : "1",
      "nameZh" : "潭興新興路口",
      "pgp" : "0",
      "terminal" : "0",
      "latitude" : "24.20802",
      "inDis" : "50",
      "routeId" : "20",
      "seqNo" : "57"
   },
   {
      "GoBack" : "1",
      "longitude" : "120.70987",
      "outDis" : "50",
      "Id" : "5624",
      "oid" : "139145844",
      "districtId" : "1",
      "nameZh" : "潭興光陽路口",
      "pgp" : "0",
      "terminal" : "0",
      "latitude" : "24.21054",
      "inDis" : "50",
      "routeId" : "20",
      "seqNo" : "58"
   },
   {
      "GoBack" : "1",
      "longitude" : "120.70632",
      "outDis" : "50",
      "Id" : "5625",
      "oid" : "139064873",
      "districtId" : "1",
      "nameZh" : "潭子火車站(後站)",
      "pgp" : "0",
      "terminal" : "0",
      "latitude" : "24.21153",
      "inDis" : "50",
      "routeId" : "20",
      "seqNo" : "59"
   },
   {
      "GoBack" : "2",
      "longitude" : "120.70632",
      "outDis" : "50",
      "Id" : "5625",
      "oid" : "139064873",
      "districtId" : "1",
      "nameZh" : "潭子火車站(後站)",
      "pgp" : "0",
      "terminal" : "0",
      "latitude" : "24.21153",
      "inDis" : "50",
      "routeId" : "20",
      "seqNo" : "1"
   },
   {
      "GoBack" : "2",
      "longitude" : "120.70987",
      "outDis" : "50",
      "Id" : "5624",
      "oid" : "139145844",
      "districtId" : "1",
      "nameZh" : "潭興光陽路口",
      "pgp" : "0",
      "terminal" : "0",
      "latitude" : "24.21054",
      "inDis" : "50",
      "routeId" : "20",
      "seqNo" : "2"
   },
   {
      "GoBack" : "2",
      "longitude" : "120.7103",
      "outDis" : "50",
      "Id" : "5623",
      "oid" : "139145842",
      "districtId" : "1",
      "nameZh" : "潭興新興路口",
      "pgp" : "0",
      "terminal" : "0",
      "latitude" : "24.20802",
      "inDis" : "50",
      "routeId" : "20",
      "seqNo" : "3"
   },
   {
      "GoBack" : "2",
      "longitude" : "120.71334",
      "outDis" : "50",
      "Id" : "5761",
      "oid" : "320650275",
      "districtId" : "1",
      "nameZh" : "久豪社區",
      "pgp" : "0",
      "terminal" : "0",
      "latitude" : "24.20536",
      "inDis" : "50",
      "routeId" : "20",
      "seqNo" : "4"
   },
   {
      "GoBack" : "2",
      "longitude" : "120.71477",
      "outDis" : "50",
      "Id" : "5620",
      "oid" : "139010573",
      "districtId" : "1",
      "nameZh" : "聚興福德祠",
      "pgp" : "0",
      "terminal" : "0",
      "latitude" : "24.20498",
      "inDis" : "50",
      "routeId" : "20",
      "seqNo" : "5"
   },
   {
      "GoBack" : "2",
      "longitude" : "120.71989",
      "outDis" : "50",
      "Id" : "5621",
      "oid" : "139010575",
      "districtId" : "1",
      "nameZh" : "翔仁社區",
      "pgp" : "0",
      "terminal" : "0",
      "latitude" : "24.2042",
      "inDis" : "50",
      "routeId" : "20",
      "seqNo" : "6"
   },
   {
      "GoBack" : "2",
      "longitude" : "120.72265",
      "outDis" : "50",
      "Id" : "3432",
      "oid" : "6452",
      "districtId" : "1",
      "nameZh" : "新興",
      "pgp" : "0",
      "terminal" : "0",
      "latitude" : "24.20362",
      "inDis" : "50",
      "routeId" : "20",
      "seqNo" : "7"
   },
   {
      "GoBack" : "2",
      "longitude" : "120.72196",
      "outDis" : "50",
      "Id" : "1504",
      "oid" : "5352",
      "districtId" : "1",
      "nameZh" : "中興",
      "pgp" : "0",
      "terminal" : "0",
      "latitude" : "24.19924",
      "inDis" : "50",
      "routeId" : "20",
      "seqNo" : "8"
   },
   {
      "GoBack" : "2",
      "longitude" : "120.72108",
      "outDis" : "60",
      "Id" : "3359",
      "oid" : "309256356",
      "districtId" : "1",
      "nameZh" : "慈濟醫院",
      "pgp" : "0",
      "terminal" : "0",
      "latitude" : "24.19577",
      "inDis" : "40",
      "routeId" : "20",
      "seqNo" : "9"
   },
   {
      "GoBack" : "2",
      "longitude" : "120.72012",
      "outDis" : "50",
      "Id" : "4976",
      "oid" : "18383737",
      "districtId" : "1",
      "nameZh" : "慈濟中醫院",
      "pgp" : "0",
      "terminal" : "0",
      "latitude" : "24.1934",
      "inDis" : "50",
      "routeId" : "20",
      "seqNo" : "10"
   },
   {
      "GoBack" : "2",
      "longitude" : "120.71823",
      "outDis" : "50",
      "Id" : "2078",
      "oid" : "957EAA4E215C4DD987B27929AF62DCD4",
      "districtId" : "1",
      "nameZh" : "名人球場",
      "pgp" : "0",
      "terminal" : "0",
      "latitude" : "24.18847",
      "inDis" : "50",
      "routeId" : "20",
      "seqNo" : "11"
   },
   {
      "GoBack" : "2",
      "longitude" : "120.71901",
      "outDis" : "50",
      "Id" : "1552",
      "oid" : "D6245AA225B94C7B9B7B0CD7F70F112B",
      "districtId" : "1",
      "nameZh" : "仁愛之家",
      "pgp" : "0",
      "terminal" : "0",
      "latitude" : "24.18448",
      "inDis" : "50",
      "routeId" : "20",
      "seqNo" : "12"
   },
   {
      "GoBack" : "2",
      "longitude" : "120.71926",
      "outDis" : "80",
      "Id" : "0729",
      "oid" : "18383741",
      "districtId" : "1",
      "nameZh" : "軍功松竹路口",
      "pgp" : "0",
      "terminal" : "0",
      "latitude" : "24.18306",
      "inDis" : "50",
      "routeId" : "20",
      "seqNo" : "13"
   },
   {
      "GoBack" : "2",
      "longitude" : "120.71959",
      "outDis" : "80",
      "Id" : "2631",
      "oid" : "7828906847C74D6E9010751716E43189",
      "districtId" : "1",
      "nameZh" : "建功橋頭",
      "pgp" : "0",
      "terminal" : "0",
      "latitude" : "24.17975",
      "inDis" : "30",
      "routeId" : "20",
      "seqNo" : "14"
   },
   {
      "GoBack" : "2",
      "longitude" : "120.71928",
      "outDis" : "80",
      "Id" : "2723",
      "oid" : "BC3C7B07E292463993C35CBDF729D902",
      "districtId" : "1",
      "nameZh" : "軍功農會",
      "pgp" : "0",
      "terminal" : "0",
      "latitude" : "24.17713",
      "inDis" : "30",
      "routeId" : "20",
      "seqNo" : "15"
   },
   {
      "GoBack" : "2",
      "longitude" : "120.71995",
      "outDis" : "80",
      "Id" : "0727",
      "oid" : "F46C4AEAD9F0457DAB6BA0CC3D541DE2",
      "districtId" : "1",
      "nameZh" : "軍功里",
      "pgp" : "0",
      "terminal" : "0",
      "latitude" : "24.17594",
      "inDis" : "30",
      "routeId" : "20",
      "seqNo" : "16"
   },
   {
      "GoBack" : "2",
      "longitude" : "120.722",
      "outDis" : "50",
      "Id" : "4592",
      "oid" : "B133C774169E4F6D96F1F52D1390C0EA",
      "districtId" : "1",
      "nameZh" : "和平里(東山路)",
      "pgp" : "0",
      "terminal" : "0",
      "latitude" : "24.17598",
      "inDis" : "50",
      "routeId" : "20",
      "seqNo" : "17"
   },
   {
      "GoBack" : "2",
      "longitude" : "120.72447",
      "outDis" : "50",
      "Id" : "0687",
      "oid" : "1C8CEAEB68154A009191D2A0C2EEF9C6",
      "districtId" : "1",
      "nameZh" : "長興塑膠",
      "pgp" : "0",
      "terminal" : "0",
      "latitude" : "24.17612",
      "inDis" : "50",
      "routeId" : "20",
      "seqNo" : "18"
   },
   {
      "GoBack" : "2",
      "longitude" : "120.72697",
      "outDis" : "50",
      "Id" : "0555",
      "oid" : "CBB05BB19CBD41D7AD2538BCB3834976",
      "districtId" : "1",
      "nameZh" : "正覺寺",
      "pgp" : "0",
      "terminal" : "0",
      "latitude" : "24.17648",
      "inDis" : "50",
      "routeId" : "20",
      "seqNo" : "19"
   },
   {
      "GoBack" : "2",
      "longitude" : "120.73183",
      "outDis" : "50",
      "Id" : "0854",
      "oid" : "DA4C11B03BBB420E983C6EABD857FD2F",
      "districtId" : "1",
      "nameZh" : "圓山新村",
      "pgp" : "0",
      "terminal" : "0",
      "latitude" : "24.17701",
      "inDis" : "50",
      "routeId" : "20",
      "seqNo" : "20"
   },
   {
      "GoBack" : "2",
      "longitude" : "120.73471",
      "outDis" : "50",
      "Id" : "0534",
      "oid" : "5934C6398AAC47D0A13A3BE0AA4B00EC",
      "districtId" : "1",
      "nameZh" : "台電東山所",
      "pgp" : "0",
      "terminal" : "0",
      "latitude" : "24.17714",
      "inDis" : "50",
      "routeId" : "20",
      "seqNo" : "21"
   },
   {
      "GoBack" : "2",
      "longitude" : "120.73566",
      "outDis" : "50",
      "Id" : "0768",
      "oid" : "E10337076B2E451A90A3C41D5BE4B528",
      "districtId" : "1",
      "nameZh" : "梨仔園",
      "pgp" : "0",
      "terminal" : "0",
      "latitude" : "24.17766",
      "inDis" : "50",
      "routeId" : "20",
      "seqNo" : "22"
   },
   {
      "GoBack" : "2",
      "longitude" : "120.73716",
      "outDis" : "50",
      "Id" : "0784",
      "oid" : "311262897",
      "districtId" : "1",
      "nameZh" : "逢甲橋",
      "pgp" : "0",
      "terminal" : "0",
      "latitude" : "24.17842",
      "inDis" : "50",
      "routeId" : "20",
      "seqNo" : "23"
   },
   {
      "GoBack" : "2",
      "longitude" : "120.73995",
      "outDis" : "50",
      "Id" : "0350",
      "oid" : "3CEADF23F2594F4CBAECED8EC0E5FA6C",
      "districtId" : "1",
      "nameZh" : "大坑圓環",
      "pgp" : "0",
      "terminal" : "0",
      "latitude" : "24.17893",
      "inDis" : "50",
      "routeId" : "20",
      "seqNo" : "24"
   },
   {
      "GoBack" : "2",
      "longitude" : "120.73955",
      "outDis" : "50",
      "Id" : "0351",
      "oid" : "0EE2B6EC7E77411E87C11344E6B44429",
      "districtId" : "1",
      "nameZh" : "大坑橋",
      "pgp" : "0",
      "terminal" : "0",
      "latitude" : "24.17779",
      "inDis" : "50",
      "routeId" : "20",
      "seqNo" : "25"
   },
   {
      "GoBack" : "2",
      "longitude" : "120.73798",
      "outDis" : "50",
      "Id" : "0917",
      "oid" : "E536DD9C92F2490A8B1D506E3C2CB897",
      "districtId" : "1",
      "nameZh" : "樂達利山莊",
      "pgp" : "0",
      "terminal" : "0",
      "latitude" : "24.17629",
      "inDis" : "50",
      "routeId" : "20",
      "seqNo" : "26"
   },
   {
      "GoBack" : "2",
      "longitude" : "120.73541",
      "outDis" : "50",
      "Id" : "1429",
      "oid" : "E9B7E5C4E52B4265A86B5747813E4FD9",
      "districtId" : "1",
      "nameZh" : "中臺科技大學",
      "pgp" : "0",
      "terminal" : "0",
      "latitude" : "24.17496",
      "inDis" : "50",
      "routeId" : "20",
      "seqNo" : "27"
   },
   {
      "GoBack" : "2",
      "longitude" : "120.73403",
      "outDis" : "50",
      "Id" : "0682",
      "oid" : "B2D3D5C3D75D4480B513FFADA3579898",
      "districtId" : "1",
      "nameZh" : "花園新城",
      "pgp" : "0",
      "terminal" : "0",
      "latitude" : "24.17229",
      "inDis" : "50",
      "routeId" : "20",
      "seqNo" : "28"
   },
   {
      "GoBack" : "2",
      "longitude" : "120.73342",
      "outDis" : "50",
      "Id" : "0755",
      "oid" : "1D259DEC29734047B8A5C55302D48CD5",
      "districtId" : "1",
      "nameZh" : "國際青年之家",
      "pgp" : "0",
      "terminal" : "0",
      "latitude" : "24.17027",
      "inDis" : "50",
      "routeId" : "20",
      "seqNo" : "29"
   },
   {
      "GoBack" : "2",
      "longitude" : "120.73331",
      "outDis" : "50",
      "Id" : "4154",
      "oid" : "311451525",
      "districtId" : "1",
      "nameZh" : "部子景賢路口",
      "pgp" : "0",
      "terminal" : "0",
      "latitude" : "24.16719",
      "inDis" : "50",
      "routeId" : "20",
      "seqNo" : "30"
   },
   {
      "GoBack" : "2",
      "longitude" : "120.73325",
      "outDis" : "50",
      "Id" : "3079",
      "oid" : "41AE2374FAC044CDB39D4936D47A2839",
      "districtId" : "1",
      "nameZh" : "部子巷口",
      "pgp" : "0",
      "terminal" : "0",
      "latitude" : "24.16632",
      "inDis" : "50",
      "routeId" : "20",
      "seqNo" : "31"
   },
   {
      "GoBack" : "2",
      "longitude" : "120.73324",
      "outDis" : "50",
      "Id" : "5035",
      "oid" : "44530F8B31FE49A5944E4C349CBEA170",
      "districtId" : "1",
      "nameZh" : "部子太原路口",
      "pgp" : "0",
      "terminal" : "0",
      "latitude" : "24.16199",
      "inDis" : "50",
      "routeId" : "20",
      "seqNo" : "32"
   },
   {
      "GoBack" : "2",
      "longitude" : "120.72625",
      "outDis" : "50",
      "Id" : "0471",
      "oid" : "F0952EFB3EDD4751A8375B18DFF15F66",
      "districtId" : "1",
      "nameZh" : "太原六號橋",
      "pgp" : "0",
      "terminal" : "0",
      "latitude" : "24.16148",
      "inDis" : "50",
      "routeId" : "20",
      "seqNo" : "33"
   },
   {
      "GoBack" : "2",
      "longitude" : "120.72214",
      "outDis" : "50",
      "Id" : "0809",
      "oid" : "89AA205D60BF42619A102A7A02856432",
      "districtId" : "1",
      "nameZh" : "弘光復健醫院",
      "pgp" : "0",
      "terminal" : "0",
      "latitude" : "24.16256",
      "inDis" : "50",
      "routeId" : "20",
      "seqNo" : "34"
   },
   {
      "GoBack" : "2",
      "longitude" : "120.71666",
      "outDis" : "50",
      "Id" : "1430",
      "oid" : "DB0D400E06234880AE66944D9FBA2038",
      "districtId" : "1",
      "nameZh" : "中台駕訓班",
      "pgp" : "0",
      "terminal" : "0",
      "latitude" : "24.16391",
      "inDis" : "50",
      "routeId" : "20",
      "seqNo" : "35"
   },
   {
      "GoBack" : "2",
      "longitude" : "120.71438",
      "outDis" : "50",
      "Id" : "5175",
      "oid" : "FF542005475A4E7795528754CD248CBD",
      "districtId" : "1",
      "nameZh" : "太原軍功路口",
      "pgp" : "0",
      "terminal" : "0",
      "latitude" : "24.16443",
      "inDis" : "50",
      "routeId" : "20",
      "seqNo" : "36"
   },
   {
      "GoBack" : "2",
      "longitude" : "120.71275",
      "outDis" : "50",
      "Id" : "5113",
      "oid" : "307455177",
      "districtId" : "1",
      "nameZh" : "東山高中(太原路)",
      "pgp" : "0",
      "terminal" : "0",
      "latitude" : "24.16436",
      "inDis" : "50",
      "routeId" : "20",
      "seqNo" : "37"
   },
   {
      "GoBack" : "2",
      "longitude" : "120.7065",
      "outDis" : "50",
      "Id" : "0470",
      "oid" : "9D2A821E00694C07B70EF16E68D4DC9A",
      "districtId" : "1",
      "nameZh" : "太原二號橋",
      "pgp" : "0",
      "terminal" : "0",
      "latitude" : "24.1649",
      "inDis" : "50",
      "routeId" : "20",
      "seqNo" : "38"
   },
   {
      "GoBack" : "2",
      "longitude" : "120.70278",
      "outDis" : "50",
      "Id" : "0218",
      "oid" : "5A03D8724D0C49A9AA02CEEEED27D768",
      "districtId" : "1",
      "nameZh" : "三川福德祠",
      "pgp" : "0",
      "terminal" : "0",
      "latitude" : "24.16499",
      "inDis" : "50",
      "routeId" : "20",
      "seqNo" : "39"
   },
   {
      "GoBack" : "2",
      "longitude" : "120.70014",
      "outDis" : "50",
      "Id" : "4351",
      "oid" : "18C04887C5B74A51A243782EB484FB32",
      "districtId" : "1",
      "nameZh" : "太原火車站",
      "pgp" : "0",
      "terminal" : "0",
      "latitude" : "24.16641",
      "inDis" : "50",
      "routeId" : "20",
      "seqNo" : "40"
   },
   {
      "GoBack" : "2",
      "longitude" : "120.69949",
      "outDis" : "50",
      "Id" : "5115",
      "oid" : "721B0961B7E44F21ADFAB5CF78799B0E",
      "districtId" : "1",
      "nameZh" : "東光天祥街口",
      "pgp" : "0",
      "terminal" : "0",
      "latitude" : "24.15999",
      "inDis" : "50",
      "routeId" : "20",
      "seqNo" : "41"
   },
   {
      "GoBack" : "2",
      "longitude" : "120.69922",
      "outDis" : "50",
      "Id" : "2399",
      "oid" : "30A4C28002384F11AB3474479EDC7019",
      "districtId" : "1",
      "nameZh" : "東光六街口",
      "pgp" : "0",
      "terminal" : "0",
      "latitude" : "24.15805",
      "inDis" : "50",
      "routeId" : "20",
      "seqNo" : "42"
   },
   {
      "GoBack" : "2",
      "longitude" : "120.69894",
      "outDis" : "50",
      "Id" : "2165",
      "oid" : "319CDB8E84B8463EA7E9B650A195D695",
      "districtId" : "1",
      "nameZh" : "肉品市場",
      "pgp" : "0",
      "terminal" : "0",
      "latitude" : "24.15596",
      "inDis" : "50",
      "routeId" : "20",
      "seqNo" : "43"
   },
   {
      "GoBack" : "2",
      "longitude" : "120.69858",
      "outDis" : "50",
      "Id" : "2398",
      "oid" : "0FE2057328184BD3940803EAE09CE3EC",
      "districtId" : "1",
      "nameZh" : "東光三街口",
      "pgp" : "0",
      "terminal" : "0",
      "latitude" : "24.15342",
      "inDis" : "50",
      "routeId" : "20",
      "seqNo" : "44"
   },
   {
      "GoBack" : "2",
      "longitude" : "120.69826",
      "outDis" : "50",
      "Id" : "5114",
      "oid" : "7FE9C013C48149209A08A9A6E1BA5235",
      "districtId" : "1",
      "nameZh" : "東光力行路口",
      "pgp" : "0",
      "terminal" : "0",
      "latitude" : "24.15104",
      "inDis" : "50",
      "routeId" : "20",
      "seqNo" : "45"
   },
   {
      "GoBack" : "2",
      "longitude" : "120.69765",
      "outDis" : "50",
      "Id" : "5116",
      "oid" : "E92388776AC149B8BD60A175EC30E66F",
      "districtId" : "1",
      "nameZh" : "東光精武路口",
      "pgp" : "0",
      "terminal" : "0",
      "latitude" : "24.14655",
      "inDis" : "50",
      "routeId" : "20",
      "seqNo" : "46"
   },
   {
      "GoBack" : "2",
      "longitude" : "120.69734",
      "outDis" : "50",
      "Id" : "5180",
      "oid" : "A35825169E44400881780F25F28AAA00",
      "districtId" : "1",
      "nameZh" : "東光十甲路口",
      "pgp" : "0",
      "terminal" : "0",
      "latitude" : "24.14434",
      "inDis" : "50",
      "routeId" : "20",
      "seqNo" : "47"
   },
   {
      "GoBack" : "2",
      "longitude" : "120.69662",
      "outDis" : "50",
      "Id" : "5176",
      "oid" : "60D597AD609841059D07DEBFD65C272B",
      "districtId" : "1",
      "nameZh" : "東光旱溪街口",
      "pgp" : "0",
      "terminal" : "0",
      "latitude" : "24.14077",
      "inDis" : "50",
      "routeId" : "20",
      "seqNo" : "48"
   },
   {
      "GoBack" : "2",
      "longitude" : "120.69653",
      "outDis" : "50",
      "Id" : "4562",
      "oid" : "1B9BE8943DC042589F8279ADC8DAF813",
      "districtId" : "1",
      "nameZh" : "建成樂業路口",
      "pgp" : "0",
      "terminal" : "0",
      "latitude" : "24.13815",
      "inDis" : "50",
      "routeId" : "20",
      "seqNo" : "49"
   },
   {
      "GoBack" : "2",
      "longitude" : "120.69581",
      "outDis" : "50",
      "Id" : "2402",
      "oid" : "FF134C1481684BFAA0AECE243FCD97FF",
      "districtId" : "1",
      "nameZh" : "建成東光園路口",
      "pgp" : "0",
      "terminal" : "0",
      "latitude" : "24.13467",
      "inDis" : "50",
      "routeId" : "20",
      "seqNo" : "50"
   },
   {
      "GoBack" : "2",
      "longitude" : "120.69395",
      "outDis" : "50",
      "Id" : "0188",
      "oid" : "8F12EF0AEF1449C0BE9BC8005503951C",
      "districtId" : "1",
      "nameZh" : "大東紡織(建成路)",
      "pgp" : "0",
      "terminal" : "0",
      "latitude" : "24.13336",
      "inDis" : "50",
      "routeId" : "20",
      "seqNo" : "51"
   },
   {
      "GoBack" : "2",
      "longitude" : "120.69236",
      "outDis" : "50",
      "Id" : "4362",
      "oid" : "7F81F90587F746BDB26FC081ADE47B47",
      "districtId" : "1",
      "nameZh" : "建成大振街口",
      "pgp" : "0",
      "terminal" : "0",
      "latitude" : "24.13268",
      "inDis" : "50",
      "routeId" : "20",
      "seqNo" : "52"
   },
   {
      "GoBack" : "2",
      "longitude" : "120.68979",
      "outDis" : "50",
      "Id" : "4655",
      "oid" : "5C9C24A4064E4D708A3C756E14E1BEA5",
      "districtId" : "1",
      "nameZh" : "建成大智路口",
      "pgp" : "0",
      "terminal" : "0",
      "latitude" : "24.13158",
      "inDis" : "50",
      "routeId" : "20",
      "seqNo" : "53"
   },
   {
      "GoBack" : "2",
      "longitude" : "120.68803",
      "outDis" : "50",
      "Id" : "2029",
      "oid" : "4A8F483087624D14A1C865EF0BC14535",
      "districtId" : "1",
      "nameZh" : "建成立德街口",
      "pgp" : "0",
      "terminal" : "0",
      "latitude" : "24.13078",
      "inDis" : "50",
      "routeId" : "20",
      "seqNo" : "54"
   },
   {
      "GoBack" : "2",
      "longitude" : "120.6862",
      "outDis" : "50",
      "Id" : "5647",
      "oid" : "12689",
      "districtId" : "1",
      "nameZh" : "興大附農(建成路)",
      "pgp" : "0",
      "terminal" : "0",
      "latitude" : "24.12991",
      "inDis" : "50",
      "routeId" : "20",
      "seqNo" : "55"
   },
   {
      "GoBack" : "2",
      "longitude" : "120.6851",
      "outDis" : "50",
      "Id" : "0257",
      "oid" : "A01E727DB823459BBD9A7DBB427E9A21",
      "districtId" : "1",
      "nameZh" : "臺中國小",
      "pgp" : "0",
      "terminal" : "0",
      "latitude" : "24.13037",
      "inDis" : "50",
      "routeId" : "20",
      "seqNo" : "56"
   },
   {
      "GoBack" : "2",
      "longitude" : "120.68385",
      "outDis" : "50",
      "Id" : "0049",
      "oid" : "4B8209EF9A1047CA857B5FC23076DD41",
      "districtId" : "1",
      "nameZh" : "第三市場(臺中家商)",
      "pgp" : "0",
      "terminal" : "0",
      "latitude" : "24.13276",
      "inDis" : "50",
      "routeId" : "20",
      "seqNo" : "57"
   },
   {
      "GoBack" : "2",
      "longitude" : "120.68465",
      "outDis" : "50",
      "Id" : "1824",
      "oid" : "519284AA614D49F0908B5FFB2CF7169D",
      "districtId" : "1",
      "nameZh" : "臺中火車站",
      "pgp" : "0",
      "terminal" : "0",
      "latitude" : "24.13729",
      "inDis" : "50",
      "routeId" : "20",
      "seqNo" : "58"
   }
]
