[
   {
      "GoBack" : "1",
      "longitude" : "120.63921",
      "outDis" : "50",
      "Id" : "2161",
      "oid" : "4C03451AA49A4FBEA3A63B800DA6535C",
      "districtId" : "1",
      "nameZh" : "老虎城",
      "pgp" : "0",
      "terminal" : "0",
      "latitude" : "24.16527",
      "inDis" : "50",
      "routeId" : "49",
      "seqNo" : "1"
   },
   {
      "GoBack" : "1",
      "longitude" : "120.63806",
      "outDis" : "50",
      "Id" : "3059",
      "oid" : "79A938593E784303A0C01B7F06874293",
      "districtId" : "1",
      "nameZh" : "朝馬轉運站(朝富路)",
      "pgp" : "0",
      "terminal" : "0",
      "latitude" : "24.16743",
      "inDis" : "50",
      "routeId" : "49",
      "seqNo" : "3"
   },
   {
      "GoBack" : "1",
      "longitude" : "120.6353",
      "outDis" : "50",
      "Id" : "4642",
      "oid" : "A4A41F83E5A5474D86125F3D12593B71",
      "districtId" : "1",
      "nameZh" : "朝馬黎明路口",
      "pgp" : "0",
      "terminal" : "0",
      "latitude" : "24.16952",
      "inDis" : "50",
      "routeId" : "49",
      "seqNo" : "4"
   },
   {
      "GoBack" : "1",
      "longitude" : "120.63312",
      "outDis" : "50",
      "Id" : "4648",
      "oid" : "FEBAA532442846889FA0DB15758845C7",
      "districtId" : "1",
      "nameZh" : "朝馬環中路口",
      "pgp" : "0",
      "terminal" : "0",
      "latitude" : "24.17008",
      "inDis" : "50",
      "routeId" : "49",
      "seqNo" : "5"
   },
   {
      "GoBack" : "1",
      "longitude" : "120.62252",
      "outDis" : "50",
      "Id" : "5106",
      "oid" : "CFF2B1C135AB4FC8A4DB332DCEB1C42D",
      "districtId" : "1",
      "nameZh" : "安和朝馬路口",
      "pgp" : "0",
      "terminal" : "0",
      "latitude" : "24.17466",
      "inDis" : "50",
      "routeId" : "49",
      "seqNo" : "7"
   },
   {
      "GoBack" : "1",
      "longitude" : "120.62353",
      "outDis" : "50",
      "Id" : "0285",
      "oid" : "319311016",
      "districtId" : "1",
      "nameZh" : "安和福玄路口",
      "pgp" : "0",
      "terminal" : "0",
      "latitude" : "24.1767",
      "inDis" : "50",
      "routeId" : "49",
      "seqNo" : "8"
   },
   {
      "GoBack" : "1",
      "longitude" : "120.62485",
      "outDis" : "50",
      "Id" : "5149",
      "oid" : "12822",
      "districtId" : "1",
      "nameZh" : "福安里(臺灣大道)",
      "pgp" : "0",
      "terminal" : "0",
      "latitude" : "24.17849",
      "inDis" : "50",
      "routeId" : "49",
      "seqNo" : "9"
   },
   {
      "GoBack" : "1",
      "longitude" : "120.62115",
      "outDis" : "50",
      "Id" : "3060",
      "oid" : "5895E8E9A1724775B8C9B2DAAE89E467",
      "districtId" : "1",
      "nameZh" : "統聯轉運站",
      "pgp" : "0",
      "terminal" : "0",
      "latitude" : "24.18027",
      "inDis" : "50",
      "routeId" : "49",
      "seqNo" : "10"
   },
   {
      "GoBack" : "1",
      "longitude" : "120.61973",
      "outDis" : "50",
      "Id" : "0008",
      "oid" : "BE81766516684826A52A06D04BA5DB15",
      "districtId" : "1",
      "nameZh" : "中港新城",
      "pgp" : "0",
      "terminal" : "0",
      "latitude" : "24.18096",
      "inDis" : "50",
      "routeId" : "49",
      "seqNo" : "11"
   },
   {
      "GoBack" : "1",
      "longitude" : "120.61599",
      "outDis" : "50",
      "Id" : "0430",
      "oid" : "E6CD05B258B7439F8899AB1D01C0620E",
      "districtId" : "1",
      "nameZh" : "中港澄清醫院",
      "pgp" : "0",
      "terminal" : "0",
      "latitude" : "24.18287",
      "inDis" : "50",
      "routeId" : "49",
      "seqNo" : "12"
   },
   {
      "GoBack" : "1",
      "longitude" : "120.61478",
      "outDis" : "50",
      "Id" : "0507",
      "oid" : "408D89C31130404FB7ECE67BBA298BA6",
      "districtId" : "1",
      "nameZh" : "臺中世貿中心",
      "pgp" : "0",
      "terminal" : "0",
      "latitude" : "24.18002",
      "inDis" : "50",
      "routeId" : "49",
      "seqNo" : "13"
   },
   {
      "GoBack" : "1",
      "longitude" : "120.61414",
      "outDis" : "50",
      "Id" : "0605",
      "oid" : "970B36C0EEC64389B36E6FD9CFE5B425",
      "districtId" : "1",
      "nameZh" : "安和國中",
      "pgp" : "0",
      "terminal" : "0",
      "latitude" : "24.17538",
      "inDis" : "50",
      "routeId" : "49",
      "seqNo" : "14"
   },
   {
      "GoBack" : "1",
      "longitude" : "120.61029",
      "outDis" : "50",
      "Id" : "5651",
      "oid" : "CD57AC6DDE414AD39D932A306D8A13AA",
      "districtId" : "1",
      "nameZh" : "發展署中彰投分署",
      "pgp" : "0",
      "terminal" : "0",
      "latitude" : "24.17043",
      "inDis" : "50",
      "routeId" : "49",
      "seqNo" : "15"
   },
   {
      "GoBack" : "1",
      "longitude" : "120.60804",
      "outDis" : "50",
      "Id" : "0396",
      "oid" : "1EAC59A7DB404E3F9CACCDDB5EBA5BF0",
      "districtId" : "1",
      "nameZh" : "工業區服務中心",
      "pgp" : "0",
      "terminal" : "0",
      "latitude" : "24.16944",
      "inDis" : "50",
      "routeId" : "49",
      "seqNo" : "16"
   },
   {
      "GoBack" : "1",
      "longitude" : "120.6033",
      "outDis" : "50",
      "Id" : "3898",
      "oid" : "EC9E532A018040EBB17EFDD0F897F9D8",
      "districtId" : "1",
      "nameZh" : "聯強國際",
      "pgp" : "0",
      "terminal" : "0",
      "latitude" : "24.15967",
      "inDis" : "50",
      "routeId" : "49",
      "seqNo" : "17"
   },
   {
      "GoBack" : "1",
      "longitude" : "120.60507",
      "outDis" : "50",
      "Id" : "0536",
      "oid" : "000F105067514A8F93B1CE3B3729CF4F",
      "districtId" : "1",
      "nameZh" : "臺灣油壓",
      "pgp" : "0",
      "terminal" : "0",
      "latitude" : "24.17194",
      "inDis" : "50",
      "routeId" : "49",
      "seqNo" : "18"
   },
   {
      "GoBack" : "1",
      "longitude" : "120.60367",
      "outDis" : "50",
      "Id" : "0872",
      "oid" : "774BD6A5291047CE8C5FE80F9D51E233",
      "districtId" : "1",
      "nameZh" : "裕力公司",
      "pgp" : "0",
      "terminal" : "0",
      "latitude" : "24.17499",
      "inDis" : "50",
      "routeId" : "49",
      "seqNo" : "19"
   },
   {
      "GoBack" : "1",
      "longitude" : "120.60164",
      "outDis" : "50",
      "Id" : "4021",
      "oid" : "D9AC9B2B7685483194D172E82163FA36",
      "districtId" : "1",
      "nameZh" : "大新公司",
      "pgp" : "0",
      "terminal" : "0",
      "latitude" : "24.17485",
      "inDis" : "50",
      "routeId" : "49",
      "seqNo" : "20"
   },
   {
      "GoBack" : "1",
      "longitude" : "120.59914",
      "outDis" : "50",
      "Id" : "0554",
      "oid" : "3F152FDE2DC74677AF246AF2258E785C",
      "districtId" : "1",
      "nameZh" : "弘達公司",
      "pgp" : "0",
      "terminal" : "0",
      "latitude" : "24.17369",
      "inDis" : "50",
      "routeId" : "49",
      "seqNo" : "21"
   },
   {
      "GoBack" : "1",
      "longitude" : "120.59461",
      "outDis" : "50",
      "Id" : "0391",
      "oid" : "4FA64F59E57D449490E065473A7D54F1",
      "districtId" : "1",
      "nameZh" : "工業十四路口",
      "pgp" : "0",
      "terminal" : "0",
      "latitude" : "24.17581",
      "inDis" : "50",
      "routeId" : "49",
      "seqNo" : "22"
   },
   {
      "GoBack" : "1",
      "longitude" : "120.59369",
      "outDis" : "50",
      "Id" : "0392",
      "oid" : "80F3CF9C1BEA4ADCB52211A39E1EC349",
      "districtId" : "1",
      "nameZh" : "工業十六路口",
      "pgp" : "0",
      "terminal" : "0",
      "latitude" : "24.17968",
      "inDis" : "50",
      "routeId" : "49",
      "seqNo" : "23"
   },
   {
      "GoBack" : "1",
      "longitude" : "120.59146",
      "outDis" : "50",
      "Id" : "2333",
      "oid" : "2B988886060F4D5DA4CFC5765C2E0620",
      "districtId" : "1",
      "nameZh" : "尚銘公司",
      "pgp" : "0",
      "terminal" : "0",
      "latitude" : "24.17686",
      "inDis" : "50",
      "routeId" : "49",
      "seqNo" : "24"
   },
   {
      "GoBack" : "1",
      "longitude" : "120.58915",
      "outDis" : "50",
      "Id" : "0425",
      "oid" : "4A774A58B5A14188B0F9DCE3CF7AEA92",
      "districtId" : "1",
      "nameZh" : "中國生產力公司",
      "pgp" : "0",
      "terminal" : "1",
      "latitude" : "24.17546",
      "inDis" : "50",
      "routeId" : "49",
      "seqNo" : "25"
   },
   {
      "GoBack" : "2",
      "longitude" : "120.58915",
      "outDis" : "50",
      "Id" : "0425",
      "oid" : "4A774A58B5A14188B0F9DCE3CF7AEA92",
      "districtId" : "1",
      "nameZh" : "中國生產力公司",
      "pgp" : "0",
      "terminal" : "0",
      "latitude" : "24.17546",
      "inDis" : "50",
      "routeId" : "49",
      "seqNo" : "1"
   },
   {
      "GoBack" : "2",
      "longitude" : "120.59086",
      "outDis" : "50",
      "Id" : "0594",
      "oid" : "D3DEFDC5BF504AB794274E8314E302DF",
      "districtId" : "1",
      "nameZh" : "匠澤公司",
      "pgp" : "0",
      "terminal" : "0",
      "latitude" : "24.17034",
      "inDis" : "50",
      "routeId" : "49",
      "seqNo" : "2"
   },
   {
      "GoBack" : "2",
      "longitude" : "120.59782",
      "outDis" : "50",
      "Id" : "5663",
      "oid" : "B74DA808FB864F0490677A6F78CA8701",
      "districtId" : "1",
      "nameZh" : "臺中酒廠(工業二十八路)",
      "pgp" : "0",
      "terminal" : "0",
      "latitude" : "24.16444",
      "inDis" : "50",
      "routeId" : "49",
      "seqNo" : "3"
   },
   {
      "GoBack" : "2",
      "longitude" : "120.59988",
      "outDis" : "50",
      "Id" : "0947",
      "oid" : "0B91C25F70DA43EB8347BA87684D26E5",
      "districtId" : "1",
      "nameZh" : "環隆科技",
      "pgp" : "0",
      "terminal" : "0",
      "latitude" : "24.16299",
      "inDis" : "50",
      "routeId" : "49",
      "seqNo" : "4"
   },
   {
      "GoBack" : "2",
      "longitude" : "120.60186",
      "outDis" : "50",
      "Id" : "5266",
      "oid" : "8A991358FE3841198C4AFA9C1C0A0770",
      "districtId" : "1",
      "nameZh" : "臺灣薄膜",
      "pgp" : "0",
      "terminal" : "0",
      "latitude" : "24.15995",
      "inDis" : "50",
      "routeId" : "49",
      "seqNo" : "5"
   },
   {
      "GoBack" : "2",
      "longitude" : "120.6033",
      "outDis" : "50",
      "Id" : "3898",
      "oid" : "EC9E532A018040EBB17EFDD0F897F9D8",
      "districtId" : "1",
      "nameZh" : "聯強國際",
      "pgp" : "0",
      "terminal" : "0",
      "latitude" : "24.15967",
      "inDis" : "50",
      "routeId" : "49",
      "seqNo" : "6"
   },
   {
      "GoBack" : "2",
      "longitude" : "120.60555",
      "outDis" : "50",
      "Id" : "5531",
      "oid" : "F9D0C595D31C4AC7A815D20CAF17B3FC",
      "districtId" : "1",
      "nameZh" : "五權西工業23路口",
      "pgp" : "0",
      "terminal" : "0",
      "latitude" : "24.16138",
      "inDis" : "50",
      "routeId" : "49",
      "seqNo" : "7"
   },
   {
      "GoBack" : "2",
      "longitude" : "120.6085",
      "outDis" : "50",
      "Id" : "0396",
      "oid" : "6FC150CFA58A42DD94B41BCE2D94F243",
      "districtId" : "1",
      "nameZh" : "工業區服務中心",
      "pgp" : "0",
      "terminal" : "0",
      "latitude" : "24.16907",
      "inDis" : "50",
      "routeId" : "49",
      "seqNo" : "8"
   },
   {
      "GoBack" : "2",
      "longitude" : "120.61035",
      "outDis" : "50",
      "Id" : "5651",
      "oid" : "75BE9A5D28D7414FA6E19A1B492F2F55",
      "districtId" : "1",
      "nameZh" : "發展署中彰投分署",
      "pgp" : "0",
      "terminal" : "0",
      "latitude" : "24.17031",
      "inDis" : "50",
      "routeId" : "49",
      "seqNo" : "9"
   },
   {
      "GoBack" : "2",
      "longitude" : "120.61416",
      "outDis" : "50",
      "Id" : "0605",
      "oid" : "E7124CAAB0684F2EA3F2431EEF843306",
      "districtId" : "1",
      "nameZh" : "安和國中",
      "pgp" : "0",
      "terminal" : "0",
      "latitude" : "24.17544",
      "inDis" : "50",
      "routeId" : "49",
      "seqNo" : "10"
   },
   {
      "GoBack" : "2",
      "longitude" : "120.61487",
      "outDis" : "50",
      "Id" : "0507",
      "oid" : "85E56A14762C466599F7ECB233EEEF9B",
      "districtId" : "1",
      "nameZh" : "臺中世貿中心",
      "pgp" : "0",
      "terminal" : "0",
      "latitude" : "24.18016",
      "inDis" : "50",
      "routeId" : "49",
      "seqNo" : "11"
   },
   {
      "GoBack" : "2",
      "longitude" : "120.61576",
      "outDis" : "50",
      "Id" : "0430",
      "oid" : "E7BAE6A5CD024CC195C52481D0D83117",
      "districtId" : "1",
      "nameZh" : "中港澄清醫院",
      "pgp" : "0",
      "terminal" : "0",
      "latitude" : "24.18271",
      "inDis" : "50",
      "routeId" : "49",
      "seqNo" : "12"
   },
   {
      "GoBack" : "2",
      "longitude" : "120.6183",
      "outDis" : "50",
      "Id" : "0008",
      "oid" : "320062561",
      "districtId" : "1",
      "nameZh" : "中港新城",
      "pgp" : "0",
      "terminal" : "0",
      "latitude" : "24.18145",
      "inDis" : "50",
      "routeId" : "49",
      "seqNo" : "13"
   },
   {
      "GoBack" : "2",
      "longitude" : "120.62232",
      "outDis" : "50",
      "Id" : "3060",
      "oid" : "04CD0ACF4D084074A490CB8D9F5C27B4",
      "districtId" : "1",
      "nameZh" : "統聯轉運站",
      "pgp" : "0",
      "terminal" : "0",
      "latitude" : "24.17983",
      "inDis" : "50",
      "routeId" : "49",
      "seqNo" : "14"
   },
   {
      "GoBack" : "2",
      "longitude" : "120.62374",
      "outDis" : "50",
      "Id" : "5149",
      "oid" : "319908747",
      "districtId" : "1",
      "nameZh" : "福安里(臺灣大道)",
      "pgp" : "0",
      "terminal" : "0",
      "latitude" : "24.1787",
      "inDis" : "50",
      "routeId" : "49",
      "seqNo" : "15"
   },
   {
      "GoBack" : "2",
      "longitude" : "120.623",
      "outDis" : "50",
      "Id" : "0285",
      "oid" : "319311017",
      "districtId" : "1",
      "nameZh" : "安和福玄路口",
      "pgp" : "0",
      "terminal" : "0",
      "latitude" : "24.1768",
      "inDis" : "50",
      "routeId" : "49",
      "seqNo" : "16"
   },
   {
      "GoBack" : "2",
      "longitude" : "120.62243",
      "outDis" : "50",
      "Id" : "5106",
      "oid" : "F7DDB5F0EE6348F4B255E082575BC2F8",
      "districtId" : "1",
      "nameZh" : "安和朝馬路口",
      "pgp" : "0",
      "terminal" : "0",
      "latitude" : "24.1748",
      "inDis" : "50",
      "routeId" : "49",
      "seqNo" : "17"
   },
   {
      "GoBack" : "2",
      "longitude" : "120.63201",
      "outDis" : "50",
      "Id" : "4648",
      "oid" : "1326DE5530084B19A185FC4791E1E14E",
      "districtId" : "1",
      "nameZh" : "朝馬環中路口",
      "pgp" : "0",
      "terminal" : "0",
      "latitude" : "24.17035",
      "inDis" : "50",
      "routeId" : "49",
      "seqNo" : "19"
   },
   {
      "GoBack" : "2",
      "longitude" : "120.63523",
      "outDis" : "50",
      "Id" : "4642",
      "oid" : "195251E612404519A2429D988EEE2375",
      "districtId" : "1",
      "nameZh" : "朝馬黎明路口",
      "pgp" : "0",
      "terminal" : "0",
      "latitude" : "24.16944",
      "inDis" : "50",
      "routeId" : "49",
      "seqNo" : "20"
   },
   {
      "GoBack" : "2",
      "longitude" : "120.63804",
      "outDis" : "50",
      "Id" : "3059",
      "oid" : "30670191484F4700825D064225592A96",
      "districtId" : "1",
      "nameZh" : "朝馬轉運站(朝富路)",
      "pgp" : "0",
      "terminal" : "0",
      "latitude" : "24.16725",
      "inDis" : "50",
      "routeId" : "49",
      "seqNo" : "21"
   },
   {
      "GoBack" : "2",
      "longitude" : "120.63921",
      "outDis" : "50",
      "Id" : "2161",
      "oid" : "4C03451AA49A4FBEA3A63B800DA6535C",
      "districtId" : "1",
      "nameZh" : "老虎城",
      "pgp" : "0",
      "terminal" : "0",
      "latitude" : "24.16527",
      "inDis" : "50",
      "routeId" : "49",
      "seqNo" : "22"
   }
]
