[
   {
      "GoBack" : "1",
      "longitude" : "120.60064",
      "outDis" : "50",
      "Id" : "5796",
      "oid" : "93E65386A122453FB33B7F8BABB7015F",
      "districtId" : "1",
      "nameZh" : "仁友停車場",
      "pgp" : "0",
      "terminal" : "0",
      "latitude" : "24.13934",
      "inDis" : "50",
      "routeId" : "89",
      "seqNo" : "1"
   },
   {
      "GoBack" : "1",
      "longitude" : "120.60906",
      "outDis" : "50",
      "Id" : "5162",
      "oid" : "7037CAB7B7BE4FD0935AAA5FE382937A",
      "districtId" : "1",
      "nameZh" : "嶺東科技大學(永春南路)",
      "pgp" : "0",
      "terminal" : "0",
      "latitude" : "24.13851",
      "inDis" : "50",
      "routeId" : "89",
      "seqNo" : "2"
   },
   {
      "GoBack" : "1",
      "longitude" : "120.61125",
      "outDis" : "50",
      "Id" : "3874",
      "oid" : "D8CF3423AF014C05B99B8FF898F32284",
      "districtId" : "1",
      "nameZh" : "嶺東高中",
      "pgp" : "0",
      "terminal" : "0",
      "latitude" : "24.13845",
      "inDis" : "50",
      "routeId" : "89",
      "seqNo" : "3"
   },
   {
      "GoBack" : "1",
      "longitude" : "120.61287",
      "outDis" : "50",
      "Id" : "4599",
      "oid" : "5F65E406123E4647A5674D01E93E5A06",
      "districtId" : "1",
      "nameZh" : "春社里(忠勇路)",
      "pgp" : "0",
      "terminal" : "0",
      "latitude" : "24.13912",
      "inDis" : "50",
      "routeId" : "89",
      "seqNo" : "4"
   },
   {
      "GoBack" : "1",
      "longitude" : "120.61325",
      "outDis" : "50",
      "Id" : "0157",
      "oid" : "2A7028ADB54E46FA974D1C39AA76886E",
      "districtId" : "1",
      "nameZh" : "七星橋",
      "pgp" : "0",
      "terminal" : "0",
      "latitude" : "24.14056",
      "inDis" : "50",
      "routeId" : "89",
      "seqNo" : "5"
   },
   {
      "GoBack" : "1",
      "longitude" : "120.61373",
      "outDis" : "50",
      "Id" : "0158",
      "oid" : "139002827",
      "districtId" : "1",
      "nameZh" : "下文山",
      "pgp" : "0",
      "terminal" : "0",
      "latitude" : "24.14251",
      "inDis" : "50",
      "routeId" : "89",
      "seqNo" : "6"
   },
   {
      "GoBack" : "1",
      "longitude" : "120.61473",
      "outDis" : "50",
      "Id" : "0159",
      "oid" : "8B7E1216EDAB4225A53875CE28AD9D10",
      "districtId" : "1",
      "nameZh" : "一善堂",
      "pgp" : "0",
      "terminal" : "0",
      "latitude" : "24.14489",
      "inDis" : "50",
      "routeId" : "89",
      "seqNo" : "7"
   },
   {
      "GoBack" : "1",
      "longitude" : "120.61504",
      "outDis" : "50",
      "Id" : "0160",
      "oid" : "FA51CD1B20A74DD88BD6764E2C5D2A63",
      "districtId" : "1",
      "nameZh" : "文山里",
      "pgp" : "0",
      "terminal" : "0",
      "latitude" : "24.14617",
      "inDis" : "50",
      "routeId" : "89",
      "seqNo" : "8"
   },
   {
      "GoBack" : "1",
      "longitude" : "120.6156",
      "outDis" : "50",
      "Id" : "0165",
      "oid" : "7CFC43E343584124A6201DA976758821",
      "districtId" : "1",
      "nameZh" : "文山國小(忠勇路)",
      "pgp" : "0",
      "terminal" : "0",
      "latitude" : "24.14938",
      "inDis" : "50",
      "routeId" : "89",
      "seqNo" : "9"
   },
   {
      "GoBack" : "1",
      "longitude" : "120.61571",
      "outDis" : "50",
      "Id" : "5489",
      "oid" : "E4231C22C7144D4487704B93DD1F193B",
      "districtId" : "1",
      "nameZh" : "寶山里土地公",
      "pgp" : "0",
      "terminal" : "0",
      "latitude" : "24.15038",
      "inDis" : "50",
      "routeId" : "89",
      "seqNo" : "10"
   },
   {
      "GoBack" : "1",
      "longitude" : "120.61641",
      "outDis" : "50",
      "Id" : "5488",
      "oid" : "317203327",
      "districtId" : "1",
      "nameZh" : "忠勇寶山東二街口",
      "pgp" : "0",
      "terminal" : "0",
      "latitude" : "24.15269",
      "inDis" : "50",
      "routeId" : "89",
      "seqNo" : "11"
   },
   {
      "GoBack" : "1",
      "longitude" : "120.62602",
      "outDis" : "50",
      "Id" : "0164",
      "oid" : "2264856D925C4BEA96F496E39DAC4E21",
      "districtId" : "1",
      "nameZh" : "新生里(哈魚碼頭)",
      "pgp" : "0",
      "terminal" : "0",
      "latitude" : "24.14855",
      "inDis" : "50",
      "routeId" : "89",
      "seqNo" : "12"
   },
   {
      "GoBack" : "1",
      "longitude" : "120.63047",
      "outDis" : "50",
      "Id" : "5430",
      "oid" : "313359733",
      "districtId" : "1",
      "nameZh" : "中村加油站",
      "pgp" : "0",
      "terminal" : "0",
      "latitude" : "24.14677",
      "inDis" : "50",
      "routeId" : "89",
      "seqNo" : "13"
   },
   {
      "GoBack" : "1",
      "longitude" : "120.63341",
      "outDis" : "50",
      "Id" : "5606",
      "oid" : "138977089",
      "districtId" : "1",
      "nameZh" : "五權西永春東七路口",
      "pgp" : "0",
      "terminal" : "0",
      "latitude" : "24.1448",
      "inDis" : "50",
      "routeId" : "89",
      "seqNo" : "14"
   },
   {
      "GoBack" : "1",
      "longitude" : "120.63605",
      "outDis" : "50",
      "Id" : "5093",
      "oid" : "452D2507896247A795295B9A1D3DE375",
      "districtId" : "1",
      "nameZh" : "五權西三厝街口",
      "pgp" : "0",
      "terminal" : "0",
      "latitude" : "24.14307",
      "inDis" : "50",
      "routeId" : "89",
      "seqNo" : "15"
   },
   {
      "GoBack" : "1",
      "longitude" : "120.63719",
      "outDis" : "50",
      "Id" : "4245",
      "oid" : "8556D6AEA57C4A61AACD7E8E61D0DD35",
      "districtId" : "1",
      "nameZh" : "黎明五權西路口",
      "pgp" : "0",
      "terminal" : "0",
      "latitude" : "24.14405",
      "inDis" : "50",
      "routeId" : "89",
      "seqNo" : "16"
   },
   {
      "GoBack" : "1",
      "longitude" : "120.63797",
      "outDis" : "50",
      "Id" : "0168",
      "oid" : "EF06466011864E28A96D8CCE4FB65C26",
      "districtId" : "1",
      "nameZh" : "向上河南路口",
      "pgp" : "0",
      "terminal" : "0",
      "latitude" : "24.14708",
      "inDis" : "50",
      "routeId" : "89",
      "seqNo" : "17"
   },
   {
      "GoBack" : "1",
      "longitude" : "120.64109",
      "outDis" : "50",
      "Id" : "4601",
      "oid" : "CFE1A7BB9175420FAB28B97D0D5B9D24",
      "districtId" : "1",
      "nameZh" : "林新醫院(向上路)",
      "pgp" : "0",
      "terminal" : "0",
      "latitude" : "24.14687",
      "inDis" : "50",
      "routeId" : "89",
      "seqNo" : "18"
   },
   {
      "GoBack" : "1",
      "longitude" : "120.64344",
      "outDis" : "50",
      "Id" : "0170",
      "oid" : "7558F57B40844F41875C7F1DE25A5F60",
      "districtId" : "1",
      "nameZh" : "向上惠文路口",
      "pgp" : "0",
      "terminal" : "0",
      "latitude" : "24.14683",
      "inDis" : "50",
      "routeId" : "89",
      "seqNo" : "19"
   },
   {
      "GoBack" : "1",
      "longitude" : "120.64762",
      "outDis" : "50",
      "Id" : "0023",
      "oid" : "7DD4776735B7480FB96C053B0AC76F73",
      "districtId" : "1",
      "nameZh" : "文心森林公園(向上路)",
      "pgp" : "0",
      "terminal" : "0",
      "latitude" : "24.14676",
      "inDis" : "50",
      "routeId" : "89",
      "seqNo" : "20"
   },
   {
      "GoBack" : "1",
      "longitude" : "120.64923",
      "outDis" : "50",
      "Id" : "0139",
      "oid" : "2723DD83F7AC4BE7B69BEE6A62B39609",
      "districtId" : "1",
      "nameZh" : "向上大墩路口",
      "pgp" : "0",
      "terminal" : "0",
      "latitude" : "24.14679",
      "inDis" : "50",
      "routeId" : "89",
      "seqNo" : "21"
   },
   {
      "GoBack" : "1",
      "longitude" : "120.65268",
      "outDis" : "50",
      "Id" : "4554",
      "oid" : "55B9694275B04B4F84D143BA5A221F16",
      "districtId" : "1",
      "nameZh" : "向上東興路口",
      "pgp" : "0",
      "terminal" : "0",
      "latitude" : "24.14676",
      "inDis" : "50",
      "routeId" : "89",
      "seqNo" : "22"
   },
   {
      "GoBack" : "1",
      "longitude" : "120.65548",
      "outDis" : "50",
      "Id" : "4595",
      "oid" : "3235EC3DB3E44FB4953BAB4139CA5DCF",
      "districtId" : "1",
      "nameZh" : "向上精誠路口",
      "pgp" : "0",
      "terminal" : "0",
      "latitude" : "24.14671",
      "inDis" : "50",
      "routeId" : "89",
      "seqNo" : "23"
   },
   {
      "GoBack" : "1",
      "longitude" : "120.65827",
      "outDis" : "50",
      "Id" : "4540",
      "oid" : "5D57A4E78EC04431915063C533C71B13",
      "districtId" : "1",
      "nameZh" : "向上忠明南路口",
      "pgp" : "0",
      "terminal" : "0",
      "latitude" : "24.14671",
      "inDis" : "50",
      "routeId" : "89",
      "seqNo" : "24"
   },
   {
      "GoBack" : "1",
      "longitude" : "120.65988",
      "outDis" : "50",
      "Id" : "0171",
      "oid" : "7FDAF6A4F02949C38AEC431A558A38A4",
      "districtId" : "1",
      "nameZh" : "頂麻園",
      "pgp" : "0",
      "terminal" : "0",
      "latitude" : "24.14675",
      "inDis" : "50",
      "routeId" : "89",
      "seqNo" : "25"
   },
   {
      "GoBack" : "1",
      "longitude" : "120.66167",
      "outDis" : "50",
      "Id" : "5396",
      "oid" : "312960894",
      "districtId" : "1",
      "nameZh" : "美村向上路口",
      "pgp" : "0",
      "terminal" : "0",
      "latitude" : "24.14645",
      "inDis" : "50",
      "routeId" : "89",
      "seqNo" : "26"
   },
   {
      "GoBack" : "1",
      "longitude" : "120.66163",
      "outDis" : "50",
      "Id" : "0172",
      "oid" : "90DC8F859A2D45B6BB9CA32181C23433",
      "districtId" : "1",
      "nameZh" : "向上國中",
      "pgp" : "0",
      "terminal" : "0",
      "latitude" : "24.14389",
      "inDis" : "50",
      "routeId" : "89",
      "seqNo" : "27"
   },
   {
      "GoBack" : "1",
      "longitude" : "120.66289",
      "outDis" : "50",
      "Id" : "4556",
      "oid" : "0ED7B02D6BC245B7A22E0261029AFAED",
      "districtId" : "1",
      "nameZh" : "美術館(五權西路)",
      "pgp" : "0",
      "terminal" : "0",
      "latitude" : "24.14002",
      "inDis" : "50",
      "routeId" : "89",
      "seqNo" : "28"
   },
   {
      "GoBack" : "1",
      "longitude" : "120.66559",
      "outDis" : "50",
      "Id" : "0173",
      "oid" : "201439203D1342788C0ED4382BACB3A0",
      "districtId" : "1",
      "nameZh" : "五權五廊街口",
      "pgp" : "0",
      "terminal" : "0",
      "latitude" : "24.13848",
      "inDis" : "50",
      "routeId" : "89",
      "seqNo" : "29"
   },
   {
      "GoBack" : "1",
      "longitude" : "120.66558",
      "outDis" : "50",
      "Id" : "0174",
      "oid" : "2ABEDD94A93E411289630C5FF5F5C2EB",
      "districtId" : "1",
      "nameZh" : "五權公館路口",
      "pgp" : "0",
      "terminal" : "0",
      "latitude" : "24.13618",
      "inDis" : "50",
      "routeId" : "89",
      "seqNo" : "30"
   },
   {
      "GoBack" : "1",
      "longitude" : "120.66608",
      "outDis" : "50",
      "Id" : "4603",
      "oid" : "37ECFDEE02CC47A1AFC83BA99EA72543",
      "districtId" : "1",
      "nameZh" : "五權柳川西路口",
      "pgp" : "0",
      "terminal" : "0",
      "latitude" : "24.13423",
      "inDis" : "50",
      "routeId" : "89",
      "seqNo" : "31"
   },
   {
      "GoBack" : "1",
      "longitude" : "120.66657",
      "outDis" : "50",
      "Id" : "0176",
      "oid" : "0CF2FBF3276E420197B72D5129D754FE",
      "districtId" : "1",
      "nameZh" : "五權樂群街口",
      "pgp" : "0",
      "terminal" : "0",
      "latitude" : "24.13321",
      "inDis" : "50",
      "routeId" : "89",
      "seqNo" : "32"
   },
   {
      "GoBack" : "1",
      "longitude" : "120.67196",
      "outDis" : "50",
      "Id" : "5393",
      "oid" : "312954998",
      "districtId" : "1",
      "nameZh" : "公共資訊圖書館(復興路)",
      "pgp" : "0",
      "terminal" : "0",
      "latitude" : "24.12985",
      "inDis" : "50",
      "routeId" : "89",
      "seqNo" : "33"
   },
   {
      "GoBack" : "1",
      "longitude" : "120.67366",
      "outDis" : "50",
      "Id" : "0178",
      "oid" : "283F25CE6B0F45539D307BC5CFC015B2",
      "districtId" : "1",
      "nameZh" : "第三分局",
      "pgp" : "0",
      "terminal" : "0",
      "latitude" : "24.13044",
      "inDis" : "50",
      "routeId" : "89",
      "seqNo" : "34"
   },
   {
      "GoBack" : "1",
      "longitude" : "120.67581",
      "outDis" : "50",
      "Id" : "4604",
      "oid" : "ED999C3DF7BF4281956E397CF3667419",
      "districtId" : "1",
      "nameZh" : "復興有恆街口",
      "pgp" : "0",
      "terminal" : "0",
      "latitude" : "24.13144",
      "inDis" : "50",
      "routeId" : "89",
      "seqNo" : "35"
   },
   {
      "GoBack" : "1",
      "longitude" : "120.67707",
      "outDis" : "50",
      "Id" : "0180",
      "oid" : "03DDDEF457214E05A1045B30E6A40DB6",
      "districtId" : "1",
      "nameZh" : "林祖厝",
      "pgp" : "0",
      "terminal" : "0",
      "latitude" : "24.13188",
      "inDis" : "50",
      "routeId" : "89",
      "seqNo" : "36"
   },
   {
      "GoBack" : "1",
      "longitude" : "120.67994",
      "outDis" : "50",
      "Id" : "1659",
      "oid" : "301535698",
      "districtId" : "1",
      "nameZh" : "文化創意園區",
      "pgp" : "0",
      "terminal" : "0",
      "latitude" : "24.13317",
      "inDis" : "50",
      "routeId" : "89",
      "seqNo" : "37"
   },
   {
      "GoBack" : "1",
      "longitude" : "120.68244",
      "outDis" : "50",
      "Id" : "0518",
      "oid" : "9DB315301D4C4745997D1C41D6A3C929",
      "districtId" : "1",
      "nameZh" : "臺中酒廠(復興路)",
      "pgp" : "0",
      "terminal" : "0",
      "latitude" : "24.13418",
      "inDis" : "50",
      "routeId" : "89",
      "seqNo" : "38"
   },
   {
      "GoBack" : "1",
      "longitude" : "120.68371",
      "outDis" : "50",
      "Id" : "0183",
      "oid" : "7C21CCE872BE408F9D326AD2A3E41D46",
      "districtId" : "1",
      "nameZh" : "臺中家商",
      "pgp" : "0",
      "terminal" : "0",
      "latitude" : "24.13472",
      "inDis" : "50",
      "routeId" : "89",
      "seqNo" : "39"
   },
   {
      "GoBack" : "1",
      "longitude" : "120.68632",
      "outDis" : "50",
      "Id" : "0184",
      "oid" : "A8CA838228584D16A808A3594F5073DE",
      "districtId" : "1",
      "nameZh" : "後火車站",
      "pgp" : "0",
      "terminal" : "0",
      "latitude" : "24.13578",
      "inDis" : "50",
      "routeId" : "89",
      "seqNo" : "40"
   },
   {
      "GoBack" : "1",
      "longitude" : "120.68804",
      "outDis" : "50",
      "Id" : "0185",
      "oid" : "9BA00BD0B58B41F6A5888BA89C541E51",
      "districtId" : "1",
      "nameZh" : "新時代購物中心",
      "pgp" : "0",
      "terminal" : "0",
      "latitude" : "24.13597",
      "inDis" : "50",
      "routeId" : "89",
      "seqNo" : "41"
   },
   {
      "GoBack" : "1",
      "longitude" : "120.68989",
      "outDis" : "50",
      "Id" : "0186",
      "oid" : "B9DDEA1C30EC4596A9C5465592451795",
      "districtId" : "1",
      "nameZh" : "大智忠孝路口",
      "pgp" : "0",
      "terminal" : "0",
      "latitude" : "24.13242",
      "inDis" : "50",
      "routeId" : "89",
      "seqNo" : "42"
   },
   {
      "GoBack" : "1",
      "longitude" : "120.69231",
      "outDis" : "50",
      "Id" : "4362",
      "oid" : "D9BE86D178AF4A36827EAF25BF48DAFD",
      "districtId" : "1",
      "nameZh" : "建成大振街口",
      "pgp" : "0",
      "terminal" : "0",
      "latitude" : "24.13254",
      "inDis" : "50",
      "routeId" : "89",
      "seqNo" : "43"
   },
   {
      "GoBack" : "1",
      "longitude" : "120.69415",
      "outDis" : "50",
      "Id" : "4654",
      "oid" : "8951043195D04D2CA0C56F14A92BDAA2",
      "districtId" : "1",
      "nameZh" : "大東紡織(振興路)",
      "pgp" : "0",
      "terminal" : "0",
      "latitude" : "24.1329",
      "inDis" : "50",
      "routeId" : "89",
      "seqNo" : "44"
   },
   {
      "GoBack" : "1",
      "longitude" : "120.6964",
      "outDis" : "50",
      "Id" : "3617",
      "oid" : "7F15F5004E8F4D1C90AE585BDED03EEA",
      "districtId" : "1",
      "nameZh" : "漢聲電臺",
      "pgp" : "0",
      "terminal" : "0",
      "latitude" : "24.13306",
      "inDis" : "50",
      "routeId" : "89",
      "seqNo" : "45"
   },
   {
      "GoBack" : "1",
      "longitude" : "120.69814",
      "outDis" : "50",
      "Id" : "0190",
      "oid" : "1B458D9575EB497B8EBAFD96AA26D8BA",
      "districtId" : "1",
      "nameZh" : "東門橋",
      "pgp" : "0",
      "terminal" : "0",
      "latitude" : "24.13309",
      "inDis" : "50",
      "routeId" : "89",
      "seqNo" : "46"
   },
   {
      "GoBack" : "1",
      "longitude" : "120.70005",
      "outDis" : "50",
      "Id" : "0191",
      "oid" : "968CEB7BD4264FEEB956FDB8910982AA",
      "districtId" : "1",
      "nameZh" : "旱溪東振興路口",
      "pgp" : "0",
      "terminal" : "0",
      "latitude" : "24.13129",
      "inDis" : "50",
      "routeId" : "89",
      "seqNo" : "47"
   },
   {
      "GoBack" : "1",
      "longitude" : "120.70184",
      "outDis" : "50",
      "Id" : "5407",
      "oid" : "313221831",
      "districtId" : "1",
      "nameZh" : "旱溪東東門路口",
      "pgp" : "0",
      "terminal" : "0",
      "latitude" : "24.12809",
      "inDis" : "50",
      "routeId" : "89",
      "seqNo" : "48"
   },
   {
      "GoBack" : "1",
      "longitude" : "120.70249",
      "outDis" : "50",
      "Id" : "0193",
      "oid" : "7FA17113BD894B24B59375295C8A3A13",
      "districtId" : "1",
      "nameZh" : "旱溪東六順路口",
      "pgp" : "0",
      "terminal" : "1",
      "latitude" : "24.12645",
      "inDis" : "50",
      "routeId" : "89",
      "seqNo" : "49"
   },
   {
      "GoBack" : "2",
      "longitude" : "120.70255",
      "outDis" : "50",
      "Id" : "0193",
      "oid" : "BE03C7AB6C714FD6A9C4EDCD3B44C61B",
      "districtId" : "1",
      "nameZh" : "旱溪東六順路口",
      "pgp" : "0",
      "terminal" : "0",
      "latitude" : "24.12657",
      "inDis" : "50",
      "routeId" : "89",
      "seqNo" : "1"
   },
   {
      "GoBack" : "2",
      "longitude" : "120.70184",
      "outDis" : "50",
      "Id" : "5407",
      "oid" : "313221831",
      "districtId" : "1",
      "nameZh" : "旱溪東東門路口",
      "pgp" : "0",
      "terminal" : "0",
      "latitude" : "24.12809",
      "inDis" : "50",
      "routeId" : "89",
      "seqNo" : "2"
   },
   {
      "GoBack" : "2",
      "longitude" : "120.70016",
      "outDis" : "50",
      "Id" : "0191",
      "oid" : "127777CDFCCF4B0DBD0CFC1799E6E7D3",
      "districtId" : "1",
      "nameZh" : "旱溪東振興路口",
      "pgp" : "0",
      "terminal" : "0",
      "latitude" : "24.13129",
      "inDis" : "50",
      "routeId" : "89",
      "seqNo" : "3"
   },
   {
      "GoBack" : "2",
      "longitude" : "120.69817",
      "outDis" : "50",
      "Id" : "0190",
      "oid" : "FF171E3B3F6A479CAB17446E7DA13BF6",
      "districtId" : "1",
      "nameZh" : "東門橋",
      "pgp" : "0",
      "terminal" : "0",
      "latitude" : "24.13319",
      "inDis" : "50",
      "routeId" : "89",
      "seqNo" : "4"
   },
   {
      "GoBack" : "2",
      "longitude" : "120.6964",
      "outDis" : "50",
      "Id" : "3617",
      "oid" : "22BA59E302C9459592DFBD91CD1FAF6B",
      "districtId" : "1",
      "nameZh" : "漢聲電臺",
      "pgp" : "0",
      "terminal" : "0",
      "latitude" : "24.13316",
      "inDis" : "50",
      "routeId" : "89",
      "seqNo" : "5"
   },
   {
      "GoBack" : "2",
      "longitude" : "120.69437",
      "outDis" : "50",
      "Id" : "4654",
      "oid" : "F3DCC879B1944DA8BC655D29E26D9BA4",
      "districtId" : "1",
      "nameZh" : "大東紡織(振興路)",
      "pgp" : "0",
      "terminal" : "0",
      "latitude" : "24.13302",
      "inDis" : "50",
      "routeId" : "89",
      "seqNo" : "6"
   },
   {
      "GoBack" : "2",
      "longitude" : "120.69245",
      "outDis" : "50",
      "Id" : "4362",
      "oid" : "1A2BE8CAF9CA4B44848671E2C8803249",
      "districtId" : "1",
      "nameZh" : "建成大振街口",
      "pgp" : "0",
      "terminal" : "0",
      "latitude" : "24.13271",
      "inDis" : "50",
      "routeId" : "89",
      "seqNo" : "7"
   },
   {
      "GoBack" : "2",
      "longitude" : "120.68992",
      "outDis" : "50",
      "Id" : "0186",
      "oid" : "84D59B11EA8F48BFA3310C932C91D122",
      "districtId" : "1",
      "nameZh" : "大智忠孝路口",
      "pgp" : "0",
      "terminal" : "0",
      "latitude" : "24.13239",
      "inDis" : "50",
      "routeId" : "89",
      "seqNo" : "8"
   },
   {
      "GoBack" : "2",
      "longitude" : "120.68813",
      "outDis" : "50",
      "Id" : "0185",
      "oid" : "2847F7FECCEB4809BAC81C98A6C1EF2F",
      "districtId" : "1",
      "nameZh" : "新時代購物中心",
      "pgp" : "0",
      "terminal" : "0",
      "latitude" : "24.13596",
      "inDis" : "50",
      "routeId" : "89",
      "seqNo" : "9"
   },
   {
      "GoBack" : "2",
      "longitude" : "120.68648",
      "outDis" : "50",
      "Id" : "0184",
      "oid" : "EE0AA103A6BE460E8BA5EDCC8496DBCF",
      "districtId" : "1",
      "nameZh" : "後火車站",
      "pgp" : "0",
      "terminal" : "0",
      "latitude" : "24.13604",
      "inDis" : "50",
      "routeId" : "89",
      "seqNo" : "10"
   },
   {
      "GoBack" : "2",
      "longitude" : "120.68385",
      "outDis" : "50",
      "Id" : "0183",
      "oid" : "45B79F0A6D464F398CE073D89E1D39CA",
      "districtId" : "1",
      "nameZh" : "臺中家商",
      "pgp" : "0",
      "terminal" : "0",
      "latitude" : "24.13483",
      "inDis" : "50",
      "routeId" : "89",
      "seqNo" : "11"
   },
   {
      "GoBack" : "2",
      "longitude" : "120.68182",
      "outDis" : "50",
      "Id" : "0518",
      "oid" : "115DF7739EDA40CC9C702A4F61B74164",
      "districtId" : "1",
      "nameZh" : "臺中酒廠(復興路)",
      "pgp" : "0",
      "terminal" : "0",
      "latitude" : "24.13394",
      "inDis" : "50",
      "routeId" : "89",
      "seqNo" : "12"
   },
   {
      "GoBack" : "2",
      "longitude" : "120.67994",
      "outDis" : "50",
      "Id" : "1659",
      "oid" : "301535699",
      "districtId" : "1",
      "nameZh" : "文化創意園區",
      "pgp" : "0",
      "terminal" : "0",
      "latitude" : "24.13317",
      "inDis" : "50",
      "routeId" : "89",
      "seqNo" : "13"
   },
   {
      "GoBack" : "2",
      "longitude" : "120.67857",
      "outDis" : "50",
      "Id" : "0180",
      "oid" : "E05133146B6A4589B7B41D8B138E8BC8",
      "districtId" : "1",
      "nameZh" : "林祖厝",
      "pgp" : "0",
      "terminal" : "0",
      "latitude" : "24.13256",
      "inDis" : "50",
      "routeId" : "89",
      "seqNo" : "14"
   },
   {
      "GoBack" : "2",
      "longitude" : "120.67589",
      "outDis" : "50",
      "Id" : "4604",
      "oid" : "B51FC4E7E1484FEAB3E89DA01F1FA451",
      "districtId" : "1",
      "nameZh" : "復興有恆街口",
      "pgp" : "0",
      "terminal" : "0",
      "latitude" : "24.13153",
      "inDis" : "50",
      "routeId" : "89",
      "seqNo" : "15"
   },
   {
      "GoBack" : "2",
      "longitude" : "120.67411",
      "outDis" : "50",
      "Id" : "0178",
      "oid" : "4704F3C9B49F4C6983EFF61AAD9ADAFF",
      "districtId" : "1",
      "nameZh" : "第三分局",
      "pgp" : "0",
      "terminal" : "0",
      "latitude" : "24.13077",
      "inDis" : "50",
      "routeId" : "89",
      "seqNo" : "16"
   },
   {
      "GoBack" : "2",
      "longitude" : "120.67196",
      "outDis" : "50",
      "Id" : "5393",
      "oid" : "312954998",
      "districtId" : "1",
      "nameZh" : "公共資訊圖書館(復興路)",
      "pgp" : "0",
      "terminal" : "0",
      "latitude" : "24.12985",
      "inDis" : "50",
      "routeId" : "89",
      "seqNo" : "17"
   },
   {
      "GoBack" : "2",
      "longitude" : "120.66621",
      "outDis" : "50",
      "Id" : "0176",
      "oid" : "1C2F96C30EBD4F5894035F1725F69FBA",
      "districtId" : "1",
      "nameZh" : "五權樂群街口",
      "pgp" : "0",
      "terminal" : "0",
      "latitude" : "24.13416",
      "inDis" : "50",
      "routeId" : "89",
      "seqNo" : "18"
   },
   {
      "GoBack" : "2",
      "longitude" : "120.66581",
      "outDis" : "50",
      "Id" : "4603",
      "oid" : "A72E56928254460AB06B05D17C24978C",
      "districtId" : "1",
      "nameZh" : "五權柳川西路口",
      "pgp" : "0",
      "terminal" : "0",
      "latitude" : "24.13567",
      "inDis" : "50",
      "routeId" : "89",
      "seqNo" : "19"
   },
   {
      "GoBack" : "2",
      "longitude" : "120.66575",
      "outDis" : "50",
      "Id" : "0174",
      "oid" : "111D8D21E5DF4A9294C8C8F932E7BDA0",
      "districtId" : "1",
      "nameZh" : "五權公館路口",
      "pgp" : "0",
      "terminal" : "0",
      "latitude" : "24.13714",
      "inDis" : "50",
      "routeId" : "89",
      "seqNo" : "20"
   },
   {
      "GoBack" : "2",
      "longitude" : "120.66568",
      "outDis" : "50",
      "Id" : "0173",
      "oid" : "A3CE26573905438D8BE5814412329CF8",
      "districtId" : "1",
      "nameZh" : "五權五廊街口",
      "pgp" : "0",
      "terminal" : "0",
      "latitude" : "24.13819",
      "inDis" : "50",
      "routeId" : "89",
      "seqNo" : "21"
   },
   {
      "GoBack" : "2",
      "longitude" : "120.66351",
      "outDis" : "50",
      "Id" : "4556",
      "oid" : "810027CE86544753A9C487C5DFCFC1F1",
      "districtId" : "1",
      "nameZh" : "美術館(五權西路)",
      "pgp" : "0",
      "terminal" : "0",
      "latitude" : "24.14019",
      "inDis" : "50",
      "routeId" : "89",
      "seqNo" : "22"
   },
   {
      "GoBack" : "2",
      "longitude" : "120.66176",
      "outDis" : "50",
      "Id" : "0172",
      "oid" : "377AB3E0BE4F4C1EB595B1D84F9B1854",
      "districtId" : "1",
      "nameZh" : "向上國中",
      "pgp" : "0",
      "terminal" : "0",
      "latitude" : "24.1431",
      "inDis" : "50",
      "routeId" : "89",
      "seqNo" : "23"
   },
   {
      "GoBack" : "2",
      "longitude" : "120.65967",
      "outDis" : "50",
      "Id" : "0171",
      "oid" : "A09362CE736F4C398B6BAA8552402E2F",
      "districtId" : "1",
      "nameZh" : "頂麻園",
      "pgp" : "0",
      "terminal" : "0",
      "latitude" : "24.14672",
      "inDis" : "50",
      "routeId" : "89",
      "seqNo" : "24"
   },
   {
      "GoBack" : "2",
      "longitude" : "120.65821",
      "outDis" : "50",
      "Id" : "4540",
      "oid" : "267595AC812B40E0BD7C6A31B43C824A",
      "districtId" : "1",
      "nameZh" : "向上忠明南路口",
      "pgp" : "0",
      "terminal" : "0",
      "latitude" : "24.14671",
      "inDis" : "50",
      "routeId" : "89",
      "seqNo" : "25"
   },
   {
      "GoBack" : "2",
      "longitude" : "120.65547",
      "outDis" : "50",
      "Id" : "4595",
      "oid" : "4CD45978DDBF42AEA640E139D8E0200E",
      "districtId" : "1",
      "nameZh" : "向上精誠路口",
      "pgp" : "0",
      "terminal" : "0",
      "latitude" : "24.14673",
      "inDis" : "50",
      "routeId" : "89",
      "seqNo" : "26"
   },
   {
      "GoBack" : "2",
      "longitude" : "120.65268",
      "outDis" : "50",
      "Id" : "4554",
      "oid" : "060BBFAD69CC4D47BEDA1A6C45D6AD25",
      "districtId" : "1",
      "nameZh" : "向上東興路口",
      "pgp" : "0",
      "terminal" : "0",
      "latitude" : "24.14679",
      "inDis" : "50",
      "routeId" : "89",
      "seqNo" : "27"
   },
   {
      "GoBack" : "2",
      "longitude" : "120.64937",
      "outDis" : "50",
      "Id" : "0139",
      "oid" : "96882DC033E4408A8520A3D2B2E86260",
      "districtId" : "1",
      "nameZh" : "向上大墩路口",
      "pgp" : "0",
      "terminal" : "0",
      "latitude" : "24.14674",
      "inDis" : "50",
      "routeId" : "89",
      "seqNo" : "28"
   },
   {
      "GoBack" : "2",
      "longitude" : "120.64744",
      "outDis" : "50",
      "Id" : "0023",
      "oid" : "B3972EA2E56B4542B053E5FD41833763",
      "districtId" : "1",
      "nameZh" : "文心森林公園(向上路)",
      "pgp" : "0",
      "terminal" : "0",
      "latitude" : "24.14679",
      "inDis" : "50",
      "routeId" : "89",
      "seqNo" : "29"
   },
   {
      "GoBack" : "2",
      "longitude" : "120.64342",
      "outDis" : "50",
      "Id" : "0170",
      "oid" : "E01F52D06C3B46F8A644B5F41C8849B6",
      "districtId" : "1",
      "nameZh" : "向上惠文路口",
      "pgp" : "0",
      "terminal" : "0",
      "latitude" : "24.1469",
      "inDis" : "50",
      "routeId" : "89",
      "seqNo" : "30"
   },
   {
      "GoBack" : "2",
      "longitude" : "120.64115",
      "outDis" : "50",
      "Id" : "4601",
      "oid" : "49A30327A0154959B1959FBC9754726A",
      "districtId" : "1",
      "nameZh" : "林新醫院(向上路)",
      "pgp" : "0",
      "terminal" : "0",
      "latitude" : "24.14689",
      "inDis" : "50",
      "routeId" : "89",
      "seqNo" : "31"
   },
   {
      "GoBack" : "2",
      "longitude" : "120.63792",
      "outDis" : "50",
      "Id" : "0168",
      "oid" : "8AF50B9541AA4DF0A4DCFF798E748D22",
      "districtId" : "1",
      "nameZh" : "向上河南路口",
      "pgp" : "0",
      "terminal" : "0",
      "latitude" : "24.14714",
      "inDis" : "50",
      "routeId" : "89",
      "seqNo" : "32"
   },
   {
      "GoBack" : "2",
      "longitude" : "120.63725",
      "outDis" : "50",
      "Id" : "4245",
      "oid" : "F028529031EF442E920F321E58138F33",
      "districtId" : "1",
      "nameZh" : "黎明五權西路口",
      "pgp" : "0",
      "terminal" : "0",
      "latitude" : "24.14369",
      "inDis" : "50",
      "routeId" : "89",
      "seqNo" : "33"
   },
   {
      "GoBack" : "2",
      "longitude" : "120.63601",
      "outDis" : "50",
      "Id" : "5093",
      "oid" : "E4105D357D74420894369A44D089BB12",
      "districtId" : "1",
      "nameZh" : "五權西三厝街口",
      "pgp" : "0",
      "terminal" : "0",
      "latitude" : "24.14311",
      "inDis" : "50",
      "routeId" : "89",
      "seqNo" : "34"
   },
   {
      "GoBack" : "2",
      "longitude" : "120.63387",
      "outDis" : "50",
      "Id" : "5606",
      "oid" : "138983313",
      "districtId" : "1",
      "nameZh" : "五權西永春東七路口",
      "pgp" : "0",
      "terminal" : "0",
      "latitude" : "24.14469",
      "inDis" : "50",
      "routeId" : "89",
      "seqNo" : "35"
   },
   {
      "GoBack" : "2",
      "longitude" : "120.63029",
      "outDis" : "50",
      "Id" : "5430",
      "oid" : "313359734",
      "districtId" : "1",
      "nameZh" : "中村加油站",
      "pgp" : "0",
      "terminal" : "0",
      "latitude" : "24.14692",
      "inDis" : "50",
      "routeId" : "89",
      "seqNo" : "36"
   },
   {
      "GoBack" : "2",
      "longitude" : "120.62545",
      "outDis" : "50",
      "Id" : "0164",
      "oid" : "5DE60799A9574DFFA7451C955B555B00",
      "districtId" : "1",
      "nameZh" : "新生里(哈魚碼頭)",
      "pgp" : "0",
      "terminal" : "0",
      "latitude" : "24.14889",
      "inDis" : "50",
      "routeId" : "89",
      "seqNo" : "37"
   },
   {
      "GoBack" : "2",
      "longitude" : "120.61629",
      "outDis" : "50",
      "Id" : "5488",
      "oid" : "317203328",
      "districtId" : "1",
      "nameZh" : "忠勇寶山東二街口",
      "pgp" : "0",
      "terminal" : "0",
      "latitude" : "24.15275",
      "inDis" : "50",
      "routeId" : "89",
      "seqNo" : "38"
   },
   {
      "GoBack" : "2",
      "longitude" : "120.61572",
      "outDis" : "50",
      "Id" : "5489",
      "oid" : "AE3E567A752C4F3CBFA9730698AC18C4",
      "districtId" : "1",
      "nameZh" : "寶山里土地公",
      "pgp" : "0",
      "terminal" : "0",
      "latitude" : "24.15049",
      "inDis" : "50",
      "routeId" : "89",
      "seqNo" : "39"
   },
   {
      "GoBack" : "2",
      "longitude" : "120.61561",
      "outDis" : "50",
      "Id" : "0165",
      "oid" : "4B90641C67CE406BB199990BA5C02BF6",
      "districtId" : "1",
      "nameZh" : "文山國小(忠勇路)",
      "pgp" : "0",
      "terminal" : "0",
      "latitude" : "24.14961",
      "inDis" : "50",
      "routeId" : "89",
      "seqNo" : "40"
   },
   {
      "GoBack" : "2",
      "longitude" : "120.61492",
      "outDis" : "50",
      "Id" : "0160",
      "oid" : "F1EDA0524EDB4F8E914C25A5B42401E0",
      "districtId" : "1",
      "nameZh" : "文山里",
      "pgp" : "0",
      "terminal" : "0",
      "latitude" : "24.14591",
      "inDis" : "50",
      "routeId" : "89",
      "seqNo" : "41"
   },
   {
      "GoBack" : "2",
      "longitude" : "120.61474",
      "outDis" : "50",
      "Id" : "0159",
      "oid" : "F5FF689F60CF4445930F71E09E0BD7C6",
      "districtId" : "1",
      "nameZh" : "一善堂",
      "pgp" : "0",
      "terminal" : "0",
      "latitude" : "24.14496",
      "inDis" : "50",
      "routeId" : "89",
      "seqNo" : "42"
   },
   {
      "GoBack" : "2",
      "longitude" : "120.6136",
      "outDis" : "50",
      "Id" : "0158",
      "oid" : "139002829",
      "districtId" : "1",
      "nameZh" : "下文山",
      "pgp" : "0",
      "terminal" : "0",
      "latitude" : "24.14232",
      "inDis" : "50",
      "routeId" : "89",
      "seqNo" : "43"
   },
   {
      "GoBack" : "2",
      "longitude" : "120.6131",
      "outDis" : "50",
      "Id" : "0157",
      "oid" : "9B54E51A66F44BBA8566AB18867D1270",
      "districtId" : "1",
      "nameZh" : "七星橋",
      "pgp" : "0",
      "terminal" : "0",
      "latitude" : "24.14044",
      "inDis" : "50",
      "routeId" : "89",
      "seqNo" : "44"
   },
   {
      "GoBack" : "2",
      "longitude" : "120.61293",
      "outDis" : "50",
      "Id" : "4599",
      "oid" : "EA53325DAD534D30A9D22348744118FC",
      "districtId" : "1",
      "nameZh" : "春社里(忠勇路)",
      "pgp" : "0",
      "terminal" : "0",
      "latitude" : "24.13922",
      "inDis" : "50",
      "routeId" : "89",
      "seqNo" : "45"
   },
   {
      "GoBack" : "2",
      "longitude" : "120.61141",
      "outDis" : "50",
      "Id" : "3874",
      "oid" : "16AAD0E923804F2EBF27E747186CC340",
      "districtId" : "1",
      "nameZh" : "嶺東高中",
      "pgp" : "0",
      "terminal" : "0",
      "latitude" : "24.13851",
      "inDis" : "50",
      "routeId" : "89",
      "seqNo" : "46"
   },
   {
      "GoBack" : "2",
      "longitude" : "120.60886",
      "outDis" : "50",
      "Id" : "5162",
      "oid" : "681E9CD76C544165BFA4EAAC87AB66EF",
      "districtId" : "1",
      "nameZh" : "嶺東科技大學(永春南路)",
      "pgp" : "0",
      "terminal" : "0",
      "latitude" : "24.13859",
      "inDis" : "50",
      "routeId" : "89",
      "seqNo" : "47"
   },
   {
      "GoBack" : "2",
      "longitude" : "120.60071",
      "outDis" : "50",
      "Id" : "5796",
      "oid" : "F159729267C94AEBA68C798E79946FCB",
      "districtId" : "1",
      "nameZh" : "仁友停車場",
      "pgp" : "0",
      "terminal" : "0",
      "latitude" : "24.13944",
      "inDis" : "50",
      "routeId" : "89",
      "seqNo" : "48"
   }
]
