[
   {
      "GoBack" : "1",
      "longitude" : "120.56106",
      "outDis" : "50",
      "Id" : "2248",
      "oid" : "10784",
      "districtId" : "1",
      "nameZh" : "沙鹿站",
      "pgp" : "0",
      "terminal" : "0",
      "latitude" : "24.23783",
      "inDis" : "50",
      "routeId" : "175",
      "seqNo" : "1"
   },
   {
      "GoBack" : "1",
      "longitude" : "120.56",
      "outDis" : "50",
      "Id" : "5135",
      "oid" : "14046",
      "districtId" : "1",
      "nameZh" : "第一銀行(沙鹿分行)",
      "pgp" : "0",
      "terminal" : "0",
      "latitude" : "24.23932",
      "inDis" : "50",
      "routeId" : "175",
      "seqNo" : "2"
   },
   {
      "GoBack" : "1",
      "longitude" : "120.55659",
      "outDis" : "50",
      "Id" : "1482",
      "oid" : "14537",
      "districtId" : "1",
      "nameZh" : "中港國小",
      "pgp" : "0",
      "terminal" : "0",
      "latitude" : "24.24273",
      "inDis" : "50",
      "routeId" : "175",
      "seqNo" : "3"
   },
   {
      "GoBack" : "1",
      "longitude" : "120.54911",
      "outDis" : "50",
      "Id" : "1088",
      "oid" : "14538",
      "districtId" : "1",
      "nameZh" : "三條圳",
      "pgp" : "0",
      "terminal" : "0",
      "latitude" : "24.24548",
      "inDis" : "50",
      "routeId" : "175",
      "seqNo" : "4"
   },
   {
      "GoBack" : "1",
      "longitude" : "120.54653",
      "outDis" : "50",
      "Id" : "4822",
      "oid" : "14539",
      "districtId" : "1",
      "nameZh" : "東大庄",
      "pgp" : "0",
      "terminal" : "0",
      "latitude" : "24.24643",
      "inDis" : "50",
      "routeId" : "175",
      "seqNo" : "5"
   },
   {
      "GoBack" : "1",
      "longitude" : "120.54472",
      "outDis" : "50",
      "Id" : "4007",
      "oid" : "14540",
      "districtId" : "1",
      "nameZh" : "體育館前",
      "pgp" : "0",
      "terminal" : "0",
      "latitude" : "24.2471",
      "inDis" : "50",
      "routeId" : "175",
      "seqNo" : "6"
   },
   {
      "GoBack" : "1",
      "longitude" : "120.54319",
      "outDis" : "50",
      "Id" : "4041",
      "oid" : "14541",
      "districtId" : "1",
      "nameZh" : "童綜合醫院(梧棲院區)",
      "pgp" : "0",
      "terminal" : "0",
      "latitude" : "24.24757",
      "inDis" : "50",
      "routeId" : "175",
      "seqNo" : "7"
   },
   {
      "GoBack" : "1",
      "longitude" : "120.54117",
      "outDis" : "50",
      "Id" : "4824",
      "oid" : "14542",
      "districtId" : "1",
      "nameZh" : "邱厝庄",
      "pgp" : "0",
      "terminal" : "0",
      "latitude" : "24.24818",
      "inDis" : "50",
      "routeId" : "175",
      "seqNo" : "8"
   },
   {
      "GoBack" : "1",
      "longitude" : "120.53916",
      "outDis" : "50",
      "Id" : "1334",
      "oid" : "14543",
      "districtId" : "1",
      "nameZh" : "大庄",
      "pgp" : "0",
      "terminal" : "0",
      "latitude" : "24.24908",
      "inDis" : "50",
      "routeId" : "175",
      "seqNo" : "9"
   },
   {
      "GoBack" : "1",
      "longitude" : "120.53795",
      "outDis" : "50",
      "Id" : "4785",
      "oid" : "14544",
      "districtId" : "1",
      "nameZh" : "大庄橋",
      "pgp" : "0",
      "terminal" : "0",
      "latitude" : "24.24676",
      "inDis" : "50",
      "routeId" : "175",
      "seqNo" : "10"
   },
   {
      "GoBack" : "1",
      "longitude" : "120.53731",
      "outDis" : "50",
      "Id" : "4828",
      "oid" : "14545",
      "districtId" : "1",
      "nameZh" : "珍珠港",
      "pgp" : "0",
      "terminal" : "0",
      "latitude" : "24.24413",
      "inDis" : "50",
      "routeId" : "175",
      "seqNo" : "11"
   },
   {
      "GoBack" : "1",
      "longitude" : "120.53678",
      "outDis" : "50",
      "Id" : "4864",
      "oid" : "14546",
      "districtId" : "1",
      "nameZh" : "興農里",
      "pgp" : "0",
      "terminal" : "0",
      "latitude" : "24.23958",
      "inDis" : "50",
      "routeId" : "175",
      "seqNo" : "12"
   },
   {
      "GoBack" : "1",
      "longitude" : "120.53572",
      "outDis" : "50",
      "Id" : "5371",
      "oid" : "311871548",
      "districtId" : "1",
      "nameZh" : "興農中排",
      "pgp" : "0",
      "terminal" : "0",
      "latitude" : "24.23645",
      "inDis" : "50",
      "routeId" : "175",
      "seqNo" : "13"
   },
   {
      "GoBack" : "1",
      "longitude" : "120.53504",
      "outDis" : "50",
      "Id" : "1025",
      "oid" : "14548",
      "districtId" : "1",
      "nameZh" : "八張犁",
      "pgp" : "0",
      "terminal" : "0",
      "latitude" : "24.23509",
      "inDis" : "50",
      "routeId" : "175",
      "seqNo" : "14"
   },
   {
      "GoBack" : "1",
      "longitude" : "120.53279",
      "outDis" : "50",
      "Id" : "4805",
      "oid" : "14549",
      "districtId" : "1",
      "nameZh" : "永寧國小",
      "pgp" : "0",
      "terminal" : "0",
      "latitude" : "24.23048",
      "inDis" : "50",
      "routeId" : "175",
      "seqNo" : "15"
   },
   {
      "GoBack" : "1",
      "longitude" : "120.53216",
      "outDis" : "50",
      "Id" : "4850",
      "oid" : "14550",
      "districtId" : "1",
      "nameZh" : "園子",
      "pgp" : "0",
      "terminal" : "0",
      "latitude" : "24.22918",
      "inDis" : "50",
      "routeId" : "175",
      "seqNo" : "16"
   },
   {
      "GoBack" : "1",
      "longitude" : "120.53118",
      "outDis" : "50",
      "Id" : "4804",
      "oid" : "14551",
      "districtId" : "1",
      "nameZh" : "永寧里",
      "pgp" : "0",
      "terminal" : "0",
      "latitude" : "24.2272",
      "inDis" : "50",
      "routeId" : "175",
      "seqNo" : "17"
   },
   {
      "GoBack" : "1",
      "longitude" : "120.52985",
      "outDis" : "50",
      "Id" : "2133",
      "oid" : "14552",
      "districtId" : "1",
      "nameZh" : "百姓公",
      "pgp" : "0",
      "terminal" : "0",
      "latitude" : "24.22461",
      "inDis" : "50",
      "routeId" : "175",
      "seqNo" : "18"
   },
   {
      "GoBack" : "1",
      "longitude" : "120.52865",
      "outDis" : "50",
      "Id" : "0563",
      "oid" : "14553",
      "districtId" : "1",
      "nameZh" : "永安里",
      "pgp" : "0",
      "terminal" : "0",
      "latitude" : "24.22236",
      "inDis" : "50",
      "routeId" : "175",
      "seqNo" : "19"
   },
   {
      "GoBack" : "1",
      "longitude" : "120.52713",
      "outDis" : "50",
      "Id" : "2802",
      "oid" : "14554",
      "districtId" : "1",
      "nameZh" : "海尾巷",
      "pgp" : "0",
      "terminal" : "0",
      "latitude" : "24.21869",
      "inDis" : "50",
      "routeId" : "175",
      "seqNo" : "20"
   },
   {
      "GoBack" : "1",
      "longitude" : "120.5263",
      "outDis" : "50",
      "Id" : "4838",
      "oid" : "14555",
      "districtId" : "1",
      "nameZh" : "高園子",
      "pgp" : "0",
      "terminal" : "0",
      "latitude" : "24.21627",
      "inDis" : "50",
      "routeId" : "175",
      "seqNo" : "21"
   },
   {
      "GoBack" : "1",
      "longitude" : "120.52561",
      "outDis" : "50",
      "Id" : "2972",
      "oid" : "14556",
      "districtId" : "1",
      "nameZh" : "崙仔頂",
      "pgp" : "0",
      "terminal" : "0",
      "latitude" : "24.21378",
      "inDis" : "50",
      "routeId" : "175",
      "seqNo" : "22"
   },
   {
      "GoBack" : "1",
      "longitude" : "120.52522",
      "outDis" : "50",
      "Id" : "0421",
      "oid" : "14557",
      "districtId" : "1",
      "nameZh" : "中和",
      "pgp" : "0",
      "terminal" : "0",
      "latitude" : "24.21253",
      "inDis" : "50",
      "routeId" : "175",
      "seqNo" : "23"
   },
   {
      "GoBack" : "1",
      "longitude" : "120.52405",
      "outDis" : "50",
      "Id" : "0980",
      "oid" : "14558",
      "districtId" : "1",
      "nameZh" : "一號橋",
      "pgp" : "0",
      "terminal" : "0",
      "latitude" : "24.2097",
      "inDis" : "50",
      "routeId" : "175",
      "seqNo" : "24"
   },
   {
      "GoBack" : "1",
      "longitude" : "120.52363",
      "outDis" : "50",
      "Id" : "1102",
      "oid" : "14559",
      "districtId" : "1",
      "nameZh" : "三德",
      "pgp" : "0",
      "terminal" : "0",
      "latitude" : "24.20717",
      "inDis" : "50",
      "routeId" : "175",
      "seqNo" : "25"
   },
   {
      "GoBack" : "1",
      "longitude" : "120.52339",
      "outDis" : "50",
      "Id" : "3848",
      "oid" : "14560",
      "districtId" : "1",
      "nameZh" : "龍井市場",
      "pgp" : "0",
      "terminal" : "0",
      "latitude" : "24.20424",
      "inDis" : "50",
      "routeId" : "175",
      "seqNo" : "26"
   },
   {
      "GoBack" : "1",
      "longitude" : "120.52342",
      "outDis" : "50",
      "Id" : "5136",
      "oid" : "14561",
      "districtId" : "1",
      "nameZh" : "莊頭",
      "pgp" : "0",
      "terminal" : "0",
      "latitude" : "24.20315",
      "inDis" : "50",
      "routeId" : "175",
      "seqNo" : "27"
   },
   {
      "GoBack" : "1",
      "longitude" : "120.52346",
      "outDis" : "50",
      "Id" : "3858",
      "oid" : "14562",
      "districtId" : "1",
      "nameZh" : "龍津",
      "pgp" : "0",
      "terminal" : "0",
      "latitude" : "24.20115",
      "inDis" : "50",
      "routeId" : "175",
      "seqNo" : "28"
   },
   {
      "GoBack" : "1",
      "longitude" : "120.52315",
      "outDis" : "50",
      "Id" : "1013",
      "oid" : "14563",
      "districtId" : "1",
      "nameZh" : "二號橋",
      "pgp" : "0",
      "terminal" : "0",
      "latitude" : "24.19728",
      "inDis" : "50",
      "routeId" : "175",
      "seqNo" : "29"
   },
   {
      "GoBack" : "1",
      "longitude" : "120.5307",
      "outDis" : "50",
      "Id" : "4867",
      "oid" : "14565",
      "districtId" : "1",
      "nameZh" : "龍北路口",
      "pgp" : "0",
      "terminal" : "0",
      "latitude" : "24.19473",
      "inDis" : "50",
      "routeId" : "175",
      "seqNo" : "30"
   },
   {
      "GoBack" : "1",
      "longitude" : "120.53082",
      "outDis" : "50",
      "Id" : "4807",
      "oid" : "14564",
      "districtId" : "1",
      "nameZh" : "田中社區",
      "pgp" : "0",
      "terminal" : "0",
      "latitude" : "24.19362",
      "inDis" : "50",
      "routeId" : "175",
      "seqNo" : "31"
   },
   {
      "GoBack" : "1",
      "longitude" : "120.5305",
      "outDis" : "50",
      "Id" : "4806",
      "oid" : "14566",
      "districtId" : "1",
      "nameZh" : "田中村",
      "pgp" : "0",
      "terminal" : "0",
      "latitude" : "24.19083",
      "inDis" : "50",
      "routeId" : "175",
      "seqNo" : "32"
   },
   {
      "GoBack" : "1",
      "longitude" : "120.52976",
      "outDis" : "50",
      "Id" : "4826",
      "oid" : "14567",
      "districtId" : "1",
      "nameZh" : "南田中",
      "pgp" : "0",
      "terminal" : "0",
      "latitude" : "24.18709",
      "inDis" : "50",
      "routeId" : "175",
      "seqNo" : "33"
   },
   {
      "GoBack" : "1",
      "longitude" : "120.5303",
      "outDis" : "50",
      "Id" : "4866",
      "oid" : "14568",
      "districtId" : "1",
      "nameZh" : "龍井國小",
      "pgp" : "0",
      "terminal" : "0",
      "latitude" : "24.18417",
      "inDis" : "50",
      "routeId" : "175",
      "seqNo" : "34"
   },
   {
      "GoBack" : "1",
      "longitude" : "120.53036",
      "outDis" : "50",
      "Id" : "2710",
      "oid" : "14569",
      "districtId" : "1",
      "nameZh" : "茄投",
      "pgp" : "0",
      "terminal" : "0",
      "latitude" : "24.17841",
      "inDis" : "50",
      "routeId" : "175",
      "seqNo" : "35"
   },
   {
      "GoBack" : "1",
      "longitude" : "120.52728",
      "outDis" : "50",
      "Id" : "5490",
      "oid" : "314612347",
      "districtId" : "1",
      "nameZh" : "茄頭中",
      "pgp" : "0",
      "terminal" : "0",
      "latitude" : "24.17934",
      "inDis" : "50",
      "routeId" : "175",
      "seqNo" : "36"
   },
   {
      "GoBack" : "1",
      "longitude" : "120.52471",
      "outDis" : "50",
      "Id" : "2711",
      "oid" : "311893254",
      "districtId" : "1",
      "nameZh" : "茄投尾",
      "pgp" : "0",
      "terminal" : "0",
      "latitude" : "24.18014",
      "inDis" : "50",
      "routeId" : "175",
      "seqNo" : "37"
   },
   {
      "GoBack" : "2",
      "longitude" : "120.52471",
      "outDis" : "50",
      "Id" : "2711",
      "oid" : "311893254",
      "districtId" : "1",
      "nameZh" : "茄投尾",
      "pgp" : "0",
      "terminal" : "0",
      "latitude" : "24.18014",
      "inDis" : "50",
      "routeId" : "175",
      "seqNo" : "1"
   },
   {
      "GoBack" : "2",
      "longitude" : "120.52728",
      "outDis" : "50",
      "Id" : "5490",
      "oid" : "314612347",
      "districtId" : "1",
      "nameZh" : "茄頭中",
      "pgp" : "0",
      "terminal" : "0",
      "latitude" : "24.17934",
      "inDis" : "50",
      "routeId" : "175",
      "seqNo" : "2"
   },
   {
      "GoBack" : "2",
      "longitude" : "120.53036",
      "outDis" : "50",
      "Id" : "2710",
      "oid" : "14500",
      "districtId" : "1",
      "nameZh" : "茄投",
      "pgp" : "0",
      "terminal" : "0",
      "latitude" : "24.17841",
      "inDis" : "50",
      "routeId" : "175",
      "seqNo" : "3"
   },
   {
      "GoBack" : "2",
      "longitude" : "120.5303",
      "outDis" : "50",
      "Id" : "4866",
      "oid" : "14501",
      "districtId" : "1",
      "nameZh" : "龍井國小",
      "pgp" : "0",
      "terminal" : "0",
      "latitude" : "24.18417",
      "inDis" : "50",
      "routeId" : "175",
      "seqNo" : "4"
   },
   {
      "GoBack" : "2",
      "longitude" : "120.52976",
      "outDis" : "50",
      "Id" : "4826",
      "oid" : "14502",
      "districtId" : "1",
      "nameZh" : "南田中",
      "pgp" : "0",
      "terminal" : "0",
      "latitude" : "24.18709",
      "inDis" : "50",
      "routeId" : "175",
      "seqNo" : "5"
   },
   {
      "GoBack" : "2",
      "longitude" : "120.5305",
      "outDis" : "50",
      "Id" : "4806",
      "oid" : "14503",
      "districtId" : "1",
      "nameZh" : "田中村",
      "pgp" : "0",
      "terminal" : "0",
      "latitude" : "24.19083",
      "inDis" : "50",
      "routeId" : "175",
      "seqNo" : "6"
   },
   {
      "GoBack" : "2",
      "longitude" : "120.53088",
      "outDis" : "50",
      "Id" : "4807",
      "oid" : "14505",
      "districtId" : "1",
      "nameZh" : "田中社區",
      "pgp" : "0",
      "terminal" : "0",
      "latitude" : "24.19337",
      "inDis" : "50",
      "routeId" : "175",
      "seqNo" : "7"
   },
   {
      "GoBack" : "2",
      "longitude" : "120.53064",
      "outDis" : "50",
      "Id" : "4867",
      "oid" : "14504",
      "districtId" : "1",
      "nameZh" : "龍北路口",
      "pgp" : "0",
      "terminal" : "0",
      "latitude" : "24.19485",
      "inDis" : "50",
      "routeId" : "175",
      "seqNo" : "8"
   },
   {
      "GoBack" : "2",
      "longitude" : "120.52315",
      "outDis" : "50",
      "Id" : "1013",
      "oid" : "14506",
      "districtId" : "1",
      "nameZh" : "二號橋",
      "pgp" : "0",
      "terminal" : "0",
      "latitude" : "24.19728",
      "inDis" : "50",
      "routeId" : "175",
      "seqNo" : "9"
   },
   {
      "GoBack" : "2",
      "longitude" : "120.52346",
      "outDis" : "50",
      "Id" : "3858",
      "oid" : "14507",
      "districtId" : "1",
      "nameZh" : "龍津",
      "pgp" : "0",
      "terminal" : "0",
      "latitude" : "24.20115",
      "inDis" : "50",
      "routeId" : "175",
      "seqNo" : "10"
   },
   {
      "GoBack" : "2",
      "longitude" : "120.52342",
      "outDis" : "50",
      "Id" : "5136",
      "oid" : "14508",
      "districtId" : "1",
      "nameZh" : "莊頭",
      "pgp" : "0",
      "terminal" : "0",
      "latitude" : "24.20315",
      "inDis" : "50",
      "routeId" : "175",
      "seqNo" : "11"
   },
   {
      "GoBack" : "2",
      "longitude" : "120.52339",
      "outDis" : "50",
      "Id" : "3848",
      "oid" : "14509",
      "districtId" : "1",
      "nameZh" : "龍井市場",
      "pgp" : "0",
      "terminal" : "0",
      "latitude" : "24.20424",
      "inDis" : "50",
      "routeId" : "175",
      "seqNo" : "12"
   },
   {
      "GoBack" : "2",
      "longitude" : "120.52363",
      "outDis" : "50",
      "Id" : "1102",
      "oid" : "14510",
      "districtId" : "1",
      "nameZh" : "三德",
      "pgp" : "0",
      "terminal" : "0",
      "latitude" : "24.20717",
      "inDis" : "50",
      "routeId" : "175",
      "seqNo" : "13"
   },
   {
      "GoBack" : "2",
      "longitude" : "120.52405",
      "outDis" : "50",
      "Id" : "0980",
      "oid" : "14511",
      "districtId" : "1",
      "nameZh" : "一號橋",
      "pgp" : "0",
      "terminal" : "0",
      "latitude" : "24.2097",
      "inDis" : "50",
      "routeId" : "175",
      "seqNo" : "14"
   },
   {
      "GoBack" : "2",
      "longitude" : "120.52522",
      "outDis" : "50",
      "Id" : "0421",
      "oid" : "14512",
      "districtId" : "1",
      "nameZh" : "中和",
      "pgp" : "0",
      "terminal" : "0",
      "latitude" : "24.21253",
      "inDis" : "50",
      "routeId" : "175",
      "seqNo" : "15"
   },
   {
      "GoBack" : "2",
      "longitude" : "120.52561",
      "outDis" : "50",
      "Id" : "2972",
      "oid" : "14513",
      "districtId" : "1",
      "nameZh" : "崙仔頂",
      "pgp" : "0",
      "terminal" : "0",
      "latitude" : "24.21378",
      "inDis" : "50",
      "routeId" : "175",
      "seqNo" : "16"
   },
   {
      "GoBack" : "2",
      "longitude" : "120.5263",
      "outDis" : "50",
      "Id" : "4838",
      "oid" : "14514",
      "districtId" : "1",
      "nameZh" : "高園子",
      "pgp" : "0",
      "terminal" : "0",
      "latitude" : "24.21627",
      "inDis" : "50",
      "routeId" : "175",
      "seqNo" : "17"
   },
   {
      "GoBack" : "2",
      "longitude" : "120.52713",
      "outDis" : "50",
      "Id" : "2802",
      "oid" : "14515",
      "districtId" : "1",
      "nameZh" : "海尾巷",
      "pgp" : "0",
      "terminal" : "0",
      "latitude" : "24.21869",
      "inDis" : "50",
      "routeId" : "175",
      "seqNo" : "18"
   },
   {
      "GoBack" : "2",
      "longitude" : "120.52865",
      "outDis" : "50",
      "Id" : "0563",
      "oid" : "14516",
      "districtId" : "1",
      "nameZh" : "永安里",
      "pgp" : "0",
      "terminal" : "0",
      "latitude" : "24.22236",
      "inDis" : "50",
      "routeId" : "175",
      "seqNo" : "19"
   },
   {
      "GoBack" : "2",
      "longitude" : "120.52985",
      "outDis" : "50",
      "Id" : "2133",
      "oid" : "14517",
      "districtId" : "1",
      "nameZh" : "百姓公",
      "pgp" : "0",
      "terminal" : "0",
      "latitude" : "24.22461",
      "inDis" : "50",
      "routeId" : "175",
      "seqNo" : "20"
   },
   {
      "GoBack" : "2",
      "longitude" : "120.53118",
      "outDis" : "50",
      "Id" : "4804",
      "oid" : "14518",
      "districtId" : "1",
      "nameZh" : "永寧里",
      "pgp" : "0",
      "terminal" : "0",
      "latitude" : "24.2272",
      "inDis" : "50",
      "routeId" : "175",
      "seqNo" : "21"
   },
   {
      "GoBack" : "2",
      "longitude" : "120.53216",
      "outDis" : "50",
      "Id" : "4850",
      "oid" : "14519",
      "districtId" : "1",
      "nameZh" : "園子",
      "pgp" : "0",
      "terminal" : "0",
      "latitude" : "24.22918",
      "inDis" : "50",
      "routeId" : "175",
      "seqNo" : "22"
   },
   {
      "GoBack" : "2",
      "longitude" : "120.53279",
      "outDis" : "50",
      "Id" : "4805",
      "oid" : "14520",
      "districtId" : "1",
      "nameZh" : "永寧國小",
      "pgp" : "0",
      "terminal" : "0",
      "latitude" : "24.23048",
      "inDis" : "50",
      "routeId" : "175",
      "seqNo" : "23"
   },
   {
      "GoBack" : "2",
      "longitude" : "120.53504",
      "outDis" : "50",
      "Id" : "1025",
      "oid" : "14521",
      "districtId" : "1",
      "nameZh" : "八張犁",
      "pgp" : "0",
      "terminal" : "0",
      "latitude" : "24.23509",
      "inDis" : "50",
      "routeId" : "175",
      "seqNo" : "24"
   },
   {
      "GoBack" : "2",
      "longitude" : "120.53572",
      "outDis" : "50",
      "Id" : "5371",
      "oid" : "311871548",
      "districtId" : "1",
      "nameZh" : "興農中排",
      "pgp" : "0",
      "terminal" : "0",
      "latitude" : "24.23645",
      "inDis" : "50",
      "routeId" : "175",
      "seqNo" : "25"
   },
   {
      "GoBack" : "2",
      "longitude" : "120.53678",
      "outDis" : "50",
      "Id" : "4864",
      "oid" : "14523",
      "districtId" : "1",
      "nameZh" : "興農里",
      "pgp" : "0",
      "terminal" : "0",
      "latitude" : "24.23958",
      "inDis" : "50",
      "routeId" : "175",
      "seqNo" : "26"
   },
   {
      "GoBack" : "2",
      "longitude" : "120.53731",
      "outDis" : "50",
      "Id" : "4828",
      "oid" : "14524",
      "districtId" : "1",
      "nameZh" : "珍珠港",
      "pgp" : "0",
      "terminal" : "0",
      "latitude" : "24.24413",
      "inDis" : "50",
      "routeId" : "175",
      "seqNo" : "27"
   },
   {
      "GoBack" : "2",
      "longitude" : "120.53795",
      "outDis" : "50",
      "Id" : "4785",
      "oid" : "14525",
      "districtId" : "1",
      "nameZh" : "大庄橋",
      "pgp" : "0",
      "terminal" : "0",
      "latitude" : "24.24676",
      "inDis" : "50",
      "routeId" : "175",
      "seqNo" : "28"
   },
   {
      "GoBack" : "2",
      "longitude" : "120.53916",
      "outDis" : "50",
      "Id" : "1334",
      "oid" : "14526",
      "districtId" : "1",
      "nameZh" : "大庄",
      "pgp" : "0",
      "terminal" : "0",
      "latitude" : "24.24908",
      "inDis" : "50",
      "routeId" : "175",
      "seqNo" : "29"
   },
   {
      "GoBack" : "2",
      "longitude" : "120.54117",
      "outDis" : "50",
      "Id" : "4824",
      "oid" : "14527",
      "districtId" : "1",
      "nameZh" : "邱厝庄",
      "pgp" : "0",
      "terminal" : "0",
      "latitude" : "24.24818",
      "inDis" : "50",
      "routeId" : "175",
      "seqNo" : "30"
   },
   {
      "GoBack" : "2",
      "longitude" : "120.54319",
      "outDis" : "50",
      "Id" : "4041",
      "oid" : "14528",
      "districtId" : "1",
      "nameZh" : "童綜合醫院(梧棲院區)",
      "pgp" : "0",
      "terminal" : "0",
      "latitude" : "24.24757",
      "inDis" : "50",
      "routeId" : "175",
      "seqNo" : "31"
   },
   {
      "GoBack" : "2",
      "longitude" : "120.54472",
      "outDis" : "50",
      "Id" : "4007",
      "oid" : "14529",
      "districtId" : "1",
      "nameZh" : "體育館前",
      "pgp" : "0",
      "terminal" : "0",
      "latitude" : "24.2471",
      "inDis" : "50",
      "routeId" : "175",
      "seqNo" : "32"
   },
   {
      "GoBack" : "2",
      "longitude" : "120.54653",
      "outDis" : "50",
      "Id" : "4822",
      "oid" : "14530",
      "districtId" : "1",
      "nameZh" : "東大庄",
      "pgp" : "0",
      "terminal" : "0",
      "latitude" : "24.24643",
      "inDis" : "50",
      "routeId" : "175",
      "seqNo" : "33"
   },
   {
      "GoBack" : "2",
      "longitude" : "120.54911",
      "outDis" : "50",
      "Id" : "1088",
      "oid" : "14531",
      "districtId" : "1",
      "nameZh" : "三條圳",
      "pgp" : "0",
      "terminal" : "0",
      "latitude" : "24.24548",
      "inDis" : "50",
      "routeId" : "175",
      "seqNo" : "34"
   },
   {
      "GoBack" : "2",
      "longitude" : "120.55659",
      "outDis" : "50",
      "Id" : "1482",
      "oid" : "14532",
      "districtId" : "1",
      "nameZh" : "中港國小",
      "pgp" : "0",
      "terminal" : "0",
      "latitude" : "24.24273",
      "inDis" : "50",
      "routeId" : "175",
      "seqNo" : "35"
   },
   {
      "GoBack" : "2",
      "longitude" : "120.56",
      "outDis" : "50",
      "Id" : "5135",
      "oid" : "14046",
      "districtId" : "1",
      "nameZh" : "第一銀行(沙鹿分行)",
      "pgp" : "0",
      "terminal" : "0",
      "latitude" : "24.23932",
      "inDis" : "50",
      "routeId" : "175",
      "seqNo" : "36"
   },
   {
      "GoBack" : "2",
      "longitude" : "120.56103",
      "outDis" : "50",
      "Id" : "2248",
      "oid" : "7094",
      "districtId" : "1",
      "nameZh" : "沙鹿站",
      "pgp" : "0",
      "terminal" : "0",
      "latitude" : "24.23783",
      "inDis" : "50",
      "routeId" : "175",
      "seqNo" : "37"
   }
]
