[
   {
      "GoBack" : "1",
      "longitude" : "120.66338",
      "outDis" : "50",
      "Id" : "0181",
      "oid" : "9F604B29E2174B8983B5268E26ACDB40",
      "districtId" : "1",
      "nameZh" : "南區公所",
      "pgp" : "0",
      "terminal" : "0",
      "latitude" : "24.11691",
      "inDis" : "50",
      "routeId" : "65",
      "seqNo" : "1"
   },
   {
      "GoBack" : "1",
      "longitude" : "120.66048",
      "outDis" : "50",
      "Id" : "5474",
      "oid" : "314316879",
      "districtId" : "1",
      "nameZh" : "臺中高工(工學六街)",
      "pgp" : "0",
      "terminal" : "0",
      "latitude" : "24.11667",
      "inDis" : "50",
      "routeId" : "65",
      "seqNo" : "2"
   },
   {
      "GoBack" : "1",
      "longitude" : "120.66242",
      "outDis" : "50",
      "Id" : "4537",
      "oid" : "13C06345D3CC4B7480E50302FF7AAAB4",
      "districtId" : "1",
      "nameZh" : "臺中高工(高工路)",
      "pgp" : "0",
      "terminal" : "0",
      "latitude" : "24.11324",
      "inDis" : "50",
      "routeId" : "65",
      "seqNo" : "3"
   },
   {
      "GoBack" : "1",
      "longitude" : "120.66527",
      "outDis" : "50",
      "Id" : "4258",
      "oid" : "13EDBBC2253249FF8A56F816918F06C9",
      "districtId" : "1",
      "nameZh" : "工學一街口",
      "pgp" : "0",
      "terminal" : "0",
      "latitude" : "24.11397",
      "inDis" : "50",
      "routeId" : "65",
      "seqNo" : "4"
   },
   {
      "GoBack" : "1",
      "longitude" : "120.66682",
      "outDis" : "50",
      "Id" : "4617",
      "oid" : "167EAFFDACC74DAFBE161DACF0499BED",
      "districtId" : "1",
      "nameZh" : "僑泰中學(美村南路)",
      "pgp" : "0",
      "terminal" : "0",
      "latitude" : "24.11465",
      "inDis" : "50",
      "routeId" : "65",
      "seqNo" : "5"
   },
   {
      "GoBack" : "1",
      "longitude" : "120.66678",
      "outDis" : "50",
      "Id" : "2582",
      "oid" : "AF4F5BF452FF4F5C9BE8B09E93622317",
      "districtId" : "1",
      "nameZh" : "南和里",
      "pgp" : "0",
      "terminal" : "0",
      "latitude" : "24.11756",
      "inDis" : "50",
      "routeId" : "65",
      "seqNo" : "6"
   },
   {
      "GoBack" : "1",
      "longitude" : "120.66938",
      "outDis" : "50",
      "Id" : "2914",
      "oid" : "4DFD9BE1FE63467FBCFAC88B1D9107C9",
      "districtId" : "1",
      "nameZh" : "健康公園",
      "pgp" : "0",
      "terminal" : "0",
      "latitude" : "24.11903",
      "inDis" : "50",
      "routeId" : "65",
      "seqNo" : "7"
   },
   {
      "GoBack" : "1",
      "longitude" : "120.67083",
      "outDis" : "50",
      "Id" : "5109",
      "oid" : "9CA2EE0F3865427A880B956E37CBB17A",
      "districtId" : "1",
      "nameZh" : "忠明南五權南路口",
      "pgp" : "0",
      "terminal" : "0",
      "latitude" : "24.11905",
      "inDis" : "50",
      "routeId" : "65",
      "seqNo" : "8"
   },
   {
      "GoBack" : "1",
      "longitude" : "120.6794",
      "outDis" : "50",
      "Id" : "4347",
      "oid" : "DE2C6BA3BE8942E79BA0CABF1CF65AE0",
      "districtId" : "1",
      "nameZh" : "中興大學(國光路)",
      "pgp" : "0",
      "terminal" : "0",
      "latitude" : "24.12133",
      "inDis" : "50",
      "routeId" : "65",
      "seqNo" : "9"
   },
   {
      "GoBack" : "1",
      "longitude" : "120.68164",
      "outDis" : "50",
      "Id" : "5598",
      "oid" : "A2459A75591A4E258A42A9EF57DCCE97",
      "districtId" : "1",
      "nameZh" : "興大二村",
      "pgp" : "0",
      "terminal" : "0",
      "latitude" : "24.12234",
      "inDis" : "50",
      "routeId" : "65",
      "seqNo" : "10"
   },
   {
      "GoBack" : "1",
      "longitude" : "120.68374",
      "outDis" : "50",
      "Id" : "5111",
      "oid" : "98471333AD524EAE9801EF0E854581C6",
      "districtId" : "1",
      "nameZh" : "明德高中(南門路)",
      "pgp" : "0",
      "terminal" : "0",
      "latitude" : "24.12239",
      "inDis" : "50",
      "routeId" : "65",
      "seqNo" : "11"
   },
   {
      "GoBack" : "1",
      "longitude" : "120.68424",
      "outDis" : "50",
      "Id" : "0255",
      "oid" : "6619BD77BE964E6E951A771062BD126E",
      "districtId" : "1",
      "nameZh" : "南門仔",
      "pgp" : "0",
      "terminal" : "0",
      "latitude" : "24.12555",
      "inDis" : "50",
      "routeId" : "65",
      "seqNo" : "12"
   },
   {
      "GoBack" : "1",
      "longitude" : "120.68452",
      "outDis" : "50",
      "Id" : "5607",
      "oid" : "95D35CD4B32D4CAFA6FFD286D231191F",
      "districtId" : "1",
      "nameZh" : "興大附農(臺中路)",
      "pgp" : "0",
      "terminal" : "0",
      "latitude" : "24.12742",
      "inDis" : "50",
      "routeId" : "65",
      "seqNo" : "13"
   },
   {
      "GoBack" : "1",
      "longitude" : "120.68499",
      "outDis" : "50",
      "Id" : "0257",
      "oid" : "C71C09B7C73947DDB4840CEB11F6ABD7",
      "districtId" : "1",
      "nameZh" : "臺中國小",
      "pgp" : "0",
      "terminal" : "0",
      "latitude" : "24.13034",
      "inDis" : "50",
      "routeId" : "65",
      "seqNo" : "14"
   },
   {
      "GoBack" : "1",
      "longitude" : "120.68384",
      "outDis" : "50",
      "Id" : "0049",
      "oid" : "5419CC18BB5E43B8971EAAAB96823457",
      "districtId" : "1",
      "nameZh" : "第三市場(臺中家商)",
      "pgp" : "0",
      "terminal" : "0",
      "latitude" : "24.13277",
      "inDis" : "50",
      "routeId" : "65",
      "seqNo" : "15"
   },
   {
      "GoBack" : "1",
      "longitude" : "120.68471",
      "outDis" : "75",
      "Id" : "1824",
      "oid" : "173770911",
      "districtId" : "1",
      "nameZh" : "臺中火車站",
      "pgp" : "0",
      "terminal" : "0",
      "latitude" : "24.13728",
      "inDis" : "75",
      "routeId" : "65",
      "seqNo" : "16"
   },
   {
      "GoBack" : "1",
      "longitude" : "120.68603",
      "outDis" : "50",
      "Id" : "0402",
      "oid" : "CF4B6327A2A64010A4DFAAFC5F01545C",
      "districtId" : "1",
      "nameZh" : "干城站",
      "pgp" : "0",
      "terminal" : "0",
      "latitude" : "24.14099",
      "inDis" : "50",
      "routeId" : "65",
      "seqNo" : "17"
   },
   {
      "GoBack" : "1",
      "longitude" : "120.68618",
      "outDis" : "50",
      "Id" : "4544",
      "oid" : "7DC3A8756712402DAAD536EBCF94D7B0",
      "districtId" : "1",
      "nameZh" : "臺中公園(雙十路)",
      "pgp" : "0",
      "terminal" : "0",
      "latitude" : "24.14403",
      "inDis" : "50",
      "routeId" : "65",
      "seqNo" : "18"
   },
   {
      "GoBack" : "1",
      "longitude" : "120.68641",
      "outDis" : "50",
      "Id" : "4695",
      "oid" : "6D2F98B1FEE547648CB9CAB96DC29F7D",
      "districtId" : "1",
      "nameZh" : "臺灣體大游泳池",
      "pgp" : "0",
      "terminal" : "0",
      "latitude" : "24.14706",
      "inDis" : "50",
      "routeId" : "65",
      "seqNo" : "19"
   },
   {
      "GoBack" : "1",
      "longitude" : "120.68749",
      "outDis" : "50",
      "Id" : "0149",
      "oid" : "FAEB3B91646B4D0FAAA96588D5DC1BE2",
      "districtId" : "1",
      "nameZh" : "臺中一中",
      "pgp" : "0",
      "terminal" : "0",
      "latitude" : "24.14944",
      "inDis" : "50",
      "routeId" : "65",
      "seqNo" : "20"
   },
   {
      "GoBack" : "1",
      "longitude" : "120.68883",
      "outDis" : "50",
      "Id" : "4694",
      "oid" : "6B6AEA9CFFA84F08A286C747E28657B3",
      "districtId" : "1",
      "nameZh" : "臺灣體大體育場",
      "pgp" : "0",
      "terminal" : "0",
      "latitude" : "24.15262",
      "inDis" : "50",
      "routeId" : "65",
      "seqNo" : "21"
   },
   {
      "GoBack" : "1",
      "longitude" : "120.68824",
      "outDis" : "50",
      "Id" : "0048",
      "oid" : "E1589F8FB14E443EAF23BBB355186CFC",
      "districtId" : "1",
      "nameZh" : "莒光新城",
      "pgp" : "0",
      "terminal" : "0",
      "latitude" : "24.15401",
      "inDis" : "50",
      "routeId" : "65",
      "seqNo" : "22"
   },
   {
      "GoBack" : "1",
      "longitude" : "120.68538",
      "outDis" : "50",
      "Id" : "0203",
      "oid" : "12359",
      "districtId" : "1",
      "nameZh" : "市立殯儀館",
      "pgp" : "0",
      "terminal" : "0",
      "latitude" : "24.15651",
      "inDis" : "50",
      "routeId" : "65",
      "seqNo" : "23"
   },
   {
      "GoBack" : "1",
      "longitude" : "120.6851",
      "outDis" : "50",
      "Id" : "4607",
      "oid" : "026609FDC5D64BE88A71CB2F24E08470",
      "districtId" : "1",
      "nameZh" : "新民高中(崇德路)",
      "pgp" : "0",
      "terminal" : "0",
      "latitude" : "24.15959",
      "inDis" : "50",
      "routeId" : "65",
      "seqNo" : "24"
   },
   {
      "GoBack" : "1",
      "longitude" : "120.68507",
      "outDis" : "50",
      "Id" : "4576",
      "oid" : "868DB5017E0549BA8A8317D15C53FEE1",
      "districtId" : "1",
      "nameZh" : "崇德德化街口",
      "pgp" : "0",
      "terminal" : "0",
      "latitude" : "24.1619",
      "inDis" : "50",
      "routeId" : "65",
      "seqNo" : "25"
   },
   {
      "GoBack" : "1",
      "longitude" : "120.68508",
      "outDis" : "50",
      "Id" : "0098",
      "oid" : "512A85A9DE6A45B58457221D7DD87306",
      "districtId" : "1",
      "nameZh" : "崇德橋",
      "pgp" : "0",
      "terminal" : "0",
      "latitude" : "24.16459",
      "inDis" : "50",
      "routeId" : "65",
      "seqNo" : "26"
   },
   {
      "GoBack" : "1",
      "longitude" : "120.68521",
      "outDis" : "50",
      "Id" : "3511",
      "oid" : "6EA2B12945A642DDA49EFA948ADBACDD",
      "districtId" : "1",
      "nameZh" : "聖德禪寺",
      "pgp" : "0",
      "terminal" : "0",
      "latitude" : "24.16827",
      "inDis" : "50",
      "routeId" : "65",
      "seqNo" : "27"
   },
   {
      "GoBack" : "1",
      "longitude" : "120.68546",
      "outDis" : "50",
      "Id" : "1768",
      "oid" : "EDBBE6CEB3E540C6A2D556B3788689A3",
      "districtId" : "1",
      "nameZh" : "崇德北平路口",
      "pgp" : "0",
      "terminal" : "0",
      "latitude" : "24.17056",
      "inDis" : "50",
      "routeId" : "65",
      "seqNo" : "28"
   },
   {
      "GoBack" : "1",
      "longitude" : "120.68532",
      "outDis" : "50",
      "Id" : "4339",
      "oid" : "7326",
      "districtId" : "1",
      "nameZh" : "崇德文心路口",
      "pgp" : "0",
      "terminal" : "0",
      "latitude" : "24.17172",
      "inDis" : "50",
      "routeId" : "65",
      "seqNo" : "29"
   },
   {
      "GoBack" : "1",
      "longitude" : "120.68567",
      "outDis" : "50",
      "Id" : "0199",
      "oid" : "DED55952B40B4045BF805A10DE87B803",
      "districtId" : "1",
      "nameZh" : "崇德瀋陽路口",
      "pgp" : "0",
      "terminal" : "0",
      "latitude" : "24.17303",
      "inDis" : "50",
      "routeId" : "65",
      "seqNo" : "30"
   },
   {
      "GoBack" : "1",
      "longitude" : "120.6856",
      "outDis" : "50",
      "Id" : "5131",
      "oid" : "306661878",
      "districtId" : "1",
      "nameZh" : "崇德國中(民俗公園)",
      "pgp" : "0",
      "terminal" : "0",
      "latitude" : "24.17523",
      "inDis" : "50",
      "routeId" : "65",
      "seqNo" : "31"
   },
   {
      "GoBack" : "1",
      "longitude" : "120.6858",
      "outDis" : "50",
      "Id" : "0196",
      "oid" : "E145E21F967C4B52B76B1337809347DA",
      "districtId" : "1",
      "nameZh" : "崇德一路口",
      "pgp" : "0",
      "terminal" : "0",
      "latitude" : "24.17675",
      "inDis" : "50",
      "routeId" : "65",
      "seqNo" : "32"
   },
   {
      "GoBack" : "1",
      "longitude" : "120.68599",
      "outDis" : "50",
      "Id" : "0195",
      "oid" : "76146C5721694709AA37B1642524A9C6",
      "districtId" : "1",
      "nameZh" : "崇德五路口",
      "pgp" : "0",
      "terminal" : "0",
      "latitude" : "24.1789",
      "inDis" : "50",
      "routeId" : "65",
      "seqNo" : "33"
   },
   {
      "GoBack" : "1",
      "longitude" : "120.68608",
      "outDis" : "50",
      "Id" : "5387",
      "oid" : "313288983",
      "districtId" : "1",
      "nameZh" : "崇德六路口",
      "pgp" : "0",
      "terminal" : "0",
      "latitude" : "24.18086",
      "inDis" : "50",
      "routeId" : "65",
      "seqNo" : "34"
   },
   {
      "GoBack" : "1",
      "longitude" : "120.68628",
      "outDis" : "50",
      "Id" : "0194",
      "oid" : "B8A7B82F884141E3B7F101A5760702C1",
      "districtId" : "1",
      "nameZh" : "北屯區行政大樓",
      "pgp" : "0",
      "terminal" : "0",
      "latitude" : "24.18258",
      "inDis" : "50",
      "routeId" : "65",
      "seqNo" : "35"
   },
   {
      "GoBack" : "1",
      "longitude" : "120.68631",
      "outDis" : "50",
      "Id" : "1393",
      "oid" : "AC0A160B90BA45509AE3FB75767B71F8",
      "districtId" : "1",
      "nameZh" : "崇德山西路口",
      "pgp" : "0",
      "terminal" : "0",
      "latitude" : "24.18507",
      "inDis" : "50",
      "routeId" : "65",
      "seqNo" : "36"
   },
   {
      "GoBack" : "1",
      "longitude" : "120.68619",
      "outDis" : "50",
      "Id" : "2958",
      "oid" : "B38650F6D9E54C1E841E05929BD8D9B2",
      "districtId" : "1",
      "nameZh" : "崇德九路口",
      "pgp" : "0",
      "terminal" : "0",
      "latitude" : "24.18759",
      "inDis" : "50",
      "routeId" : "65",
      "seqNo" : "37"
   },
   {
      "GoBack" : "1",
      "longitude" : "120.68634",
      "outDis" : "50",
      "Id" : "2959",
      "oid" : "473A37CAF9904D4B827C8F1D764A45A9",
      "districtId" : "1",
      "nameZh" : "崇德十路口",
      "pgp" : "0",
      "terminal" : "0",
      "latitude" : "24.18967",
      "inDis" : "50",
      "routeId" : "65",
      "seqNo" : "38"
   },
   {
      "GoBack" : "1",
      "longitude" : "120.68648",
      "outDis" : "50",
      "Id" : "4252",
      "oid" : "12454",
      "districtId" : "1",
      "nameZh" : "崇德豐樂路口",
      "pgp" : "0",
      "terminal" : "0",
      "latitude" : "24.19325",
      "inDis" : "50",
      "routeId" : "65",
      "seqNo" : "39"
   },
   {
      "GoBack" : "1",
      "longitude" : "120.69101",
      "outDis" : "50",
      "Id" : "4506",
      "oid" : "303797707",
      "districtId" : "1",
      "nameZh" : "豐樂昌平東六路口",
      "pgp" : "0",
      "terminal" : "0",
      "latitude" : "24.1926",
      "inDis" : "50",
      "routeId" : "65",
      "seqNo" : "40"
   },
   {
      "GoBack" : "1",
      "longitude" : "120.69539",
      "outDis" : "50",
      "Id" : "4507",
      "oid" : "303797708",
      "districtId" : "1",
      "nameZh" : "頭張路土地公廟",
      "pgp" : "0",
      "terminal" : "0",
      "latitude" : "24.19403",
      "inDis" : "50",
      "routeId" : "65",
      "seqNo" : "41"
   },
   {
      "GoBack" : "1",
      "longitude" : "120.69876",
      "outDis" : "50",
      "Id" : "4508",
      "oid" : "303797709",
      "districtId" : "1",
      "nameZh" : "頭張公園",
      "pgp" : "0",
      "terminal" : "0",
      "latitude" : "24.19459",
      "inDis" : "50",
      "routeId" : "65",
      "seqNo" : "42"
   },
   {
      "GoBack" : "1",
      "longitude" : "120.70096",
      "outDis" : "50",
      "Id" : "4509",
      "oid" : "306695520",
      "districtId" : "1",
      "nameZh" : "得天宮",
      "pgp" : "0",
      "terminal" : "0",
      "latitude" : "24.19441",
      "inDis" : "50",
      "routeId" : "65",
      "seqNo" : "43"
   },
   {
      "GoBack" : "1",
      "longitude" : "120.70247",
      "outDis" : "50",
      "Id" : "3836",
      "oid" : "7595",
      "districtId" : "1",
      "nameZh" : "頭家厝",
      "pgp" : "0",
      "terminal" : "0",
      "latitude" : "24.1955",
      "inDis" : "50",
      "routeId" : "65",
      "seqNo" : "44"
   },
   {
      "GoBack" : "1",
      "longitude" : "120.70322",
      "outDis" : "50",
      "Id" : "1972",
      "oid" : "310872631",
      "districtId" : "1",
      "nameZh" : "瓦窯",
      "pgp" : "0",
      "terminal" : "0",
      "latitude" : "24.19994",
      "inDis" : "50",
      "routeId" : "65",
      "seqNo" : "45"
   },
   {
      "GoBack" : "1",
      "longitude" : "120.70407",
      "outDis" : "50",
      "Id" : "3567",
      "oid" : "7544",
      "districtId" : "1",
      "nameZh" : "僑忠國小",
      "pgp" : "0",
      "terminal" : "0",
      "latitude" : "24.20323",
      "inDis" : "50",
      "routeId" : "65",
      "seqNo" : "46"
   },
   {
      "GoBack" : "1",
      "longitude" : "120.70465",
      "outDis" : "50",
      "Id" : "4658",
      "oid" : "7281",
      "districtId" : "1",
      "nameZh" : "中山合作街口",
      "pgp" : "0",
      "terminal" : "0",
      "latitude" : "24.20489",
      "inDis" : "50",
      "routeId" : "65",
      "seqNo" : "47"
   },
   {
      "GoBack" : "1",
      "longitude" : "120.70521",
      "outDis" : "50",
      "Id" : "4370",
      "oid" : "303235812",
      "districtId" : "1",
      "nameZh" : "中山圓通南路口",
      "pgp" : "0",
      "terminal" : "0",
      "latitude" : "24.20789",
      "inDis" : "50",
      "routeId" : "65",
      "seqNo" : "48"
   },
   {
      "GoBack" : "1",
      "longitude" : "120.70544",
      "outDis" : "50",
      "Id" : "3742",
      "oid" : "303235814",
      "districtId" : "1",
      "nameZh" : "潭子區公所",
      "pgp" : "0",
      "terminal" : "0",
      "latitude" : "24.21024",
      "inDis" : "50",
      "routeId" : "65",
      "seqNo" : "49"
   },
   {
      "GoBack" : "1",
      "longitude" : "120.70532",
      "outDis" : "50",
      "Id" : "4240",
      "oid" : "13328",
      "districtId" : "1",
      "nameZh" : "潭子火車站",
      "pgp" : "0",
      "terminal" : "0",
      "latitude" : "24.21274",
      "inDis" : "50",
      "routeId" : "65",
      "seqNo" : "50"
   },
   {
      "GoBack" : "1",
      "longitude" : "120.70421",
      "outDis" : "40",
      "Id" : "4235",
      "oid" : "12416",
      "districtId" : "1",
      "nameZh" : "雅潭中山路口",
      "pgp" : "0",
      "terminal" : "0",
      "latitude" : "24.2158",
      "inDis" : "40",
      "routeId" : "65",
      "seqNo" : "51"
   },
   {
      "GoBack" : "1",
      "longitude" : "120.69991",
      "outDis" : "50",
      "Id" : "4242",
      "oid" : "13333",
      "districtId" : "1",
      "nameZh" : "潭秀國中",
      "pgp" : "0",
      "terminal" : "0",
      "latitude" : "24.21634",
      "inDis" : "50",
      "routeId" : "65",
      "seqNo" : "52"
   },
   {
      "GoBack" : "1",
      "longitude" : "120.69414",
      "outDis" : "50",
      "Id" : "4222",
      "oid" : "303337559",
      "districtId" : "1",
      "nameZh" : "北基加油站雅潭站 ",
      "pgp" : "0",
      "terminal" : "0",
      "latitude" : "24.216",
      "inDis" : "50",
      "routeId" : "65",
      "seqNo" : "53"
   },
   {
      "GoBack" : "1",
      "longitude" : "120.69134",
      "outDis" : "50",
      "Id" : "0291",
      "oid" : "318434403",
      "districtId" : "1",
      "nameZh" : "大豐雅潭路口",
      "pgp" : "0",
      "terminal" : "0",
      "latitude" : "24.21645",
      "inDis" : "50",
      "routeId" : "65",
      "seqNo" : "54"
   },
   {
      "GoBack" : "1",
      "longitude" : "120.69197",
      "outDis" : "50",
      "Id" : "5604",
      "oid" : "129901833",
      "districtId" : "1",
      "nameZh" : "大豐路2段110巷口",
      "pgp" : "0",
      "terminal" : "0",
      "latitude" : "24.21903",
      "inDis" : "50",
      "routeId" : "65",
      "seqNo" : "55"
   },
   {
      "GoBack" : "1",
      "longitude" : "120.69226",
      "outDis" : "50",
      "Id" : "0347",
      "oid" : "306695524",
      "districtId" : "1",
      "nameZh" : "土地公廟",
      "pgp" : "0",
      "terminal" : "0",
      "latitude" : "24.22044",
      "inDis" : "50",
      "routeId" : "65",
      "seqNo" : "56"
   },
   {
      "GoBack" : "1",
      "longitude" : "120.69234",
      "outDis" : "50",
      "Id" : "4741",
      "oid" : "306695526",
      "districtId" : "1",
      "nameZh" : "矽品公司",
      "pgp" : "0",
      "terminal" : "0",
      "latitude" : "24.22439",
      "inDis" : "50",
      "routeId" : "65",
      "seqNo" : "57"
   },
   {
      "GoBack" : "1",
      "longitude" : "120.69026",
      "outDis" : "50",
      "Id" : "4743",
      "oid" : "306695529",
      "districtId" : "1",
      "nameZh" : "崇德潭富路口",
      "pgp" : "0",
      "terminal" : "0",
      "latitude" : "24.22514",
      "inDis" : "50",
      "routeId" : "65",
      "seqNo" : "58"
   },
   {
      "GoBack" : "1",
      "longitude" : "120.69437",
      "outDis" : "50",
      "Id" : "4744",
      "oid" : "306695530",
      "districtId" : "1",
      "nameZh" : "潭雅神綠園道",
      "pgp" : "0",
      "terminal" : "0",
      "latitude" : "24.23234",
      "inDis" : "50",
      "routeId" : "65",
      "seqNo" : "59"
   },
   {
      "GoBack" : "2",
      "longitude" : "120.69437",
      "outDis" : "50",
      "Id" : "4744",
      "oid" : "306695530",
      "districtId" : "1",
      "nameZh" : "潭雅神綠園道",
      "pgp" : "0",
      "terminal" : "0",
      "latitude" : "24.23234",
      "inDis" : "50",
      "routeId" : "65",
      "seqNo" : "1"
   },
   {
      "GoBack" : "2",
      "longitude" : "120.69276",
      "outDis" : "50",
      "Id" : "5605",
      "oid" : "129901993",
      "districtId" : "1",
      "nameZh" : "大豐路3段230巷口",
      "pgp" : "0",
      "terminal" : "0",
      "latitude" : "24.22868",
      "inDis" : "50",
      "routeId" : "65",
      "seqNo" : "2"
   },
   {
      "GoBack" : "2",
      "longitude" : "120.69244",
      "outDis" : "50",
      "Id" : "4742",
      "oid" : "306695528",
      "districtId" : "1",
      "nameZh" : "大豐潭富路口",
      "pgp" : "0",
      "terminal" : "0",
      "latitude" : "24.22527",
      "inDis" : "50",
      "routeId" : "65",
      "seqNo" : "3"
   },
   {
      "GoBack" : "2",
      "longitude" : "120.69227",
      "outDis" : "50",
      "Id" : "4741",
      "oid" : "306695527",
      "districtId" : "1",
      "nameZh" : "矽品公司",
      "pgp" : "0",
      "terminal" : "0",
      "latitude" : "24.22375",
      "inDis" : "50",
      "routeId" : "65",
      "seqNo" : "4"
   },
   {
      "GoBack" : "2",
      "longitude" : "120.69221",
      "outDis" : "50",
      "Id" : "0347",
      "oid" : "306695525",
      "districtId" : "1",
      "nameZh" : "土地公廟",
      "pgp" : "0",
      "terminal" : "0",
      "latitude" : "24.22075",
      "inDis" : "50",
      "routeId" : "65",
      "seqNo" : "5"
   },
   {
      "GoBack" : "2",
      "longitude" : "120.69192",
      "outDis" : "50",
      "Id" : "5604",
      "oid" : "306695523",
      "districtId" : "1",
      "nameZh" : "大豐路2段110巷口",
      "pgp" : "0",
      "terminal" : "0",
      "latitude" : "24.21873",
      "inDis" : "50",
      "routeId" : "65",
      "seqNo" : "6"
   },
   {
      "GoBack" : "2",
      "longitude" : "120.69134",
      "outDis" : "50",
      "Id" : "0291",
      "oid" : "318434403",
      "districtId" : "1",
      "nameZh" : "大豐雅潭路口",
      "pgp" : "0",
      "terminal" : "0",
      "latitude" : "24.21645",
      "inDis" : "50",
      "routeId" : "65",
      "seqNo" : "7"
   },
   {
      "GoBack" : "2",
      "longitude" : "120.69414",
      "outDis" : "50",
      "Id" : "4222",
      "oid" : "303337559",
      "districtId" : "1",
      "nameZh" : "北基加油站雅潭站 ",
      "pgp" : "0",
      "terminal" : "0",
      "latitude" : "24.216",
      "inDis" : "50",
      "routeId" : "65",
      "seqNo" : "8"
   },
   {
      "GoBack" : "2",
      "longitude" : "120.69991",
      "outDis" : "50",
      "Id" : "4242",
      "oid" : "13333",
      "districtId" : "1",
      "nameZh" : "潭秀國中",
      "pgp" : "0",
      "terminal" : "0",
      "latitude" : "24.21634",
      "inDis" : "50",
      "routeId" : "65",
      "seqNo" : "9"
   },
   {
      "GoBack" : "2",
      "longitude" : "120.70421",
      "outDis" : "40",
      "Id" : "4235",
      "oid" : "12416",
      "districtId" : "1",
      "nameZh" : "雅潭中山路口",
      "pgp" : "0",
      "terminal" : "0",
      "latitude" : "24.2158",
      "inDis" : "40",
      "routeId" : "65",
      "seqNo" : "10"
   },
   {
      "GoBack" : "2",
      "longitude" : "120.7051",
      "outDis" : "50",
      "Id" : "3740",
      "oid" : "13327",
      "districtId" : "1",
      "nameZh" : "潭子",
      "pgp" : "0",
      "terminal" : "0",
      "latitude" : "24.21499",
      "inDis" : "50",
      "routeId" : "65",
      "seqNo" : "11"
   },
   {
      "GoBack" : "2",
      "longitude" : "120.70542",
      "outDis" : "50",
      "Id" : "4240",
      "oid" : "13329",
      "districtId" : "1",
      "nameZh" : "潭子火車站",
      "pgp" : "0",
      "terminal" : "0",
      "latitude" : "24.2126",
      "inDis" : "50",
      "routeId" : "65",
      "seqNo" : "12"
   },
   {
      "GoBack" : "2",
      "longitude" : "120.70537",
      "outDis" : "50",
      "Id" : "3742",
      "oid" : "303235815",
      "districtId" : "1",
      "nameZh" : "潭子區公所",
      "pgp" : "0",
      "terminal" : "0",
      "latitude" : "24.21022",
      "inDis" : "50",
      "routeId" : "65",
      "seqNo" : "13"
   },
   {
      "GoBack" : "2",
      "longitude" : "120.70526",
      "outDis" : "50",
      "Id" : "4370",
      "oid" : "303235813",
      "districtId" : "1",
      "nameZh" : "中山圓通南路口",
      "pgp" : "0",
      "terminal" : "0",
      "latitude" : "24.20789",
      "inDis" : "50",
      "routeId" : "65",
      "seqNo" : "14"
   },
   {
      "GoBack" : "2",
      "longitude" : "120.70458",
      "outDis" : "50",
      "Id" : "4658",
      "oid" : "7280",
      "districtId" : "1",
      "nameZh" : "中山合作街口",
      "pgp" : "0",
      "terminal" : "0",
      "latitude" : "24.20519",
      "inDis" : "50",
      "routeId" : "65",
      "seqNo" : "15"
   },
   {
      "GoBack" : "2",
      "longitude" : "120.70407",
      "outDis" : "50",
      "Id" : "3567",
      "oid" : "7544",
      "districtId" : "1",
      "nameZh" : "僑忠國小",
      "pgp" : "0",
      "terminal" : "0",
      "latitude" : "24.20323",
      "inDis" : "50",
      "routeId" : "65",
      "seqNo" : "16"
   },
   {
      "GoBack" : "2",
      "longitude" : "120.70322",
      "outDis" : "50",
      "Id" : "1972",
      "oid" : "310872631",
      "districtId" : "1",
      "nameZh" : "瓦窯",
      "pgp" : "0",
      "terminal" : "0",
      "latitude" : "24.19994",
      "inDis" : "50",
      "routeId" : "65",
      "seqNo" : "17"
   },
   {
      "GoBack" : "2",
      "longitude" : "120.70247",
      "outDis" : "50",
      "Id" : "3836",
      "oid" : "7595",
      "districtId" : "1",
      "nameZh" : "頭家厝",
      "pgp" : "0",
      "terminal" : "0",
      "latitude" : "24.1955",
      "inDis" : "50",
      "routeId" : "65",
      "seqNo" : "18"
   },
   {
      "GoBack" : "2",
      "longitude" : "120.70095",
      "outDis" : "50",
      "Id" : "4509",
      "oid" : "306695521",
      "districtId" : "1",
      "nameZh" : "得天宮",
      "pgp" : "0",
      "terminal" : "0",
      "latitude" : "24.19443",
      "inDis" : "50",
      "routeId" : "65",
      "seqNo" : "19"
   },
   {
      "GoBack" : "2",
      "longitude" : "120.69876",
      "outDis" : "50",
      "Id" : "4508",
      "oid" : "303797709",
      "districtId" : "1",
      "nameZh" : "頭張公園",
      "pgp" : "0",
      "terminal" : "0",
      "latitude" : "24.19459",
      "inDis" : "50",
      "routeId" : "65",
      "seqNo" : "20"
   },
   {
      "GoBack" : "2",
      "longitude" : "120.69539",
      "outDis" : "50",
      "Id" : "4507",
      "oid" : "303797708",
      "districtId" : "1",
      "nameZh" : "頭張路土地公廟",
      "pgp" : "0",
      "terminal" : "0",
      "latitude" : "24.19403",
      "inDis" : "50",
      "routeId" : "65",
      "seqNo" : "21"
   },
   {
      "GoBack" : "2",
      "longitude" : "120.69101",
      "outDis" : "50",
      "Id" : "4506",
      "oid" : "303797707",
      "districtId" : "1",
      "nameZh" : "豐樂昌平東六路口",
      "pgp" : "0",
      "terminal" : "0",
      "latitude" : "24.1926",
      "inDis" : "50",
      "routeId" : "65",
      "seqNo" : "22"
   },
   {
      "GoBack" : "2",
      "longitude" : "120.68648",
      "outDis" : "50",
      "Id" : "4252",
      "oid" : "12454",
      "districtId" : "1",
      "nameZh" : "崇德豐樂路口",
      "pgp" : "0",
      "terminal" : "0",
      "latitude" : "24.19325",
      "inDis" : "50",
      "routeId" : "65",
      "seqNo" : "23"
   },
   {
      "GoBack" : "2",
      "longitude" : "120.68624",
      "outDis" : "50",
      "Id" : "2959",
      "oid" : "830DE29F4F834CA0AAE94128FD06134E",
      "districtId" : "1",
      "nameZh" : "崇德十路口",
      "pgp" : "0",
      "terminal" : "0",
      "latitude" : "24.1894",
      "inDis" : "50",
      "routeId" : "65",
      "seqNo" : "24"
   },
   {
      "GoBack" : "2",
      "longitude" : "120.68622",
      "outDis" : "50",
      "Id" : "2958",
      "oid" : "DD047587CF8A4CD88A0A329373FBC18B",
      "districtId" : "1",
      "nameZh" : "崇德九路口",
      "pgp" : "0",
      "terminal" : "0",
      "latitude" : "24.18756",
      "inDis" : "50",
      "routeId" : "65",
      "seqNo" : "25"
   },
   {
      "GoBack" : "2",
      "longitude" : "120.68613",
      "outDis" : "50",
      "Id" : "1393",
      "oid" : "3766644E997346DD936E532BA54998D4",
      "districtId" : "1",
      "nameZh" : "崇德山西路口",
      "pgp" : "0",
      "terminal" : "0",
      "latitude" : "24.1848",
      "inDis" : "50",
      "routeId" : "65",
      "seqNo" : "26"
   },
   {
      "GoBack" : "2",
      "longitude" : "120.68611",
      "outDis" : "50",
      "Id" : "0194",
      "oid" : "65B6CDF2371C4D37973B93467FC23177",
      "districtId" : "1",
      "nameZh" : "北屯區行政大樓",
      "pgp" : "0",
      "terminal" : "0",
      "latitude" : "24.1826",
      "inDis" : "50",
      "routeId" : "65",
      "seqNo" : "27"
   },
   {
      "GoBack" : "2",
      "longitude" : "120.68608",
      "outDis" : "50",
      "Id" : "5387",
      "oid" : "313288983",
      "districtId" : "1",
      "nameZh" : "崇德六路口",
      "pgp" : "0",
      "terminal" : "0",
      "latitude" : "24.18086",
      "inDis" : "50",
      "routeId" : "65",
      "seqNo" : "28"
   },
   {
      "GoBack" : "2",
      "longitude" : "120.68594",
      "outDis" : "50",
      "Id" : "0195",
      "oid" : "C2C765F5D02C4069B643EFB2377B173F",
      "districtId" : "1",
      "nameZh" : "崇德五路口",
      "pgp" : "0",
      "terminal" : "0",
      "latitude" : "24.17875",
      "inDis" : "50",
      "routeId" : "65",
      "seqNo" : "29"
   },
   {
      "GoBack" : "2",
      "longitude" : "120.68586",
      "outDis" : "50",
      "Id" : "0196",
      "oid" : "B5EF354843C043609B55DBD0205369A4",
      "districtId" : "1",
      "nameZh" : "崇德一路口",
      "pgp" : "0",
      "terminal" : "0",
      "latitude" : "24.17695",
      "inDis" : "50",
      "routeId" : "65",
      "seqNo" : "30"
   },
   {
      "GoBack" : "2",
      "longitude" : "120.68568",
      "outDis" : "50",
      "Id" : "0197",
      "oid" : "C3045A9A8584470EA266B1F75191EE6A",
      "districtId" : "1",
      "nameZh" : "民俗公園",
      "pgp" : "0",
      "terminal" : "0",
      "latitude" : "24.17548",
      "inDis" : "50",
      "routeId" : "65",
      "seqNo" : "31"
   },
   {
      "GoBack" : "2",
      "longitude" : "120.68547",
      "outDis" : "50",
      "Id" : "0199",
      "oid" : "4F149E8EB38247C792FF1A5E5C463A5D",
      "districtId" : "1",
      "nameZh" : "崇德瀋陽路口",
      "pgp" : "0",
      "terminal" : "0",
      "latitude" : "24.17302",
      "inDis" : "50",
      "routeId" : "65",
      "seqNo" : "32"
   },
   {
      "GoBack" : "2",
      "longitude" : "120.68532",
      "outDis" : "50",
      "Id" : "4339",
      "oid" : "7326",
      "districtId" : "1",
      "nameZh" : "崇德文心路口",
      "pgp" : "0",
      "terminal" : "0",
      "latitude" : "24.17172",
      "inDis" : "50",
      "routeId" : "65",
      "seqNo" : "33"
   },
   {
      "GoBack" : "2",
      "longitude" : "120.68531",
      "outDis" : "50",
      "Id" : "1768",
      "oid" : "7F112A5CB1264121B528760673E0A695",
      "districtId" : "1",
      "nameZh" : "崇德北平路口",
      "pgp" : "0",
      "terminal" : "0",
      "latitude" : "24.17055",
      "inDis" : "50",
      "routeId" : "65",
      "seqNo" : "34"
   },
   {
      "GoBack" : "2",
      "longitude" : "120.68522",
      "outDis" : "50",
      "Id" : "3511",
      "oid" : "085095BF32974C0F976258D5197E08B7",
      "districtId" : "1",
      "nameZh" : "聖德禪寺",
      "pgp" : "0",
      "terminal" : "0",
      "latitude" : "24.16814",
      "inDis" : "50",
      "routeId" : "65",
      "seqNo" : "35"
   },
   {
      "GoBack" : "2",
      "longitude" : "120.68497",
      "outDis" : "50",
      "Id" : "0098",
      "oid" : "8E92985867FF4179AD11832AEBC73B03",
      "districtId" : "1",
      "nameZh" : "崇德橋",
      "pgp" : "0",
      "terminal" : "0",
      "latitude" : "24.16552",
      "inDis" : "50",
      "routeId" : "65",
      "seqNo" : "36"
   },
   {
      "GoBack" : "2",
      "longitude" : "120.6851",
      "outDis" : "50",
      "Id" : "4576",
      "oid" : "611123DB3ADA42E08052187FB9D7E5FC",
      "districtId" : "1",
      "nameZh" : "崇德德化街口",
      "pgp" : "0",
      "terminal" : "0",
      "latitude" : "24.1617",
      "inDis" : "50",
      "routeId" : "65",
      "seqNo" : "37"
   },
   {
      "GoBack" : "2",
      "longitude" : "120.68483",
      "outDis" : "50",
      "Id" : "4607",
      "oid" : "1D3F4D0CD3CF4AFB84A736E9D2E65456",
      "districtId" : "1",
      "nameZh" : "新民高中(崇德路)",
      "pgp" : "0",
      "terminal" : "0",
      "latitude" : "24.15976",
      "inDis" : "50",
      "routeId" : "65",
      "seqNo" : "38"
   },
   {
      "GoBack" : "2",
      "longitude" : "120.68538",
      "outDis" : "50",
      "Id" : "0203",
      "oid" : "12359",
      "districtId" : "1",
      "nameZh" : "市立殯儀館",
      "pgp" : "0",
      "terminal" : "0",
      "latitude" : "24.15651",
      "inDis" : "50",
      "routeId" : "65",
      "seqNo" : "39"
   },
   {
      "GoBack" : "2",
      "longitude" : "120.68784",
      "outDis" : "50",
      "Id" : "0048",
      "oid" : "DA69421FB9624290A8BCFB434C0D21A5",
      "districtId" : "1",
      "nameZh" : "莒光新城",
      "pgp" : "0",
      "terminal" : "0",
      "latitude" : "24.15402",
      "inDis" : "50",
      "routeId" : "65",
      "seqNo" : "40"
   },
   {
      "GoBack" : "2",
      "longitude" : "120.68846",
      "outDis" : "50",
      "Id" : "4694",
      "oid" : "EEF78EEE5CC941E6952BF2BD36D42419",
      "districtId" : "1",
      "nameZh" : "臺灣體大體育場",
      "pgp" : "0",
      "terminal" : "0",
      "latitude" : "24.15206",
      "inDis" : "50",
      "routeId" : "65",
      "seqNo" : "41"
   },
   {
      "GoBack" : "2",
      "longitude" : "120.68741",
      "outDis" : "50",
      "Id" : "0149",
      "oid" : "278E1FB62D804A70A013277F63CAC4B5",
      "districtId" : "1",
      "nameZh" : "臺中一中",
      "pgp" : "0",
      "terminal" : "0",
      "latitude" : "24.14956",
      "inDis" : "50",
      "routeId" : "65",
      "seqNo" : "42"
   },
   {
      "GoBack" : "2",
      "longitude" : "120.68621",
      "outDis" : "50",
      "Id" : "4695",
      "oid" : "C6970071BE9043F1A929EEA864AF6194",
      "districtId" : "1",
      "nameZh" : "臺灣體大游泳池",
      "pgp" : "0",
      "terminal" : "0",
      "latitude" : "24.14689",
      "inDis" : "50",
      "routeId" : "65",
      "seqNo" : "43"
   },
   {
      "GoBack" : "2",
      "longitude" : "120.68585",
      "outDis" : "50",
      "Id" : "4544",
      "oid" : "5EA04143AB754BB5887BFFE166B4022D",
      "districtId" : "1",
      "nameZh" : "臺中公園(雙十路)",
      "pgp" : "0",
      "terminal" : "0",
      "latitude" : "24.14424",
      "inDis" : "50",
      "routeId" : "65",
      "seqNo" : "44"
   },
   {
      "GoBack" : "2",
      "longitude" : "120.68575",
      "outDis" : "50",
      "Id" : "0402",
      "oid" : "F13714E6E7D14338B21630DDF62853EF",
      "districtId" : "1",
      "nameZh" : "干城站",
      "pgp" : "0",
      "terminal" : "0",
      "latitude" : "24.14104",
      "inDis" : "50",
      "routeId" : "65",
      "seqNo" : "45"
   },
   {
      "GoBack" : "2",
      "longitude" : "120.68526",
      "outDis" : "75",
      "Id" : "1824",
      "oid" : "173770913",
      "districtId" : "1",
      "nameZh" : "臺中火車站",
      "pgp" : "0",
      "terminal" : "0",
      "latitude" : "24.13809",
      "inDis" : "75",
      "routeId" : "65",
      "seqNo" : "46"
   },
   {
      "GoBack" : "2",
      "longitude" : "120.68367",
      "outDis" : "50",
      "Id" : "0049",
      "oid" : "969084170705431BB407E5ECA8016ECC",
      "districtId" : "1",
      "nameZh" : "第三市場(臺中家商)",
      "pgp" : "0",
      "terminal" : "0",
      "latitude" : "24.13276",
      "inDis" : "50",
      "routeId" : "65",
      "seqNo" : "47"
   },
   {
      "GoBack" : "2",
      "longitude" : "120.68495",
      "outDis" : "50",
      "Id" : "0257",
      "oid" : "8D78504922FB4DE5B9044A37336B24CE",
      "districtId" : "1",
      "nameZh" : "臺中國小",
      "pgp" : "0",
      "terminal" : "0",
      "latitude" : "24.13045",
      "inDis" : "50",
      "routeId" : "65",
      "seqNo" : "48"
   },
   {
      "GoBack" : "2",
      "longitude" : "120.68441",
      "outDis" : "50",
      "Id" : "5607",
      "oid" : "65FD256B0CA44054A1479B565251A060",
      "districtId" : "1",
      "nameZh" : "興大附農(臺中路)",
      "pgp" : "0",
      "terminal" : "0",
      "latitude" : "24.12746",
      "inDis" : "50",
      "routeId" : "65",
      "seqNo" : "49"
   },
   {
      "GoBack" : "2",
      "longitude" : "120.68364",
      "outDis" : "50",
      "Id" : "0255",
      "oid" : "19145883EF43492CAD662BE386686B0D",
      "districtId" : "1",
      "nameZh" : "南門仔",
      "pgp" : "0",
      "terminal" : "0",
      "latitude" : "24.12455",
      "inDis" : "50",
      "routeId" : "65",
      "seqNo" : "50"
   },
   {
      "GoBack" : "2",
      "longitude" : "120.68407",
      "outDis" : "50",
      "Id" : "0254",
      "oid" : "A2B03B11C24E473BA88F911A6F335234",
      "districtId" : "1",
      "nameZh" : "明德高中",
      "pgp" : "0",
      "terminal" : "0",
      "latitude" : "24.1228",
      "inDis" : "50",
      "routeId" : "65",
      "seqNo" : "51"
   },
   {
      "GoBack" : "2",
      "longitude" : "120.68152",
      "outDis" : "50",
      "Id" : "5598",
      "oid" : "846221AEEE2D49E983BA28F558316B56",
      "districtId" : "1",
      "nameZh" : "興大二村",
      "pgp" : "0",
      "terminal" : "0",
      "latitude" : "24.12245",
      "inDis" : "50",
      "routeId" : "65",
      "seqNo" : "52"
   },
   {
      "GoBack" : "2",
      "longitude" : "120.67925",
      "outDis" : "50",
      "Id" : "4347",
      "oid" : "FFADDB58C7DD4E5C9DF0726DEE651794",
      "districtId" : "1",
      "nameZh" : "中興大學(國光路)",
      "pgp" : "0",
      "terminal" : "0",
      "latitude" : "24.12135",
      "inDis" : "50",
      "routeId" : "65",
      "seqNo" : "53"
   },
   {
      "GoBack" : "2",
      "longitude" : "120.67114",
      "outDis" : "50",
      "Id" : "5109",
      "oid" : "CF1AC8734EE54F679F63DBB7E8A04C08",
      "districtId" : "1",
      "nameZh" : "忠明南五權南路口",
      "pgp" : "0",
      "terminal" : "0",
      "latitude" : "24.11918",
      "inDis" : "50",
      "routeId" : "65",
      "seqNo" : "54"
   },
   {
      "GoBack" : "2",
      "longitude" : "120.66951",
      "outDis" : "50",
      "Id" : "2914",
      "oid" : "157219F43B5B4FBCA8D93CA24634CCA8",
      "districtId" : "1",
      "nameZh" : "健康公園",
      "pgp" : "0",
      "terminal" : "0",
      "latitude" : "24.11927",
      "inDis" : "50",
      "routeId" : "65",
      "seqNo" : "55"
   },
   {
      "GoBack" : "2",
      "longitude" : "120.66685",
      "outDis" : "50",
      "Id" : "2582",
      "oid" : "0630096845154B11B160AD0C2FF7A518",
      "districtId" : "1",
      "nameZh" : "南和里",
      "pgp" : "0",
      "terminal" : "0",
      "latitude" : "24.11741",
      "inDis" : "50",
      "routeId" : "65",
      "seqNo" : "56"
   },
   {
      "GoBack" : "2",
      "longitude" : "120.66682",
      "outDis" : "50",
      "Id" : "4617",
      "oid" : "167EAFFDACC74DAFBE161DACF0499BED",
      "districtId" : "1",
      "nameZh" : "僑泰中學(美村南路)",
      "pgp" : "0",
      "terminal" : "0",
      "latitude" : "24.11465",
      "inDis" : "50",
      "routeId" : "65",
      "seqNo" : "57"
   },
   {
      "GoBack" : "2",
      "longitude" : "120.66527",
      "outDis" : "50",
      "Id" : "4258",
      "oid" : "13EDBBC2253249FF8A56F816918F06C9",
      "districtId" : "1",
      "nameZh" : "工學一街口",
      "pgp" : "0",
      "terminal" : "0",
      "latitude" : "24.11397",
      "inDis" : "50",
      "routeId" : "65",
      "seqNo" : "58"
   },
   {
      "GoBack" : "2",
      "longitude" : "120.66242",
      "outDis" : "50",
      "Id" : "4537",
      "oid" : "13C06345D3CC4B7480E50302FF7AAAB4",
      "districtId" : "1",
      "nameZh" : "臺中高工(高工路)",
      "pgp" : "0",
      "terminal" : "0",
      "latitude" : "24.11324",
      "inDis" : "50",
      "routeId" : "65",
      "seqNo" : "59"
   },
   {
      "GoBack" : "2",
      "longitude" : "120.66048",
      "outDis" : "50",
      "Id" : "5474",
      "oid" : "314316879",
      "districtId" : "1",
      "nameZh" : "臺中高工(工學六街)",
      "pgp" : "0",
      "terminal" : "0",
      "latitude" : "24.11667",
      "inDis" : "50",
      "routeId" : "65",
      "seqNo" : "60"
   },
   {
      "GoBack" : "2",
      "longitude" : "120.66348",
      "outDis" : "50",
      "Id" : "0181",
      "oid" : "7116F6658BE4453CA28D82010A10E83E",
      "districtId" : "1",
      "nameZh" : "南區公所",
      "pgp" : "0",
      "terminal" : "0",
      "latitude" : "24.11695",
      "inDis" : "50",
      "routeId" : "65",
      "seqNo" : "61"
   }
]
