[
   {
      "GoBack" : "1",
      "longitude" : "120.72154",
      "outDis" : "70",
      "Id" : "3935",
      "oid" : "6693",
      "districtId" : "1",
      "nameZh" : "豐原",
      "pgp" : "0",
      "terminal" : "0",
      "latitude" : "24.2538",
      "inDis" : "70",
      "routeId" : "213",
      "seqNo" : "1"
   },
   {
      "GoBack" : "1",
      "longitude" : "120.71851",
      "outDis" : "50",
      "Id" : "3343",
      "oid" : "6396",
      "districtId" : "1",
      "nameZh" : "媽祖廟",
      "pgp" : "0",
      "terminal" : "0",
      "latitude" : "24.25157",
      "inDis" : "50",
      "routeId" : "213",
      "seqNo" : "2"
   },
   {
      "GoBack" : "1",
      "longitude" : "120.71612",
      "outDis" : "50",
      "Id" : "2097",
      "oid" : "5710",
      "districtId" : "1",
      "nameZh" : "圳寮口",
      "pgp" : "0",
      "terminal" : "0",
      "latitude" : "24.25276",
      "inDis" : "50",
      "routeId" : "213",
      "seqNo" : "3"
   },
   {
      "GoBack" : "1",
      "longitude" : "120.71866",
      "outDis" : "50",
      "Id" : "1269",
      "oid" : "5212",
      "districtId" : "1",
      "nameZh" : "大湳里",
      "pgp" : "0",
      "terminal" : "0",
      "latitude" : "24.25666",
      "inDis" : "50",
      "routeId" : "213",
      "seqNo" : "4"
   },
   {
      "GoBack" : "1",
      "longitude" : "120.71947",
      "outDis" : "50",
      "Id" : "4493",
      "oid" : "13860",
      "districtId" : "1",
      "nameZh" : "新惠生醫院",
      "pgp" : "0",
      "terminal" : "0",
      "latitude" : "24.25808",
      "inDis" : "50",
      "routeId" : "213",
      "seqNo" : "5"
   },
   {
      "GoBack" : "1",
      "longitude" : "120.71985",
      "outDis" : "50",
      "Id" : "4503",
      "oid" : "303690761",
      "districtId" : "1",
      "nameZh" : "豐原國中",
      "pgp" : "0",
      "terminal" : "0",
      "latitude" : "24.26141",
      "inDis" : "50",
      "routeId" : "213",
      "seqNo" : "6"
   },
   {
      "GoBack" : "1",
      "longitude" : "120.72039",
      "outDis" : "50",
      "Id" : "3356",
      "oid" : "6405",
      "districtId" : "1",
      "nameZh" : "慈興宮",
      "pgp" : "0",
      "terminal" : "0",
      "latitude" : "24.26524",
      "inDis" : "50",
      "routeId" : "213",
      "seqNo" : "7"
   },
   {
      "GoBack" : "1",
      "longitude" : "120.72113",
      "outDis" : "50",
      "Id" : "3541",
      "oid" : "6508",
      "districtId" : "1",
      "nameZh" : "道班前",
      "pgp" : "0",
      "terminal" : "0",
      "latitude" : "24.26954",
      "inDis" : "50",
      "routeId" : "213",
      "seqNo" : "8"
   },
   {
      "GoBack" : "1",
      "longitude" : "120.7218",
      "outDis" : "50",
      "Id" : "3527",
      "oid" : "6503",
      "districtId" : "1",
      "nameZh" : "農會事業場",
      "pgp" : "0",
      "terminal" : "0",
      "latitude" : "24.27191",
      "inDis" : "50",
      "routeId" : "213",
      "seqNo" : "9"
   },
   {
      "GoBack" : "1",
      "longitude" : "120.72211",
      "outDis" : "50",
      "Id" : "3470",
      "oid" : "6481",
      "districtId" : "1",
      "nameZh" : "溪底",
      "pgp" : "0",
      "terminal" : "0",
      "latitude" : "24.27567",
      "inDis" : "50",
      "routeId" : "213",
      "seqNo" : "10"
   },
   {
      "GoBack" : "1",
      "longitude" : "120.72285",
      "outDis" : "50",
      "Id" : "1911",
      "oid" : "5605",
      "districtId" : "1",
      "nameZh" : "正隆紙廠",
      "pgp" : "0",
      "terminal" : "0",
      "latitude" : "24.28434",
      "inDis" : "50",
      "routeId" : "213",
      "seqNo" : "11"
   },
   {
      "GoBack" : "1",
      "longitude" : "120.72322",
      "outDis" : "50",
      "Id" : "2374",
      "oid" : "5874",
      "districtId" : "1",
      "nameZh" : "枋寮",
      "pgp" : "0",
      "terminal" : "0",
      "latitude" : "24.28785",
      "inDis" : "50",
      "routeId" : "213",
      "seqNo" : "12"
   },
   {
      "GoBack" : "1",
      "longitude" : "120.72373",
      "outDis" : "50",
      "Id" : "0987",
      "oid" : "5025",
      "districtId" : "1",
      "nameZh" : "七星農場",
      "pgp" : "0",
      "terminal" : "0",
      "latitude" : "24.2933",
      "inDis" : "50",
      "routeId" : "213",
      "seqNo" : "13"
   },
   {
      "GoBack" : "1",
      "longitude" : "120.72363",
      "outDis" : "50",
      "Id" : "2898",
      "oid" : "6164",
      "districtId" : "1",
      "nameZh" : "馬場入口",
      "pgp" : "0",
      "terminal" : "0",
      "latitude" : "24.29812",
      "inDis" : "50",
      "routeId" : "213",
      "seqNo" : "14"
   },
   {
      "GoBack" : "1",
      "longitude" : "120.7233",
      "outDis" : "50",
      "Id" : "1737",
      "oid" : "5500",
      "districtId" : "1",
      "nameZh" : "牛稠坑",
      "pgp" : "0",
      "terminal" : "0",
      "latitude" : "24.29968",
      "inDis" : "50",
      "routeId" : "213",
      "seqNo" : "15"
   },
   {
      "GoBack" : "1",
      "longitude" : "120.72242",
      "outDis" : "50",
      "Id" : "2592",
      "oid" : "5999",
      "districtId" : "1",
      "nameZh" : "南后里",
      "pgp" : "0",
      "terminal" : "0",
      "latitude" : "24.30335",
      "inDis" : "50",
      "routeId" : "213",
      "seqNo" : "16"
   },
   {
      "GoBack" : "1",
      "longitude" : "120.72203",
      "outDis" : "50",
      "Id" : "2991",
      "oid" : "6202",
      "districtId" : "1",
      "nameZh" : "啟明學校",
      "pgp" : "0",
      "terminal" : "0",
      "latitude" : "24.30511",
      "inDis" : "50",
      "routeId" : "213",
      "seqNo" : "17"
   },
   {
      "GoBack" : "1",
      "longitude" : "120.72164",
      "outDis" : "50",
      "Id" : "1169",
      "oid" : "5132",
      "districtId" : "1",
      "nameZh" : "下后里",
      "pgp" : "0",
      "terminal" : "0",
      "latitude" : "24.30903",
      "inDis" : "50",
      "routeId" : "213",
      "seqNo" : "18"
   },
   {
      "GoBack" : "1",
      "longitude" : "120.71765",
      "outDis" : "50",
      "Id" : "2651",
      "oid" : "6026",
      "districtId" : "1",
      "nameZh" : "后里電信局",
      "pgp" : "0",
      "terminal" : "0",
      "latitude" : "24.30969",
      "inDis" : "50",
      "routeId" : "213",
      "seqNo" : "19"
   },
   {
      "GoBack" : "1",
      "longitude" : "120.71645",
      "outDis" : "50",
      "Id" : "4453",
      "oid" : "5459",
      "districtId" : "1",
      "nameZh" : "民生文明路口",
      "pgp" : "0",
      "terminal" : "0",
      "latitude" : "24.30747",
      "inDis" : "50",
      "routeId" : "213",
      "seqNo" : "20"
   },
   {
      "GoBack" : "1",
      "longitude" : "120.7133",
      "outDis" : "50",
      "Id" : "1571",
      "oid" : "5393",
      "districtId" : "1",
      "nameZh" : "內埔市場",
      "pgp" : "0",
      "terminal" : "0",
      "latitude" : "24.30633",
      "inDis" : "50",
      "routeId" : "213",
      "seqNo" : "21"
   },
   {
      "GoBack" : "1",
      "longitude" : "120.7107",
      "outDis" : "50",
      "Id" : "4504",
      "oid" : "303690762",
      "districtId" : "1",
      "nameZh" : "后里區公所",
      "pgp" : "0",
      "terminal" : "0",
      "latitude" : "24.30482",
      "inDis" : "50",
      "routeId" : "213",
      "seqNo" : "22"
   },
   {
      "GoBack" : "1",
      "longitude" : "120.70917",
      "outDis" : "50",
      "Id" : "4449",
      "oid" : "5504",
      "districtId" : "1",
      "nameZh" : "公安主和路口",
      "pgp" : "0",
      "terminal" : "0",
      "latitude" : "24.30554",
      "inDis" : "50",
      "routeId" : "213",
      "seqNo" : "23"
   },
   {
      "GoBack" : "1",
      "longitude" : "120.70587",
      "outDis" : "50",
      "Id" : "3309",
      "oid" : "6381",
      "districtId" : "1",
      "nameZh" : "雅藝公司",
      "pgp" : "0",
      "terminal" : "0",
      "latitude" : "24.30699",
      "inDis" : "50",
      "routeId" : "213",
      "seqNo" : "24"
   },
   {
      "GoBack" : "1",
      "longitude" : "120.69814",
      "outDis" : "50",
      "Id" : "0421",
      "oid" : "5326",
      "districtId" : "1",
      "nameZh" : "中和",
      "pgp" : "0",
      "terminal" : "0",
      "latitude" : "24.31041",
      "inDis" : "50",
      "routeId" : "213",
      "seqNo" : "25"
   },
   {
      "GoBack" : "1",
      "longitude" : "120.69621",
      "outDis" : "50",
      "Id" : "2469",
      "oid" : "5928",
      "districtId" : "1",
      "nameZh" : "松鶴酒莊",
      "pgp" : "0",
      "terminal" : "0",
      "latitude" : "24.31178",
      "inDis" : "50",
      "routeId" : "213",
      "seqNo" : "26"
   },
   {
      "GoBack" : "1",
      "longitude" : "120.6951",
      "outDis" : "50",
      "Id" : "1689",
      "oid" : "5468",
      "districtId" : "1",
      "nameZh" : "月眉糖廠",
      "pgp" : "0",
      "terminal" : "0",
      "latitude" : "24.31351",
      "inDis" : "50",
      "routeId" : "213",
      "seqNo" : "27"
   },
   {
      "GoBack" : "1",
      "longitude" : "120.69223",
      "outDis" : "50",
      "Id" : "1683",
      "oid" : "5465",
      "districtId" : "1",
      "nameZh" : "月眉",
      "pgp" : "0",
      "terminal" : "0",
      "latitude" : "24.31395",
      "inDis" : "50",
      "routeId" : "213",
      "seqNo" : "28"
   },
   {
      "GoBack" : "1",
      "longitude" : "120.69",
      "outDis" : "50",
      "Id" : "4455",
      "oid" : "5443",
      "districtId" : "1",
      "nameZh" : "甲后四月路口",
      "pgp" : "0",
      "terminal" : "0",
      "latitude" : "24.31435",
      "inDis" : "50",
      "routeId" : "213",
      "seqNo" : "29"
   },
   {
      "GoBack" : "1",
      "longitude" : "120.6853",
      "outDis" : "50",
      "Id" : "1701",
      "oid" : "5477",
      "districtId" : "1",
      "nameZh" : "水利會",
      "pgp" : "0",
      "terminal" : "0",
      "latitude" : "24.31519",
      "inDis" : "50",
      "routeId" : "213",
      "seqNo" : "30"
   },
   {
      "GoBack" : "1",
      "longitude" : "120.67745",
      "outDis" : "50",
      "Id" : "2348",
      "oid" : "5854",
      "districtId" : "1",
      "nameZh" : "忠明新城",
      "pgp" : "0",
      "terminal" : "0",
      "latitude" : "24.31646",
      "inDis" : "50",
      "routeId" : "213",
      "seqNo" : "31"
   },
   {
      "GoBack" : "1",
      "longitude" : "120.67477",
      "outDis" : "50",
      "Id" : "1852",
      "oid" : "5579",
      "districtId" : "1",
      "nameZh" : "四塊厝",
      "pgp" : "0",
      "terminal" : "0",
      "latitude" : "24.31693",
      "inDis" : "50",
      "routeId" : "213",
      "seqNo" : "32"
   },
   {
      "GoBack" : "1",
      "longitude" : "120.66996",
      "outDis" : "50",
      "Id" : "1818",
      "oid" : "13757",
      "districtId" : "1",
      "nameZh" : "司普公司",
      "pgp" : "0",
      "terminal" : "0",
      "latitude" : "24.31858",
      "inDis" : "50",
      "routeId" : "213",
      "seqNo" : "33"
   },
   {
      "GoBack" : "1",
      "longitude" : "120.66844",
      "outDis" : "50",
      "Id" : "1054",
      "oid" : "5062",
      "districtId" : "1",
      "nameZh" : "三崁中點",
      "pgp" : "0",
      "terminal" : "0",
      "latitude" : "24.31964",
      "inDis" : "50",
      "routeId" : "213",
      "seqNo" : "34"
   },
   {
      "GoBack" : "1",
      "longitude" : "120.6648",
      "outDis" : "50",
      "Id" : "1052",
      "oid" : "5060",
      "districtId" : "1",
      "nameZh" : "三崁",
      "pgp" : "0",
      "terminal" : "0",
      "latitude" : "24.32207",
      "inDis" : "50",
      "routeId" : "213",
      "seqNo" : "35"
   },
   {
      "GoBack" : "1",
      "longitude" : "120.66144",
      "outDis" : "50",
      "Id" : "1254",
      "oid" : "5193",
      "districtId" : "1",
      "nameZh" : "久輪公司",
      "pgp" : "0",
      "terminal" : "0",
      "latitude" : "24.32401",
      "inDis" : "50",
      "routeId" : "213",
      "seqNo" : "36"
   },
   {
      "GoBack" : "1",
      "longitude" : "120.65823",
      "outDis" : "50",
      "Id" : "1000",
      "oid" : "5032",
      "districtId" : "1",
      "nameZh" : "二崁",
      "pgp" : "0",
      "terminal" : "0",
      "latitude" : "24.32713",
      "inDis" : "50",
      "routeId" : "213",
      "seqNo" : "37"
   },
   {
      "GoBack" : "1",
      "longitude" : "120.65574",
      "outDis" : "50",
      "Id" : "1867",
      "oid" : "5589",
      "districtId" : "1",
      "nameZh" : "外埔郵局",
      "pgp" : "0",
      "terminal" : "0",
      "latitude" : "24.32949",
      "inDis" : "50",
      "routeId" : "213",
      "seqNo" : "38"
   },
   {
      "GoBack" : "1",
      "longitude" : "120.65369",
      "outDis" : "50",
      "Id" : "1865",
      "oid" : "5588",
      "districtId" : "1",
      "nameZh" : "外埔",
      "pgp" : "0",
      "terminal" : "0",
      "latitude" : "24.33149",
      "inDis" : "50",
      "routeId" : "213",
      "seqNo" : "39"
   },
   {
      "GoBack" : "1",
      "longitude" : "120.65001",
      "outDis" : "50",
      "Id" : "2652",
      "oid" : "6027",
      "districtId" : "1",
      "nameZh" : "後寮",
      "pgp" : "0",
      "terminal" : "0",
      "latitude" : "24.335",
      "inDis" : "50",
      "routeId" : "213",
      "seqNo" : "40"
   },
   {
      "GoBack" : "1",
      "longitude" : "120.64125",
      "outDis" : "50",
      "Id" : "1277",
      "oid" : "5217",
      "districtId" : "1",
      "nameZh" : "大甲東",
      "pgp" : "0",
      "terminal" : "0",
      "latitude" : "24.3407",
      "inDis" : "50",
      "routeId" : "213",
      "seqNo" : "41"
   },
   {
      "GoBack" : "1",
      "longitude" : "120.63847",
      "outDis" : "50",
      "Id" : "1278",
      "oid" : "5218",
      "districtId" : "1",
      "nameZh" : "大甲東新城",
      "pgp" : "0",
      "terminal" : "0",
      "latitude" : "24.34202",
      "inDis" : "50",
      "routeId" : "213",
      "seqNo" : "42"
   },
   {
      "GoBack" : "1",
      "longitude" : "120.63656",
      "outDis" : "50",
      "Id" : "2417",
      "oid" : "5893",
      "districtId" : "1",
      "nameZh" : "東泰新城",
      "pgp" : "0",
      "terminal" : "0",
      "latitude" : "24.34323",
      "inDis" : "50",
      "routeId" : "213",
      "seqNo" : "43"
   },
   {
      "GoBack" : "1",
      "longitude" : "120.63244",
      "outDis" : "50",
      "Id" : "5339",
      "oid" : "311364974",
      "districtId" : "1",
      "nameZh" : "甲工入口",
      "pgp" : "0",
      "terminal" : "0",
      "latitude" : "24.34568",
      "inDis" : "50",
      "routeId" : "213",
      "seqNo" : "44"
   },
   {
      "GoBack" : "1",
      "longitude" : "120.62933",
      "outDis" : "50",
      "Id" : "1420",
      "oid" : "5309",
      "districtId" : "1",
      "nameZh" : "中山里",
      "pgp" : "0",
      "terminal" : "0",
      "latitude" : "24.34477",
      "inDis" : "50",
      "routeId" : "213",
      "seqNo" : "45"
   },
   {
      "GoBack" : "1",
      "longitude" : "120.62844",
      "outDis" : "50",
      "Id" : "1933",
      "oid" : "5612",
      "districtId" : "1",
      "nameZh" : "永光寺",
      "pgp" : "0",
      "terminal" : "0",
      "latitude" : "24.3429",
      "inDis" : "50",
      "routeId" : "213",
      "seqNo" : "46"
   },
   {
      "GoBack" : "1",
      "longitude" : "120.62643",
      "outDis" : "50",
      "Id" : "4558",
      "oid" : "5451",
      "districtId" : "1",
      "nameZh" : "中正紀念館",
      "pgp" : "0",
      "terminal" : "0",
      "latitude" : "24.34027",
      "inDis" : "50",
      "routeId" : "213",
      "seqNo" : "47"
   },
   {
      "GoBack" : "1",
      "longitude" : "120.62285",
      "outDis" : "50",
      "Id" : "4433",
      "oid" : "4048",
      "districtId" : "1",
      "nameZh" : "大甲高中(水源路)",
      "pgp" : "0",
      "terminal" : "0",
      "latitude" : "24.34205",
      "inDis" : "50",
      "routeId" : "213",
      "seqNo" : "48"
   },
   {
      "GoBack" : "1",
      "longitude" : "120.62431",
      "outDis" : "50",
      "Id" : "2609",
      "oid" : "6009",
      "districtId" : "1",
      "nameZh" : "南陽里",
      "pgp" : "0",
      "terminal" : "0",
      "latitude" : "24.34272",
      "inDis" : "50",
      "routeId" : "213",
      "seqNo" : "49"
   },
   {
      "GoBack" : "1",
      "longitude" : "120.62643",
      "outDis" : "50",
      "Id" : "5084",
      "oid" : "5494",
      "districtId" : "1",
      "nameZh" : "大甲",
      "pgp" : "0",
      "terminal" : "0",
      "latitude" : "24.34439",
      "inDis" : "50",
      "routeId" : "213",
      "seqNo" : "50"
   },
   {
      "GoBack" : "1",
      "longitude" : "120.62664",
      "outDis" : "50",
      "Id" : "4432",
      "oid" : "14074",
      "districtId" : "1",
      "nameZh" : "大甲火車站",
      "pgp" : "0",
      "terminal" : "0",
      "latitude" : "24.34461",
      "inDis" : "50",
      "routeId" : "213",
      "seqNo" : "51"
   },
   {
      "GoBack" : "1",
      "longitude" : "120.62286",
      "outDis" : "50",
      "Id" : "1074",
      "oid" : "13774",
      "districtId" : "1",
      "nameZh" : "文昌祠",
      "pgp" : "0",
      "terminal" : "0",
      "latitude" : "24.34726",
      "inDis" : "50",
      "routeId" : "213",
      "seqNo" : "52"
   },
   {
      "GoBack" : "1",
      "longitude" : "120.62028",
      "outDis" : "50",
      "Id" : "3062",
      "oid" : "13775",
      "districtId" : "1",
      "nameZh" : "庄尾",
      "pgp" : "0",
      "terminal" : "0",
      "latitude" : "24.34819",
      "inDis" : "50",
      "routeId" : "213",
      "seqNo" : "53"
   },
   {
      "GoBack" : "1",
      "longitude" : "120.61841",
      "outDis" : "50",
      "Id" : "5692",
      "oid" : "320604390",
      "districtId" : "1",
      "nameZh" : "李綜合醫院",
      "pgp" : "0",
      "terminal" : "0",
      "latitude" : "24.35135",
      "inDis" : "50",
      "routeId" : "213",
      "seqNo" : "54"
   },
   {
      "GoBack" : "1",
      "longitude" : "120.61737",
      "outDis" : "50",
      "Id" : "5691",
      "oid" : "319713434",
      "districtId" : "1",
      "nameZh" : "大甲體育場",
      "pgp" : "0",
      "terminal" : "0",
      "latitude" : "24.35018",
      "inDis" : "50",
      "routeId" : "213",
      "seqNo" : "55"
   },
   {
      "GoBack" : "1",
      "longitude" : "120.61645",
      "outDis" : "50",
      "Id" : "2038",
      "oid" : "5679",
      "districtId" : "1",
      "nameZh" : "光田",
      "pgp" : "0",
      "terminal" : "0",
      "latitude" : "24.34723",
      "inDis" : "50",
      "routeId" : "213",
      "seqNo" : "56"
   },
   {
      "GoBack" : "1",
      "longitude" : "120.61478",
      "outDis" : "50",
      "Id" : "5061",
      "oid" : "309863811",
      "districtId" : "1",
      "nameZh" : "新政大安港路口",
      "pgp" : "0",
      "terminal" : "0",
      "latitude" : "24.35087",
      "inDis" : "50",
      "routeId" : "213",
      "seqNo" : "57"
   },
   {
      "GoBack" : "2",
      "longitude" : "120.61478",
      "outDis" : "50",
      "Id" : "5061",
      "oid" : "309863811",
      "districtId" : "1",
      "nameZh" : "新政大安港路口",
      "pgp" : "0",
      "terminal" : "0",
      "latitude" : "24.35087",
      "inDis" : "50",
      "routeId" : "213",
      "seqNo" : "1"
   },
   {
      "GoBack" : "2",
      "longitude" : "120.61645",
      "outDis" : "50",
      "Id" : "2038",
      "oid" : "5679",
      "districtId" : "1",
      "nameZh" : "光田",
      "pgp" : "0",
      "terminal" : "0",
      "latitude" : "24.34723",
      "inDis" : "50",
      "routeId" : "213",
      "seqNo" : "2"
   },
   {
      "GoBack" : "2",
      "longitude" : "120.61737",
      "outDis" : "50",
      "Id" : "5691",
      "oid" : "319713434",
      "districtId" : "1",
      "nameZh" : "大甲體育場",
      "pgp" : "0",
      "terminal" : "0",
      "latitude" : "24.35018",
      "inDis" : "50",
      "routeId" : "213",
      "seqNo" : "3"
   },
   {
      "GoBack" : "2",
      "longitude" : "120.61841",
      "outDis" : "50",
      "Id" : "5692",
      "oid" : "320604390",
      "districtId" : "1",
      "nameZh" : "李綜合醫院",
      "pgp" : "0",
      "terminal" : "0",
      "latitude" : "24.35135",
      "inDis" : "50",
      "routeId" : "213",
      "seqNo" : "4"
   },
   {
      "GoBack" : "2",
      "longitude" : "120.62028",
      "outDis" : "50",
      "Id" : "3062",
      "oid" : "13775",
      "districtId" : "1",
      "nameZh" : "庄尾",
      "pgp" : "0",
      "terminal" : "0",
      "latitude" : "24.34819",
      "inDis" : "50",
      "routeId" : "213",
      "seqNo" : "5"
   },
   {
      "GoBack" : "2",
      "longitude" : "120.62286",
      "outDis" : "50",
      "Id" : "1074",
      "oid" : "13774",
      "districtId" : "1",
      "nameZh" : "文昌祠",
      "pgp" : "0",
      "terminal" : "0",
      "latitude" : "24.34726",
      "inDis" : "50",
      "routeId" : "213",
      "seqNo" : "6"
   },
   {
      "GoBack" : "2",
      "longitude" : "120.62664",
      "outDis" : "50",
      "Id" : "4432",
      "oid" : "14074",
      "districtId" : "1",
      "nameZh" : "大甲火車站",
      "pgp" : "0",
      "terminal" : "0",
      "latitude" : "24.34461",
      "inDis" : "50",
      "routeId" : "213",
      "seqNo" : "7"
   },
   {
      "GoBack" : "2",
      "longitude" : "120.62553",
      "outDis" : "50",
      "Id" : "5084",
      "oid" : "5215",
      "districtId" : "1",
      "nameZh" : "大甲",
      "pgp" : "0",
      "terminal" : "0",
      "latitude" : "24.34321",
      "inDis" : "50",
      "routeId" : "213",
      "seqNo" : "8"
   },
   {
      "GoBack" : "2",
      "longitude" : "120.62431",
      "outDis" : "50",
      "Id" : "2609",
      "oid" : "6009",
      "districtId" : "1",
      "nameZh" : "南陽里",
      "pgp" : "0",
      "terminal" : "0",
      "latitude" : "24.34272",
      "inDis" : "50",
      "routeId" : "213",
      "seqNo" : "9"
   },
   {
      "GoBack" : "2",
      "longitude" : "120.62285",
      "outDis" : "50",
      "Id" : "4433",
      "oid" : "4048",
      "districtId" : "1",
      "nameZh" : "大甲高中(水源路)",
      "pgp" : "0",
      "terminal" : "0",
      "latitude" : "24.34205",
      "inDis" : "50",
      "routeId" : "213",
      "seqNo" : "10"
   },
   {
      "GoBack" : "2",
      "longitude" : "120.62643",
      "outDis" : "50",
      "Id" : "4558",
      "oid" : "5451",
      "districtId" : "1",
      "nameZh" : "中正紀念館",
      "pgp" : "0",
      "terminal" : "0",
      "latitude" : "24.34027",
      "inDis" : "50",
      "routeId" : "213",
      "seqNo" : "11"
   },
   {
      "GoBack" : "2",
      "longitude" : "120.62844",
      "outDis" : "50",
      "Id" : "1933",
      "oid" : "5612",
      "districtId" : "1",
      "nameZh" : "永光寺",
      "pgp" : "0",
      "terminal" : "0",
      "latitude" : "24.3429",
      "inDis" : "50",
      "routeId" : "213",
      "seqNo" : "12"
   },
   {
      "GoBack" : "2",
      "longitude" : "120.62933",
      "outDis" : "50",
      "Id" : "1420",
      "oid" : "5309",
      "districtId" : "1",
      "nameZh" : "中山里",
      "pgp" : "0",
      "terminal" : "0",
      "latitude" : "24.34477",
      "inDis" : "50",
      "routeId" : "213",
      "seqNo" : "13"
   },
   {
      "GoBack" : "2",
      "longitude" : "120.63244",
      "outDis" : "50",
      "Id" : "5339",
      "oid" : "311364974",
      "districtId" : "1",
      "nameZh" : "甲工入口",
      "pgp" : "0",
      "terminal" : "0",
      "latitude" : "24.34568",
      "inDis" : "50",
      "routeId" : "213",
      "seqNo" : "14"
   },
   {
      "GoBack" : "2",
      "longitude" : "120.63656",
      "outDis" : "50",
      "Id" : "2417",
      "oid" : "5893",
      "districtId" : "1",
      "nameZh" : "東泰新城",
      "pgp" : "0",
      "terminal" : "0",
      "latitude" : "24.34323",
      "inDis" : "50",
      "routeId" : "213",
      "seqNo" : "15"
   },
   {
      "GoBack" : "2",
      "longitude" : "120.63847",
      "outDis" : "50",
      "Id" : "1278",
      "oid" : "5218",
      "districtId" : "1",
      "nameZh" : "大甲東新城",
      "pgp" : "0",
      "terminal" : "0",
      "latitude" : "24.34202",
      "inDis" : "50",
      "routeId" : "213",
      "seqNo" : "16"
   },
   {
      "GoBack" : "2",
      "longitude" : "120.64125",
      "outDis" : "50",
      "Id" : "1277",
      "oid" : "5217",
      "districtId" : "1",
      "nameZh" : "大甲東",
      "pgp" : "0",
      "terminal" : "0",
      "latitude" : "24.3407",
      "inDis" : "50",
      "routeId" : "213",
      "seqNo" : "17"
   },
   {
      "GoBack" : "2",
      "longitude" : "120.65001",
      "outDis" : "50",
      "Id" : "2652",
      "oid" : "6027",
      "districtId" : "1",
      "nameZh" : "後寮",
      "pgp" : "0",
      "terminal" : "0",
      "latitude" : "24.335",
      "inDis" : "50",
      "routeId" : "213",
      "seqNo" : "18"
   },
   {
      "GoBack" : "2",
      "longitude" : "120.65369",
      "outDis" : "50",
      "Id" : "1865",
      "oid" : "5588",
      "districtId" : "1",
      "nameZh" : "外埔",
      "pgp" : "0",
      "terminal" : "0",
      "latitude" : "24.33149",
      "inDis" : "50",
      "routeId" : "213",
      "seqNo" : "19"
   },
   {
      "GoBack" : "2",
      "longitude" : "120.65574",
      "outDis" : "50",
      "Id" : "1867",
      "oid" : "5589",
      "districtId" : "1",
      "nameZh" : "外埔郵局",
      "pgp" : "0",
      "terminal" : "0",
      "latitude" : "24.32949",
      "inDis" : "50",
      "routeId" : "213",
      "seqNo" : "20"
   },
   {
      "GoBack" : "2",
      "longitude" : "120.65823",
      "outDis" : "50",
      "Id" : "1000",
      "oid" : "5032",
      "districtId" : "1",
      "nameZh" : "二崁",
      "pgp" : "0",
      "terminal" : "0",
      "latitude" : "24.32713",
      "inDis" : "50",
      "routeId" : "213",
      "seqNo" : "21"
   },
   {
      "GoBack" : "2",
      "longitude" : "120.66144",
      "outDis" : "50",
      "Id" : "1254",
      "oid" : "5193",
      "districtId" : "1",
      "nameZh" : "久輪公司",
      "pgp" : "0",
      "terminal" : "0",
      "latitude" : "24.32401",
      "inDis" : "50",
      "routeId" : "213",
      "seqNo" : "22"
   },
   {
      "GoBack" : "2",
      "longitude" : "120.6648",
      "outDis" : "50",
      "Id" : "1052",
      "oid" : "5060",
      "districtId" : "1",
      "nameZh" : "三崁",
      "pgp" : "0",
      "terminal" : "0",
      "latitude" : "24.32207",
      "inDis" : "50",
      "routeId" : "213",
      "seqNo" : "23"
   },
   {
      "GoBack" : "2",
      "longitude" : "120.66844",
      "outDis" : "50",
      "Id" : "1054",
      "oid" : "5062",
      "districtId" : "1",
      "nameZh" : "三崁中點",
      "pgp" : "0",
      "terminal" : "0",
      "latitude" : "24.31964",
      "inDis" : "50",
      "routeId" : "213",
      "seqNo" : "24"
   },
   {
      "GoBack" : "2",
      "longitude" : "120.66996",
      "outDis" : "50",
      "Id" : "1818",
      "oid" : "13757",
      "districtId" : "1",
      "nameZh" : "司普公司",
      "pgp" : "0",
      "terminal" : "0",
      "latitude" : "24.31858",
      "inDis" : "50",
      "routeId" : "213",
      "seqNo" : "25"
   },
   {
      "GoBack" : "2",
      "longitude" : "120.67477",
      "outDis" : "50",
      "Id" : "1852",
      "oid" : "5579",
      "districtId" : "1",
      "nameZh" : "四塊厝",
      "pgp" : "0",
      "terminal" : "0",
      "latitude" : "24.31693",
      "inDis" : "50",
      "routeId" : "213",
      "seqNo" : "26"
   },
   {
      "GoBack" : "2",
      "longitude" : "120.67745",
      "outDis" : "50",
      "Id" : "2348",
      "oid" : "5854",
      "districtId" : "1",
      "nameZh" : "忠明新城",
      "pgp" : "0",
      "terminal" : "0",
      "latitude" : "24.31646",
      "inDis" : "50",
      "routeId" : "213",
      "seqNo" : "27"
   },
   {
      "GoBack" : "2",
      "longitude" : "120.6853",
      "outDis" : "50",
      "Id" : "1701",
      "oid" : "5477",
      "districtId" : "1",
      "nameZh" : "水利會",
      "pgp" : "0",
      "terminal" : "0",
      "latitude" : "24.31519",
      "inDis" : "50",
      "routeId" : "213",
      "seqNo" : "28"
   },
   {
      "GoBack" : "2",
      "longitude" : "120.69",
      "outDis" : "50",
      "Id" : "4455",
      "oid" : "5443",
      "districtId" : "1",
      "nameZh" : "甲后四月路口",
      "pgp" : "0",
      "terminal" : "0",
      "latitude" : "24.31435",
      "inDis" : "50",
      "routeId" : "213",
      "seqNo" : "29"
   },
   {
      "GoBack" : "2",
      "longitude" : "120.69223",
      "outDis" : "50",
      "Id" : "1683",
      "oid" : "5465",
      "districtId" : "1",
      "nameZh" : "月眉",
      "pgp" : "0",
      "terminal" : "0",
      "latitude" : "24.31395",
      "inDis" : "50",
      "routeId" : "213",
      "seqNo" : "30"
   },
   {
      "GoBack" : "2",
      "longitude" : "120.6951",
      "outDis" : "50",
      "Id" : "1689",
      "oid" : "5468",
      "districtId" : "1",
      "nameZh" : "月眉糖廠",
      "pgp" : "0",
      "terminal" : "0",
      "latitude" : "24.31351",
      "inDis" : "50",
      "routeId" : "213",
      "seqNo" : "31"
   },
   {
      "GoBack" : "2",
      "longitude" : "120.69621",
      "outDis" : "50",
      "Id" : "2469",
      "oid" : "5928",
      "districtId" : "1",
      "nameZh" : "松鶴酒莊",
      "pgp" : "0",
      "terminal" : "0",
      "latitude" : "24.31178",
      "inDis" : "50",
      "routeId" : "213",
      "seqNo" : "32"
   },
   {
      "GoBack" : "2",
      "longitude" : "120.69814",
      "outDis" : "50",
      "Id" : "0421",
      "oid" : "5326",
      "districtId" : "1",
      "nameZh" : "中和",
      "pgp" : "0",
      "terminal" : "0",
      "latitude" : "24.31041",
      "inDis" : "50",
      "routeId" : "213",
      "seqNo" : "33"
   },
   {
      "GoBack" : "2",
      "longitude" : "120.70587",
      "outDis" : "50",
      "Id" : "3309",
      "oid" : "6381",
      "districtId" : "1",
      "nameZh" : "雅藝公司",
      "pgp" : "0",
      "terminal" : "0",
      "latitude" : "24.30699",
      "inDis" : "50",
      "routeId" : "213",
      "seqNo" : "34"
   },
   {
      "GoBack" : "2",
      "longitude" : "120.70917",
      "outDis" : "50",
      "Id" : "4449",
      "oid" : "5504",
      "districtId" : "1",
      "nameZh" : "公安主和路口",
      "pgp" : "0",
      "terminal" : "0",
      "latitude" : "24.30554",
      "inDis" : "50",
      "routeId" : "213",
      "seqNo" : "35"
   },
   {
      "GoBack" : "2",
      "longitude" : "120.7107",
      "outDis" : "50",
      "Id" : "4504",
      "oid" : "303690762",
      "districtId" : "1",
      "nameZh" : "后里區公所",
      "pgp" : "0",
      "terminal" : "0",
      "latitude" : "24.30482",
      "inDis" : "50",
      "routeId" : "213",
      "seqNo" : "36"
   },
   {
      "GoBack" : "2",
      "longitude" : "120.7133",
      "outDis" : "50",
      "Id" : "1571",
      "oid" : "5393",
      "districtId" : "1",
      "nameZh" : "內埔市場",
      "pgp" : "0",
      "terminal" : "0",
      "latitude" : "24.30633",
      "inDis" : "50",
      "routeId" : "213",
      "seqNo" : "37"
   },
   {
      "GoBack" : "2",
      "longitude" : "120.71645",
      "outDis" : "50",
      "Id" : "4453",
      "oid" : "5459",
      "districtId" : "1",
      "nameZh" : "民生文明路口",
      "pgp" : "0",
      "terminal" : "0",
      "latitude" : "24.30747",
      "inDis" : "50",
      "routeId" : "213",
      "seqNo" : "38"
   },
   {
      "GoBack" : "2",
      "longitude" : "120.71765",
      "outDis" : "50",
      "Id" : "2651",
      "oid" : "6026",
      "districtId" : "1",
      "nameZh" : "后里電信局",
      "pgp" : "0",
      "terminal" : "0",
      "latitude" : "24.30969",
      "inDis" : "50",
      "routeId" : "213",
      "seqNo" : "39"
   },
   {
      "GoBack" : "2",
      "longitude" : "120.72164",
      "outDis" : "50",
      "Id" : "1169",
      "oid" : "5132",
      "districtId" : "1",
      "nameZh" : "下后里",
      "pgp" : "0",
      "terminal" : "0",
      "latitude" : "24.30903",
      "inDis" : "50",
      "routeId" : "213",
      "seqNo" : "40"
   },
   {
      "GoBack" : "2",
      "longitude" : "120.72203",
      "outDis" : "50",
      "Id" : "2991",
      "oid" : "6202",
      "districtId" : "1",
      "nameZh" : "啟明學校",
      "pgp" : "0",
      "terminal" : "0",
      "latitude" : "24.30511",
      "inDis" : "50",
      "routeId" : "213",
      "seqNo" : "41"
   },
   {
      "GoBack" : "2",
      "longitude" : "120.72242",
      "outDis" : "50",
      "Id" : "2592",
      "oid" : "5999",
      "districtId" : "1",
      "nameZh" : "南后里",
      "pgp" : "0",
      "terminal" : "0",
      "latitude" : "24.30335",
      "inDis" : "50",
      "routeId" : "213",
      "seqNo" : "42"
   },
   {
      "GoBack" : "2",
      "longitude" : "120.7233",
      "outDis" : "50",
      "Id" : "1737",
      "oid" : "5500",
      "districtId" : "1",
      "nameZh" : "牛稠坑",
      "pgp" : "0",
      "terminal" : "0",
      "latitude" : "24.29968",
      "inDis" : "50",
      "routeId" : "213",
      "seqNo" : "43"
   },
   {
      "GoBack" : "2",
      "longitude" : "120.72363",
      "outDis" : "50",
      "Id" : "2898",
      "oid" : "6164",
      "districtId" : "1",
      "nameZh" : "馬場入口",
      "pgp" : "0",
      "terminal" : "0",
      "latitude" : "24.29812",
      "inDis" : "50",
      "routeId" : "213",
      "seqNo" : "44"
   },
   {
      "GoBack" : "2",
      "longitude" : "120.72373",
      "outDis" : "50",
      "Id" : "0987",
      "oid" : "5025",
      "districtId" : "1",
      "nameZh" : "七星農場",
      "pgp" : "0",
      "terminal" : "0",
      "latitude" : "24.2933",
      "inDis" : "50",
      "routeId" : "213",
      "seqNo" : "45"
   },
   {
      "GoBack" : "2",
      "longitude" : "120.72322",
      "outDis" : "50",
      "Id" : "2374",
      "oid" : "5874",
      "districtId" : "1",
      "nameZh" : "枋寮",
      "pgp" : "0",
      "terminal" : "0",
      "latitude" : "24.28785",
      "inDis" : "50",
      "routeId" : "213",
      "seqNo" : "46"
   },
   {
      "GoBack" : "2",
      "longitude" : "120.72285",
      "outDis" : "50",
      "Id" : "1911",
      "oid" : "5605",
      "districtId" : "1",
      "nameZh" : "正隆紙廠",
      "pgp" : "0",
      "terminal" : "0",
      "latitude" : "24.28434",
      "inDis" : "50",
      "routeId" : "213",
      "seqNo" : "47"
   },
   {
      "GoBack" : "2",
      "longitude" : "120.72211",
      "outDis" : "50",
      "Id" : "3470",
      "oid" : "6481",
      "districtId" : "1",
      "nameZh" : "溪底",
      "pgp" : "0",
      "terminal" : "0",
      "latitude" : "24.27567",
      "inDis" : "50",
      "routeId" : "213",
      "seqNo" : "48"
   },
   {
      "GoBack" : "2",
      "longitude" : "120.7218",
      "outDis" : "50",
      "Id" : "3527",
      "oid" : "6503",
      "districtId" : "1",
      "nameZh" : "農會事業場",
      "pgp" : "0",
      "terminal" : "0",
      "latitude" : "24.27191",
      "inDis" : "50",
      "routeId" : "213",
      "seqNo" : "49"
   },
   {
      "GoBack" : "2",
      "longitude" : "120.72113",
      "outDis" : "50",
      "Id" : "3541",
      "oid" : "6508",
      "districtId" : "1",
      "nameZh" : "道班前",
      "pgp" : "0",
      "terminal" : "0",
      "latitude" : "24.26954",
      "inDis" : "50",
      "routeId" : "213",
      "seqNo" : "50"
   },
   {
      "GoBack" : "2",
      "longitude" : "120.72039",
      "outDis" : "50",
      "Id" : "3356",
      "oid" : "6405",
      "districtId" : "1",
      "nameZh" : "慈興宮",
      "pgp" : "0",
      "terminal" : "0",
      "latitude" : "24.26524",
      "inDis" : "50",
      "routeId" : "213",
      "seqNo" : "51"
   },
   {
      "GoBack" : "2",
      "longitude" : "120.71985",
      "outDis" : "50",
      "Id" : "4503",
      "oid" : "303690761",
      "districtId" : "1",
      "nameZh" : "豐原國中",
      "pgp" : "0",
      "terminal" : "0",
      "latitude" : "24.26141",
      "inDis" : "50",
      "routeId" : "213",
      "seqNo" : "52"
   },
   {
      "GoBack" : "2",
      "longitude" : "120.71947",
      "outDis" : "50",
      "Id" : "4493",
      "oid" : "13860",
      "districtId" : "1",
      "nameZh" : "新惠生醫院",
      "pgp" : "0",
      "terminal" : "0",
      "latitude" : "24.25808",
      "inDis" : "50",
      "routeId" : "213",
      "seqNo" : "53"
   },
   {
      "GoBack" : "2",
      "longitude" : "120.71866",
      "outDis" : "50",
      "Id" : "1269",
      "oid" : "5212",
      "districtId" : "1",
      "nameZh" : "大湳里",
      "pgp" : "0",
      "terminal" : "0",
      "latitude" : "24.25666",
      "inDis" : "50",
      "routeId" : "213",
      "seqNo" : "54"
   },
   {
      "GoBack" : "2",
      "longitude" : "120.71612",
      "outDis" : "50",
      "Id" : "2097",
      "oid" : "5710",
      "districtId" : "1",
      "nameZh" : "圳寮口",
      "pgp" : "0",
      "terminal" : "0",
      "latitude" : "24.25276",
      "inDis" : "50",
      "routeId" : "213",
      "seqNo" : "55"
   },
   {
      "GoBack" : "2",
      "longitude" : "120.71526",
      "outDis" : "50",
      "Id" : "3939",
      "oid" : "6698",
      "districtId" : "1",
      "nameZh" : "豐原郵局",
      "pgp" : "0",
      "terminal" : "0",
      "latitude" : "24.25136",
      "inDis" : "50",
      "routeId" : "213",
      "seqNo" : "56"
   },
   {
      "GoBack" : "2",
      "longitude" : "120.71851",
      "outDis" : "50",
      "Id" : "3343",
      "oid" : "6396",
      "districtId" : "1",
      "nameZh" : "媽祖廟",
      "pgp" : "0",
      "terminal" : "0",
      "latitude" : "24.25157",
      "inDis" : "50",
      "routeId" : "213",
      "seqNo" : "57"
   },
   {
      "GoBack" : "2",
      "longitude" : "120.71986",
      "outDis" : "50",
      "Id" : "2309",
      "oid" : "5834",
      "districtId" : "1",
      "nameZh" : "和平街",
      "pgp" : "0",
      "terminal" : "0",
      "latitude" : "24.25233",
      "inDis" : "50",
      "routeId" : "213",
      "seqNo" : "58"
   },
   {
      "GoBack" : "2",
      "longitude" : "120.72154",
      "outDis" : "70",
      "Id" : "3935",
      "oid" : "6693",
      "districtId" : "1",
      "nameZh" : "豐原",
      "pgp" : "0",
      "terminal" : "0",
      "latitude" : "24.2538",
      "inDis" : "70",
      "routeId" : "213",
      "seqNo" : "59"
   }
]
