[
   {
      "GoBack" : "1",
      "longitude" : "120.70017",
      "outDis" : "50",
      "Id" : "4351",
      "oid" : "13263",
      "districtId" : "1",
      "nameZh" : "太原火車站",
      "pgp" : "0",
      "terminal" : "0",
      "latitude" : "24.16612",
      "inDis" : "50",
      "routeId" : "53",
      "seqNo" : "1"
   },
   {
      "GoBack" : "1",
      "longitude" : "120.70361",
      "outDis" : "50",
      "Id" : "0218",
      "oid" : "13059",
      "districtId" : "1",
      "nameZh" : "三川福德祠",
      "pgp" : "0",
      "terminal" : "0",
      "latitude" : "24.16469",
      "inDis" : "50",
      "routeId" : "53",
      "seqNo" : "2"
   },
   {
      "GoBack" : "1",
      "longitude" : "120.70621",
      "outDis" : "90",
      "Id" : "0470",
      "oid" : "68D7F787D67B43BB8D728BAE37A2CBD8",
      "districtId" : "1",
      "nameZh" : "太原二號橋",
      "pgp" : "0",
      "terminal" : "0",
      "latitude" : "24.16468",
      "inDis" : "50",
      "routeId" : "53",
      "seqNo" : "3"
   },
   {
      "GoBack" : "1",
      "longitude" : "120.71184",
      "outDis" : "50",
      "Id" : "4320",
      "oid" : "301532257",
      "districtId" : "1",
      "nameZh" : "東山高中",
      "pgp" : "0",
      "terminal" : "0",
      "latitude" : "24.16588",
      "inDis" : "50",
      "routeId" : "53",
      "seqNo" : "4"
   },
   {
      "GoBack" : "1",
      "longitude" : "120.70941",
      "outDis" : "80",
      "Id" : "5105",
      "oid" : "310603462",
      "districtId" : "1",
      "nameZh" : "景賢八路口",
      "pgp" : "0",
      "terminal" : "0",
      "latitude" : "24.16728",
      "inDis" : "30",
      "routeId" : "53",
      "seqNo" : "5"
   },
   {
      "GoBack" : "1",
      "longitude" : "120.70687",
      "outDis" : "50",
      "Id" : "4319",
      "oid" : "13061",
      "districtId" : "1",
      "nameZh" : "三甲公園",
      "pgp" : "0",
      "terminal" : "0",
      "latitude" : "24.1673",
      "inDis" : "50",
      "routeId" : "53",
      "seqNo" : "6"
   },
   {
      "GoBack" : "1",
      "longitude" : "120.70446",
      "outDis" : "50",
      "Id" : "5712",
      "oid" : "13064",
      "districtId" : "1",
      "nameZh" : "三和/東光里",
      "pgp" : "0",
      "terminal" : "0",
      "latitude" : "24.16955",
      "inDis" : "50",
      "routeId" : "53",
      "seqNo" : "7"
   },
   {
      "GoBack" : "1",
      "longitude" : "120.70255",
      "outDis" : "50",
      "Id" : "4312",
      "oid" : "13175",
      "districtId" : "1",
      "nameZh" : "東光國小",
      "pgp" : "0",
      "terminal" : "0",
      "latitude" : "24.16988",
      "inDis" : "50",
      "routeId" : "53",
      "seqNo" : "8"
   },
   {
      "GoBack" : "1",
      "longitude" : "120.69875",
      "outDis" : "50",
      "Id" : "0222",
      "oid" : "13242",
      "districtId" : "1",
      "nameZh" : "聯安醫院",
      "pgp" : "0",
      "terminal" : "0",
      "latitude" : "24.17035",
      "inDis" : "50",
      "routeId" : "53",
      "seqNo" : "9"
   },
   {
      "GoBack" : "1",
      "longitude" : "120.6959",
      "outDis" : "50",
      "Id" : "0102",
      "oid" : "13297",
      "districtId" : "1",
      "nameZh" : "四維國小",
      "pgp" : "0",
      "terminal" : "0",
      "latitude" : "24.17093",
      "inDis" : "50",
      "routeId" : "53",
      "seqNo" : "10"
   },
   {
      "GoBack" : "1",
      "longitude" : "120.69447",
      "outDis" : "50",
      "Id" : "5780",
      "oid" : "320882893",
      "districtId" : "1",
      "nameZh" : "文心興安路口",
      "pgp" : "0",
      "terminal" : "0",
      "latitude" : "24.17109",
      "inDis" : "50",
      "routeId" : "53",
      "seqNo" : "11"
   },
   {
      "GoBack" : "1",
      "longitude" : "120.69167",
      "outDis" : "50",
      "Id" : "4274",
      "oid" : "13274",
      "districtId" : "1",
      "nameZh" : "文心昌平路口",
      "pgp" : "0",
      "terminal" : "0",
      "latitude" : "24.17132",
      "inDis" : "50",
      "routeId" : "53",
      "seqNo" : "12"
   },
   {
      "GoBack" : "1",
      "longitude" : "120.68764",
      "outDis" : "50",
      "Id" : "4283",
      "oid" : "13280",
      "districtId" : "1",
      "nameZh" : "文心熱河路口",
      "pgp" : "0",
      "terminal" : "0",
      "latitude" : "24.17184",
      "inDis" : "50",
      "routeId" : "53",
      "seqNo" : "13"
   },
   {
      "GoBack" : "1",
      "longitude" : "120.68595",
      "outDis" : "50",
      "Id" : "4279",
      "oid" : "13126",
      "districtId" : "1",
      "nameZh" : "文心崇德路口",
      "pgp" : "0",
      "terminal" : "0",
      "latitude" : "24.17209",
      "inDis" : "50",
      "routeId" : "53",
      "seqNo" : "14"
   },
   {
      "GoBack" : "1",
      "longitude" : "120.68246",
      "outDis" : "50",
      "Id" : "0224",
      "oid" : "13278",
      "districtId" : "1",
      "nameZh" : "文心國小",
      "pgp" : "0",
      "terminal" : "0",
      "latitude" : "24.17241",
      "inDis" : "50",
      "routeId" : "53",
      "seqNo" : "15"
   },
   {
      "GoBack" : "1",
      "longitude" : "120.67993",
      "outDis" : "50",
      "Id" : "4280",
      "oid" : "13128",
      "districtId" : "1",
      "nameZh" : "文心梅川西路口",
      "pgp" : "0",
      "terminal" : "0",
      "latitude" : "24.1729",
      "inDis" : "50",
      "routeId" : "53",
      "seqNo" : "16"
   },
   {
      "GoBack" : "1",
      "longitude" : "120.67656",
      "outDis" : "50",
      "Id" : "4277",
      "oid" : "13117",
      "districtId" : "1",
      "nameZh" : "文心山西路口",
      "pgp" : "0",
      "terminal" : "0",
      "latitude" : "24.17347",
      "inDis" : "50",
      "routeId" : "53",
      "seqNo" : "17"
   },
   {
      "GoBack" : "1",
      "longitude" : "120.67447",
      "outDis" : "50",
      "Id" : "4276",
      "oid" : "12539",
      "districtId" : "1",
      "nameZh" : "文心青島東街口",
      "pgp" : "0",
      "terminal" : "0",
      "latitude" : "24.17376",
      "inDis" : "50",
      "routeId" : "53",
      "seqNo" : "18"
   },
   {
      "GoBack" : "1",
      "longitude" : "120.67166",
      "outDis" : "50",
      "Id" : "4265",
      "oid" : "13266",
      "districtId" : "1",
      "nameZh" : "文心中清路口",
      "pgp" : "0",
      "terminal" : "0",
      "latitude" : "24.1738",
      "inDis" : "50",
      "routeId" : "53",
      "seqNo" : "19"
   },
   {
      "GoBack" : "1",
      "longitude" : "120.67057",
      "outDis" : "50",
      "Id" : "5201",
      "oid" : "312331410",
      "districtId" : "1",
      "nameZh" : "文心中清西一街口",
      "pgp" : "0",
      "terminal" : "0",
      "latitude" : "24.17376",
      "inDis" : "50",
      "routeId" : "53",
      "seqNo" : "20"
   },
   {
      "GoBack" : "1",
      "longitude" : "120.66832",
      "outDis" : "50",
      "Id" : "4355",
      "oid" : "13277",
      "districtId" : "1",
      "nameZh" : "文心陝西路口",
      "pgp" : "0",
      "terminal" : "0",
      "latitude" : "24.17328",
      "inDis" : "50",
      "routeId" : "53",
      "seqNo" : "21"
   },
   {
      "GoBack" : "1",
      "longitude" : "120.66561",
      "outDis" : "50",
      "Id" : "0229",
      "oid" : "13296",
      "districtId" : "1",
      "nameZh" : "臺灣日報",
      "pgp" : "0",
      "terminal" : "0",
      "latitude" : "24.17277",
      "inDis" : "50",
      "routeId" : "53",
      "seqNo" : "22"
   },
   {
      "GoBack" : "1",
      "longitude" : "120.66342",
      "outDis" : "50",
      "Id" : "0230",
      "oid" : "13312",
      "districtId" : "1",
      "nameZh" : "重慶國小",
      "pgp" : "0",
      "terminal" : "0",
      "latitude" : "24.17225",
      "inDis" : "50",
      "routeId" : "53",
      "seqNo" : "23"
   },
   {
      "GoBack" : "1",
      "longitude" : "120.66069",
      "outDis" : "50",
      "Id" : "4275",
      "oid" : "13275",
      "districtId" : "1",
      "nameZh" : "文心河南路口",
      "pgp" : "0",
      "terminal" : "0",
      "latitude" : "24.17149",
      "inDis" : "50",
      "routeId" : "53",
      "seqNo" : "24"
   },
   {
      "GoBack" : "1",
      "longitude" : "120.65914",
      "outDis" : "50",
      "Id" : "4612",
      "oid" : "13281",
      "districtId" : "1",
      "nameZh" : "文華高中(文心路)",
      "pgp" : "0",
      "terminal" : "0",
      "latitude" : "24.17101",
      "inDis" : "50",
      "routeId" : "53",
      "seqNo" : "25"
   },
   {
      "GoBack" : "1",
      "longitude" : "120.65563",
      "outDis" : "50",
      "Id" : "4271",
      "oid" : "13271",
      "districtId" : "1",
      "nameZh" : "文心甘肅路口",
      "pgp" : "0",
      "terminal" : "0",
      "latitude" : "24.16903",
      "inDis" : "50",
      "routeId" : "53",
      "seqNo" : "26"
   },
   {
      "GoBack" : "1",
      "longitude" : "120.65221",
      "outDis" : "50",
      "Id" : "4273",
      "oid" : "13273",
      "districtId" : "1",
      "nameZh" : "文心西屯路口",
      "pgp" : "0",
      "terminal" : "0",
      "latitude" : "24.16614",
      "inDis" : "50",
      "routeId" : "53",
      "seqNo" : "27"
   },
   {
      "GoBack" : "1",
      "longitude" : "120.65057",
      "outDis" : "50",
      "Id" : "4269",
      "oid" : "13269",
      "districtId" : "1",
      "nameZh" : "文心四川路口",
      "pgp" : "0",
      "terminal" : "0",
      "latitude" : "24.16388",
      "inDis" : "50",
      "routeId" : "53",
      "seqNo" : "28"
   },
   {
      "GoBack" : "1",
      "longitude" : "120.64866",
      "outDis" : "50",
      "Id" : "4266",
      "oid" : "13267",
      "districtId" : "1",
      "nameZh" : "文心臺灣大道口",
      "pgp" : "0",
      "terminal" : "0",
      "latitude" : "24.16128",
      "inDis" : "50",
      "routeId" : "53",
      "seqNo" : "29"
   },
   {
      "GoBack" : "1",
      "longitude" : "120.64751",
      "outDis" : "50",
      "Id" : "0019",
      "oid" : "13298",
      "districtId" : "1",
      "nameZh" : "市警局",
      "pgp" : "0",
      "terminal" : "0",
      "latitude" : "24.15938",
      "inDis" : "50",
      "routeId" : "53",
      "seqNo" : "30"
   },
   {
      "GoBack" : "1",
      "longitude" : "120.64682",
      "outDis" : "50",
      "Id" : "1433",
      "oid" : "13256",
      "districtId" : "1",
      "nameZh" : "中央健保局(文心路)",
      "pgp" : "0",
      "terminal" : "0",
      "latitude" : "24.15762",
      "inDis" : "50",
      "routeId" : "53",
      "seqNo" : "31"
   },
   {
      "GoBack" : "1",
      "longitude" : "120.64672",
      "outDis" : "50",
      "Id" : "4270",
      "oid" : "13270",
      "districtId" : "1",
      "nameZh" : "文心市政路口",
      "pgp" : "0",
      "terminal" : "0",
      "latitude" : "24.15461",
      "inDis" : "50",
      "routeId" : "53",
      "seqNo" : "32"
   },
   {
      "GoBack" : "1",
      "longitude" : "120.64669",
      "outDis" : "50",
      "Id" : "4268",
      "oid" : "13268",
      "districtId" : "1",
      "nameZh" : "文心公益路口",
      "pgp" : "0",
      "terminal" : "0",
      "latitude" : "24.15048",
      "inDis" : "50",
      "routeId" : "53",
      "seqNo" : "33"
   },
   {
      "GoBack" : "1",
      "longitude" : "120.6465",
      "outDis" : "75",
      "Id" : "4356",
      "oid" : "10994",
      "districtId" : "1",
      "nameZh" : "文心森林公園",
      "pgp" : "0",
      "terminal" : "0",
      "latitude" : "24.14631",
      "inDis" : "75",
      "routeId" : "53",
      "seqNo" : "34"
   },
   {
      "GoBack" : "1",
      "longitude" : "120.6466",
      "outDis" : "50",
      "Id" : "5477",
      "oid" : "13279",
      "districtId" : "1",
      "nameZh" : "文心大墩七街口",
      "pgp" : "0",
      "terminal" : "0",
      "latitude" : "24.14419",
      "inDis" : "50",
      "routeId" : "53",
      "seqNo" : "35"
   },
   {
      "GoBack" : "1",
      "longitude" : "120.64662",
      "outDis" : "50",
      "Id" : "4272",
      "oid" : "13272",
      "districtId" : "1",
      "nameZh" : "文心向心路口",
      "pgp" : "0",
      "terminal" : "0",
      "latitude" : "24.14243",
      "inDis" : "50",
      "routeId" : "53",
      "seqNo" : "36"
   },
   {
      "GoBack" : "1",
      "longitude" : "120.64653",
      "outDis" : "50",
      "Id" : "4267",
      "oid" : "13119",
      "districtId" : "1",
      "nameZh" : "文心五權西路口",
      "pgp" : "0",
      "terminal" : "0",
      "latitude" : "24.13968",
      "inDis" : "50",
      "routeId" : "53",
      "seqNo" : "37"
   },
   {
      "GoBack" : "1",
      "longitude" : "120.64659",
      "outDis" : "50",
      "Id" : "5098",
      "oid" : "13276",
      "districtId" : "1",
      "nameZh" : "文心南南屯路口",
      "pgp" : "0",
      "terminal" : "0",
      "latitude" : "24.13657",
      "inDis" : "50",
      "routeId" : "53",
      "seqNo" : "38"
   },
   {
      "GoBack" : "1",
      "longitude" : "120.64633",
      "outDis" : "50",
      "Id" : "5097",
      "oid" : "13121",
      "districtId" : "1",
      "nameZh" : "文心南永春東路口",
      "pgp" : "0",
      "terminal" : "0",
      "latitude" : "24.13441",
      "inDis" : "50",
      "routeId" : "53",
      "seqNo" : "39"
   },
   {
      "GoBack" : "1",
      "longitude" : "120.64634",
      "outDis" : "50",
      "Id" : "0026",
      "oid" : "13340",
      "districtId" : "1",
      "nameZh" : "豐樂公園",
      "pgp" : "0",
      "terminal" : "0",
      "latitude" : "24.13032",
      "inDis" : "50",
      "routeId" : "53",
      "seqNo" : "40"
   },
   {
      "GoBack" : "1",
      "longitude" : "120.64848",
      "outDis" : "50",
      "Id" : "4034",
      "oid" : "13254",
      "districtId" : "1",
      "nameZh" : "中山醫學大學",
      "pgp" : "0",
      "terminal" : "0",
      "latitude" : "24.12297",
      "inDis" : "50",
      "routeId" : "53",
      "seqNo" : "42"
   },
   {
      "GoBack" : "1",
      "longitude" : "120.652",
      "outDis" : "50",
      "Id" : "5685",
      "oid" : "319652950",
      "districtId" : "1",
      "nameZh" : "文心南復興北路口",
      "pgp" : "0",
      "terminal" : "0",
      "latitude" : "24.11884",
      "inDis" : "50",
      "routeId" : "53",
      "seqNo" : "43"
   },
   {
      "GoBack" : "1",
      "longitude" : "120.65434",
      "outDis" : "50",
      "Id" : "4363",
      "oid" : "13191",
      "districtId" : "1",
      "nameZh" : "特力屋(臺中店)",
      "pgp" : "0",
      "terminal" : "0",
      "latitude" : "24.11593",
      "inDis" : "50",
      "routeId" : "53",
      "seqNo" : "44"
   },
   {
      "GoBack" : "1",
      "longitude" : "120.656",
      "outDis" : "50",
      "Id" : "4354",
      "oid" : "13123",
      "districtId" : "1",
      "nameZh" : "文心南大慶街口",
      "pgp" : "0",
      "terminal" : "0",
      "latitude" : "24.11419",
      "inDis" : "50",
      "routeId" : "53",
      "seqNo" : "45"
   },
   {
      "GoBack" : "1",
      "longitude" : "120.65814",
      "outDis" : "50",
      "Id" : "4289",
      "oid" : "13199",
      "districtId" : "1",
      "nameZh" : "高工文心南路口",
      "pgp" : "0",
      "terminal" : "0",
      "latitude" : "24.11321",
      "inDis" : "50",
      "routeId" : "53",
      "seqNo" : "46"
   },
   {
      "GoBack" : "1",
      "longitude" : "120.66241",
      "outDis" : "50",
      "Id" : "4537",
      "oid" : "13141",
      "districtId" : "1",
      "nameZh" : "臺中高工(高工路)",
      "pgp" : "0",
      "terminal" : "0",
      "latitude" : "24.11325",
      "inDis" : "50",
      "routeId" : "53",
      "seqNo" : "47"
   },
   {
      "GoBack" : "1",
      "longitude" : "120.66499",
      "outDis" : "50",
      "Id" : "4258",
      "oid" : "13085",
      "districtId" : "1",
      "nameZh" : "工學一街口",
      "pgp" : "0",
      "terminal" : "0",
      "latitude" : "24.11385",
      "inDis" : "50",
      "routeId" : "53",
      "seqNo" : "48"
   },
   {
      "GoBack" : "1",
      "longitude" : "120.66796",
      "outDis" : "50",
      "Id" : "4367",
      "oid" : "F31176F499D2426C84080D3B88E9B284",
      "districtId" : "1",
      "nameZh" : "僑泰中學(高工路)",
      "pgp" : "0",
      "terminal" : "0",
      "latitude" : "24.11442",
      "inDis" : "50",
      "routeId" : "53",
      "seqNo" : "49"
   },
   {
      "GoBack" : "1",
      "longitude" : "120.67142",
      "outDis" : "50",
      "Id" : "4305",
      "oid" : "13235",
      "districtId" : "1",
      "nameZh" : "積善公園",
      "pgp" : "0",
      "terminal" : "0",
      "latitude" : "24.11474",
      "inDis" : "50",
      "routeId" : "53",
      "seqNo" : "50"
   },
   {
      "GoBack" : "1",
      "longitude" : "120.67478",
      "outDis" : "50",
      "Id" : "4257",
      "oid" : "13079",
      "districtId" : "1",
      "nameZh" : "大明爽文路口",
      "pgp" : "0",
      "terminal" : "0",
      "latitude" : "24.11495",
      "inDis" : "50",
      "routeId" : "53",
      "seqNo" : "51"
   },
   {
      "GoBack" : "1",
      "longitude" : "120.67797",
      "outDis" : "50",
      "Id" : "4256",
      "oid" : "13077",
      "districtId" : "1",
      "nameZh" : "大明國光路口",
      "pgp" : "0",
      "terminal" : "0",
      "latitude" : "24.11488",
      "inDis" : "50",
      "routeId" : "53",
      "seqNo" : "52"
   },
   {
      "GoBack" : "1",
      "longitude" : "120.68269",
      "outDis" : "50",
      "Id" : "4255",
      "oid" : "13075",
      "districtId" : "1",
      "nameZh" : "大明益民路口",
      "pgp" : "0",
      "terminal" : "0",
      "latitude" : "24.11523",
      "inDis" : "50",
      "routeId" : "53",
      "seqNo" : "53"
   },
   {
      "GoBack" : "1",
      "longitude" : "120.68389",
      "outDis" : "50",
      "Id" : "4295",
      "oid" : "13315",
      "districtId" : "1",
      "nameZh" : "崇光國小",
      "pgp" : "0",
      "terminal" : "0",
      "latitude" : "24.11366",
      "inDis" : "50",
      "routeId" : "53",
      "seqNo" : "54"
   },
   {
      "GoBack" : "1",
      "longitude" : "120.684",
      "outDis" : "50",
      "Id" : "5626",
      "oid" : "139064869",
      "districtId" : "1",
      "nameZh" : "興大附中(益民路)",
      "pgp" : "0",
      "terminal" : "0",
      "latitude" : "24.10988",
      "inDis" : "50",
      "routeId" : "53",
      "seqNo" : "55"
   },
   {
      "GoBack" : "1",
      "longitude" : "120.68572",
      "outDis" : "50",
      "Id" : "4288",
      "oid" : "13195",
      "districtId" : "1",
      "nameZh" : "益民德芳路口",
      "pgp" : "0",
      "terminal" : "0",
      "latitude" : "24.10694",
      "inDis" : "50",
      "routeId" : "53",
      "seqNo" : "56"
   },
   {
      "GoBack" : "1",
      "longitude" : "120.68866",
      "outDis" : "50",
      "Id" : "4287",
      "oid" : "13193",
      "districtId" : "1",
      "nameZh" : "益民國小",
      "pgp" : "0",
      "terminal" : "0",
      "latitude" : "24.10649",
      "inDis" : "50",
      "routeId" : "53",
      "seqNo" : "57"
   },
   {
      "GoBack" : "1",
      "longitude" : "120.68915",
      "outDis" : "50",
      "Id" : "2026",
      "oid" : "13149",
      "districtId" : "1",
      "nameZh" : "立人高中",
      "pgp" : "0",
      "terminal" : "0",
      "latitude" : "24.10479",
      "inDis" : "50",
      "routeId" : "53",
      "seqNo" : "58"
   },
   {
      "GoBack" : "1",
      "longitude" : "120.68851",
      "outDis" : "50",
      "Id" : "1126",
      "oid" : "13066",
      "districtId" : "1",
      "nameZh" : "下內新",
      "pgp" : "0",
      "terminal" : "0",
      "latitude" : "24.10263",
      "inDis" : "50",
      "routeId" : "53",
      "seqNo" : "59"
   },
   {
      "GoBack" : "1",
      "longitude" : "120.6879",
      "outDis" : "50",
      "Id" : "5151",
      "oid" : "12581",
      "districtId" : "1",
      "nameZh" : "兒童藝術館(中興路)",
      "pgp" : "0",
      "terminal" : "0",
      "latitude" : "24.10002",
      "inDis" : "50",
      "routeId" : "53",
      "seqNo" : "60"
   },
   {
      "GoBack" : "1",
      "longitude" : "120.68694",
      "outDis" : "50",
      "Id" : "1322",
      "oid" : "309974047",
      "districtId" : "1",
      "nameZh" : "大突寮(中興路)",
      "pgp" : "0",
      "terminal" : "0",
      "latitude" : "24.09735",
      "inDis" : "50",
      "routeId" : "53",
      "seqNo" : "61"
   },
   {
      "GoBack" : "1",
      "longitude" : "120.69172",
      "outDis" : "50",
      "Id" : "4661",
      "oid" : "13101",
      "districtId" : "1",
      "nameZh" : "中興仁化路口",
      "pgp" : "0",
      "terminal" : "0",
      "latitude" : "24.09148",
      "inDis" : "50",
      "routeId" : "53",
      "seqNo" : "62"
   },
   {
      "GoBack" : "1",
      "longitude" : "120.69385",
      "outDis" : "50",
      "Id" : "4286",
      "oid" : "13181",
      "districtId" : "1",
      "nameZh" : "青年高中",
      "pgp" : "0",
      "terminal" : "0",
      "latitude" : "24.0897",
      "inDis" : "50",
      "routeId" : "53",
      "seqNo" : "63"
   },
   {
      "GoBack" : "1",
      "longitude" : "120.69593",
      "outDis" : "50",
      "Id" : "4253",
      "oid" : "13071",
      "districtId" : "1",
      "nameZh" : "大里圖書館(中興路)",
      "pgp" : "0",
      "terminal" : "0",
      "latitude" : "24.08743",
      "inDis" : "50",
      "routeId" : "53",
      "seqNo" : "64"
   },
   {
      "GoBack" : "1",
      "longitude" : "120.69713",
      "outDis" : "50",
      "Id" : "2866",
      "oid" : "13197",
      "districtId" : "1",
      "nameZh" : "草湖",
      "pgp" : "0",
      "terminal" : "0",
      "latitude" : "24.08362",
      "inDis" : "50",
      "routeId" : "53",
      "seqNo" : "65"
   },
   {
      "GoBack" : "1",
      "longitude" : "120.69825",
      "outDis" : "50",
      "Id" : "4349",
      "oid" : "13099",
      "districtId" : "1",
      "nameZh" : "中興東南路口",
      "pgp" : "0",
      "terminal" : "0",
      "latitude" : "24.08012",
      "inDis" : "50",
      "routeId" : "53",
      "seqNo" : "66"
   },
   {
      "GoBack" : "1",
      "longitude" : "120.69947",
      "outDis" : "50",
      "Id" : "2062",
      "oid" : "13155",
      "districtId" : "1",
      "nameZh" : "中正吉峰路口",
      "pgp" : "0",
      "terminal" : "0",
      "latitude" : "24.0765",
      "inDis" : "50",
      "routeId" : "53",
      "seqNo" : "67"
   },
   {
      "GoBack" : "1",
      "longitude" : "120.69968",
      "outDis" : "50",
      "Id" : "3980",
      "oid" : "13249",
      "districtId" : "1",
      "nameZh" : "霧峰農工",
      "pgp" : "0",
      "terminal" : "0",
      "latitude" : "24.07308",
      "inDis" : "50",
      "routeId" : "53",
      "seqNo" : "68"
   },
   {
      "GoBack" : "1",
      "longitude" : "120.69928",
      "outDis" : "50",
      "Id" : "1994",
      "oid" : "13147",
      "districtId" : "1",
      "nameZh" : "甲寅",
      "pgp" : "0",
      "terminal" : "0",
      "latitude" : "24.0697",
      "inDis" : "50",
      "routeId" : "53",
      "seqNo" : "69"
   },
   {
      "GoBack" : "1",
      "longitude" : "120.69908",
      "outDis" : "50",
      "Id" : "4972",
      "oid" : "309120171",
      "districtId" : "1",
      "nameZh" : "中正草湖路口",
      "pgp" : "0",
      "terminal" : "0",
      "latitude" : "24.06822",
      "inDis" : "50",
      "routeId" : "53",
      "seqNo" : "70"
   },
   {
      "GoBack" : "1",
      "longitude" : "120.69852",
      "outDis" : "50",
      "Id" : "3972",
      "oid" : "13245",
      "districtId" : "1",
      "nameZh" : "霧峰",
      "pgp" : "0",
      "terminal" : "0",
      "latitude" : "24.06383",
      "inDis" : "50",
      "routeId" : "53",
      "seqNo" : "71"
   },
   {
      "GoBack" : "1",
      "longitude" : "120.69829",
      "outDis" : "50",
      "Id" : "3978",
      "oid" : "8108",
      "districtId" : "1",
      "nameZh" : "霧峰郵局",
      "pgp" : "0",
      "terminal" : "0",
      "latitude" : "24.06197",
      "inDis" : "50",
      "routeId" : "53",
      "seqNo" : "72"
   },
   {
      "GoBack" : "1",
      "longitude" : "120.69799",
      "outDis" : "50",
      "Id" : "5546",
      "oid" : "316462697",
      "districtId" : "1",
      "nameZh" : "教育部國教署",
      "pgp" : "0",
      "terminal" : "0",
      "latitude" : "24.05932",
      "inDis" : "50",
      "routeId" : "53",
      "seqNo" : "73"
   },
   {
      "GoBack" : "1",
      "longitude" : "120.6977",
      "outDis" : "50",
      "Id" : "3976",
      "oid" : "13247",
      "districtId" : "1",
      "nameZh" : "霧峰國小",
      "pgp" : "0",
      "terminal" : "0",
      "latitude" : "24.05745",
      "inDis" : "50",
      "routeId" : "53",
      "seqNo" : "74"
   },
   {
      "GoBack" : "1",
      "longitude" : "120.69688",
      "outDis" : "50",
      "Id" : "2692",
      "oid" : "13185",
      "districtId" : "1",
      "nameZh" : "省議會",
      "pgp" : "0",
      "terminal" : "0",
      "latitude" : "24.05527",
      "inDis" : "50",
      "routeId" : "53",
      "seqNo" : "75"
   },
   {
      "GoBack" : "2",
      "longitude" : "120.69683",
      "outDis" : "50",
      "Id" : "2692",
      "oid" : "13186",
      "districtId" : "1",
      "nameZh" : "省議會",
      "pgp" : "0",
      "terminal" : "0",
      "latitude" : "24.05493",
      "inDis" : "50",
      "routeId" : "53",
      "seqNo" : "1"
   },
   {
      "GoBack" : "2",
      "longitude" : "120.6979",
      "outDis" : "50",
      "Id" : "3976",
      "oid" : "13248",
      "districtId" : "1",
      "nameZh" : "霧峰國小",
      "pgp" : "0",
      "terminal" : "0",
      "latitude" : "24.05787",
      "inDis" : "50",
      "routeId" : "53",
      "seqNo" : "2"
   },
   {
      "GoBack" : "2",
      "longitude" : "120.69807",
      "outDis" : "50",
      "Id" : "5546",
      "oid" : "316462698",
      "districtId" : "1",
      "nameZh" : "教育部國教署",
      "pgp" : "0",
      "terminal" : "0",
      "latitude" : "24.05974",
      "inDis" : "50",
      "routeId" : "53",
      "seqNo" : "3"
   },
   {
      "GoBack" : "2",
      "longitude" : "120.69847",
      "outDis" : "50",
      "Id" : "3978",
      "oid" : "10370",
      "districtId" : "1",
      "nameZh" : "霧峰郵局",
      "pgp" : "0",
      "terminal" : "0",
      "latitude" : "24.06252",
      "inDis" : "50",
      "routeId" : "53",
      "seqNo" : "4"
   },
   {
      "GoBack" : "2",
      "longitude" : "120.69862",
      "outDis" : "50",
      "Id" : "3972",
      "oid" : "13246",
      "districtId" : "1",
      "nameZh" : "霧峰",
      "pgp" : "0",
      "terminal" : "0",
      "latitude" : "24.0635",
      "inDis" : "50",
      "routeId" : "53",
      "seqNo" : "5"
   },
   {
      "GoBack" : "2",
      "longitude" : "120.69913",
      "outDis" : "50",
      "Id" : "4972",
      "oid" : "309120172",
      "districtId" : "1",
      "nameZh" : "中正草湖路口",
      "pgp" : "0",
      "terminal" : "0",
      "latitude" : "24.0673",
      "inDis" : "50",
      "routeId" : "53",
      "seqNo" : "6"
   },
   {
      "GoBack" : "2",
      "longitude" : "120.69942",
      "outDis" : "50",
      "Id" : "1994",
      "oid" : "13148",
      "districtId" : "1",
      "nameZh" : "甲寅",
      "pgp" : "0",
      "terminal" : "0",
      "latitude" : "24.06952",
      "inDis" : "50",
      "routeId" : "53",
      "seqNo" : "7"
   },
   {
      "GoBack" : "2",
      "longitude" : "120.69985",
      "outDis" : "50",
      "Id" : "3980",
      "oid" : "13250",
      "districtId" : "1",
      "nameZh" : "霧峰農工",
      "pgp" : "0",
      "terminal" : "0",
      "latitude" : "24.07303",
      "inDis" : "50",
      "routeId" : "53",
      "seqNo" : "8"
   },
   {
      "GoBack" : "2",
      "longitude" : "120.69987",
      "outDis" : "50",
      "Id" : "2062",
      "oid" : "13156",
      "districtId" : "1",
      "nameZh" : "中正吉峰路口",
      "pgp" : "0",
      "terminal" : "0",
      "latitude" : "24.07597",
      "inDis" : "50",
      "routeId" : "53",
      "seqNo" : "9"
   },
   {
      "GoBack" : "2",
      "longitude" : "120.69823",
      "outDis" : "50",
      "Id" : "4349",
      "oid" : "13100",
      "districtId" : "1",
      "nameZh" : "中興東南路口",
      "pgp" : "0",
      "terminal" : "0",
      "latitude" : "24.08097",
      "inDis" : "50",
      "routeId" : "53",
      "seqNo" : "10"
   },
   {
      "GoBack" : "2",
      "longitude" : "120.69745",
      "outDis" : "50",
      "Id" : "2866",
      "oid" : "13198",
      "districtId" : "1",
      "nameZh" : "草湖",
      "pgp" : "0",
      "terminal" : "0",
      "latitude" : "24.08347",
      "inDis" : "50",
      "routeId" : "53",
      "seqNo" : "11"
   },
   {
      "GoBack" : "2",
      "longitude" : "120.69635",
      "outDis" : "50",
      "Id" : "5034",
      "oid" : "309557183",
      "districtId" : "1",
      "nameZh" : "財政部印刷廠",
      "pgp" : "0",
      "terminal" : "0",
      "latitude" : "24.08663",
      "inDis" : "50",
      "routeId" : "53",
      "seqNo" : "12"
   },
   {
      "GoBack" : "2",
      "longitude" : "120.69536",
      "outDis" : "50",
      "Id" : "4253",
      "oid" : "13072",
      "districtId" : "1",
      "nameZh" : "大里圖書館(中興路)",
      "pgp" : "0",
      "terminal" : "0",
      "latitude" : "24.08867",
      "inDis" : "50",
      "routeId" : "53",
      "seqNo" : "13"
   },
   {
      "GoBack" : "2",
      "longitude" : "120.6941",
      "outDis" : "50",
      "Id" : "4286",
      "oid" : "13182",
      "districtId" : "1",
      "nameZh" : "青年高中",
      "pgp" : "0",
      "terminal" : "0",
      "latitude" : "24.0898",
      "inDis" : "50",
      "routeId" : "53",
      "seqNo" : "14"
   },
   {
      "GoBack" : "2",
      "longitude" : "120.69178",
      "outDis" : "50",
      "Id" : "4661",
      "oid" : "13102",
      "districtId" : "1",
      "nameZh" : "中興仁化路口",
      "pgp" : "0",
      "terminal" : "0",
      "latitude" : "24.09162",
      "inDis" : "50",
      "routeId" : "53",
      "seqNo" : "15"
   },
   {
      "GoBack" : "2",
      "longitude" : "120.68694",
      "outDis" : "50",
      "Id" : "1322",
      "oid" : "309974047",
      "districtId" : "1",
      "nameZh" : "大突寮(中興路)",
      "pgp" : "0",
      "terminal" : "0",
      "latitude" : "24.09735",
      "inDis" : "50",
      "routeId" : "53",
      "seqNo" : "16"
   },
   {
      "GoBack" : "2",
      "longitude" : "120.6879",
      "outDis" : "50",
      "Id" : "5151",
      "oid" : "12581",
      "districtId" : "1",
      "nameZh" : "兒童藝術館(中興路)",
      "pgp" : "0",
      "terminal" : "0",
      "latitude" : "24.10002",
      "inDis" : "50",
      "routeId" : "53",
      "seqNo" : "17"
   },
   {
      "GoBack" : "2",
      "longitude" : "120.68859",
      "outDis" : "50",
      "Id" : "1126",
      "oid" : "13065",
      "districtId" : "1",
      "nameZh" : "下內新",
      "pgp" : "0",
      "terminal" : "0",
      "latitude" : "24.10273",
      "inDis" : "50",
      "routeId" : "53",
      "seqNo" : "18"
   },
   {
      "GoBack" : "2",
      "longitude" : "120.68909",
      "outDis" : "50",
      "Id" : "2026",
      "oid" : "13150",
      "districtId" : "1",
      "nameZh" : "立人高中",
      "pgp" : "0",
      "terminal" : "0",
      "latitude" : "24.10434",
      "inDis" : "50",
      "routeId" : "53",
      "seqNo" : "19"
   },
   {
      "GoBack" : "2",
      "longitude" : "120.68869",
      "outDis" : "50",
      "Id" : "4287",
      "oid" : "13194",
      "districtId" : "1",
      "nameZh" : "益民國小",
      "pgp" : "0",
      "terminal" : "0",
      "latitude" : "24.10644",
      "inDis" : "50",
      "routeId" : "53",
      "seqNo" : "20"
   },
   {
      "GoBack" : "2",
      "longitude" : "120.68589",
      "outDis" : "50",
      "Id" : "4288",
      "oid" : "13196",
      "districtId" : "1",
      "nameZh" : "益民德芳路口",
      "pgp" : "0",
      "terminal" : "0",
      "latitude" : "24.10688",
      "inDis" : "50",
      "routeId" : "53",
      "seqNo" : "21"
   },
   {
      "GoBack" : "2",
      "longitude" : "120.684",
      "outDis" : "50",
      "Id" : "5626",
      "oid" : "139064869",
      "districtId" : "1",
      "nameZh" : "興大附中(益民路)",
      "pgp" : "0",
      "terminal" : "0",
      "latitude" : "24.10988",
      "inDis" : "50",
      "routeId" : "53",
      "seqNo" : "22"
   },
   {
      "GoBack" : "2",
      "longitude" : "120.68389",
      "outDis" : "50",
      "Id" : "4295",
      "oid" : "13315",
      "districtId" : "1",
      "nameZh" : "崇光國小",
      "pgp" : "0",
      "terminal" : "0",
      "latitude" : "24.11366",
      "inDis" : "50",
      "routeId" : "53",
      "seqNo" : "23"
   },
   {
      "GoBack" : "2",
      "longitude" : "120.68261",
      "outDis" : "50",
      "Id" : "4255",
      "oid" : "13076",
      "districtId" : "1",
      "nameZh" : "大明益民路口",
      "pgp" : "0",
      "terminal" : "0",
      "latitude" : "24.11508",
      "inDis" : "50",
      "routeId" : "53",
      "seqNo" : "24"
   },
   {
      "GoBack" : "2",
      "longitude" : "120.67838",
      "outDis" : "50",
      "Id" : "4256",
      "oid" : "13078",
      "districtId" : "1",
      "nameZh" : "大明國光路口",
      "pgp" : "0",
      "terminal" : "0",
      "latitude" : "24.11505",
      "inDis" : "50",
      "routeId" : "53",
      "seqNo" : "25"
   },
   {
      "GoBack" : "2",
      "longitude" : "120.67469",
      "outDis" : "50",
      "Id" : "4257",
      "oid" : "13080",
      "districtId" : "1",
      "nameZh" : "大明爽文路口",
      "pgp" : "0",
      "terminal" : "0",
      "latitude" : "24.11494",
      "inDis" : "50",
      "routeId" : "53",
      "seqNo" : "26"
   },
   {
      "GoBack" : "2",
      "longitude" : "120.67142",
      "outDis" : "50",
      "Id" : "4305",
      "oid" : "13235",
      "districtId" : "1",
      "nameZh" : "積善公園",
      "pgp" : "0",
      "terminal" : "0",
      "latitude" : "24.11474",
      "inDis" : "50",
      "routeId" : "53",
      "seqNo" : "27"
   },
   {
      "GoBack" : "2",
      "longitude" : "120.66795",
      "outDis" : "50",
      "Id" : "4367",
      "oid" : "13236",
      "districtId" : "1",
      "nameZh" : "僑泰中學(高工路)",
      "pgp" : "0",
      "terminal" : "0",
      "latitude" : "24.11431",
      "inDis" : "50",
      "routeId" : "53",
      "seqNo" : "28"
   },
   {
      "GoBack" : "2",
      "longitude" : "120.66538",
      "outDis" : "50",
      "Id" : "4258",
      "oid" : "13086",
      "districtId" : "1",
      "nameZh" : "工學一街口",
      "pgp" : "0",
      "terminal" : "0",
      "latitude" : "24.11397",
      "inDis" : "50",
      "routeId" : "53",
      "seqNo" : "29"
   },
   {
      "GoBack" : "2",
      "longitude" : "120.66198",
      "outDis" : "50",
      "Id" : "4537",
      "oid" : "13142",
      "districtId" : "1",
      "nameZh" : "臺中高工(高工路)",
      "pgp" : "0",
      "terminal" : "0",
      "latitude" : "24.11335",
      "inDis" : "50",
      "routeId" : "53",
      "seqNo" : "30"
   },
   {
      "GoBack" : "2",
      "longitude" : "120.65879",
      "outDis" : "50",
      "Id" : "4289",
      "oid" : "13200",
      "districtId" : "1",
      "nameZh" : "高工文心南路口",
      "pgp" : "0",
      "terminal" : "0",
      "latitude" : "24.11333",
      "inDis" : "50",
      "routeId" : "53",
      "seqNo" : "31"
   },
   {
      "GoBack" : "2",
      "longitude" : "120.65664",
      "outDis" : "50",
      "Id" : "4354",
      "oid" : "13124",
      "districtId" : "1",
      "nameZh" : "文心南大慶街口",
      "pgp" : "0",
      "terminal" : "0",
      "latitude" : "24.11421",
      "inDis" : "50",
      "routeId" : "53",
      "seqNo" : "32"
   },
   {
      "GoBack" : "2",
      "longitude" : "120.65445",
      "outDis" : "50",
      "Id" : "4363",
      "oid" : "13192",
      "districtId" : "1",
      "nameZh" : "特力屋(臺中店)",
      "pgp" : "0",
      "terminal" : "0",
      "latitude" : "24.11636",
      "inDis" : "50",
      "routeId" : "53",
      "seqNo" : "33"
   },
   {
      "GoBack" : "2",
      "longitude" : "120.652",
      "outDis" : "50",
      "Id" : "5685",
      "oid" : "319652950",
      "districtId" : "1",
      "nameZh" : "文心南復興北路口",
      "pgp" : "0",
      "terminal" : "0",
      "latitude" : "24.11884",
      "inDis" : "50",
      "routeId" : "53",
      "seqNo" : "34"
   },
   {
      "GoBack" : "2",
      "longitude" : "120.64848",
      "outDis" : "50",
      "Id" : "4034",
      "oid" : "13254",
      "districtId" : "1",
      "nameZh" : "中山醫學大學",
      "pgp" : "0",
      "terminal" : "0",
      "latitude" : "24.12297",
      "inDis" : "50",
      "routeId" : "53",
      "seqNo" : "35"
   },
   {
      "GoBack" : "2",
      "longitude" : "120.64634",
      "outDis" : "50",
      "Id" : "0026",
      "oid" : "13340",
      "districtId" : "1",
      "nameZh" : "豐樂公園",
      "pgp" : "0",
      "terminal" : "0",
      "latitude" : "24.13032",
      "inDis" : "50",
      "routeId" : "53",
      "seqNo" : "37"
   },
   {
      "GoBack" : "2",
      "longitude" : "120.64633",
      "outDis" : "50",
      "Id" : "5097",
      "oid" : "13121",
      "districtId" : "1",
      "nameZh" : "文心南永春東路口",
      "pgp" : "0",
      "terminal" : "0",
      "latitude" : "24.13441",
      "inDis" : "50",
      "routeId" : "53",
      "seqNo" : "38"
   },
   {
      "GoBack" : "2",
      "longitude" : "120.64659",
      "outDis" : "50",
      "Id" : "5098",
      "oid" : "13276",
      "districtId" : "1",
      "nameZh" : "文心南南屯路口",
      "pgp" : "0",
      "terminal" : "0",
      "latitude" : "24.13657",
      "inDis" : "50",
      "routeId" : "53",
      "seqNo" : "39"
   },
   {
      "GoBack" : "2",
      "longitude" : "120.64681",
      "outDis" : "50",
      "Id" : "4267",
      "oid" : "13120",
      "districtId" : "1",
      "nameZh" : "文心五權西路口",
      "pgp" : "0",
      "terminal" : "0",
      "latitude" : "24.13951",
      "inDis" : "50",
      "routeId" : "53",
      "seqNo" : "40"
   },
   {
      "GoBack" : "2",
      "longitude" : "120.64662",
      "outDis" : "50",
      "Id" : "4272",
      "oid" : "13272",
      "districtId" : "1",
      "nameZh" : "文心向心路口",
      "pgp" : "0",
      "terminal" : "0",
      "latitude" : "24.14243",
      "inDis" : "50",
      "routeId" : "53",
      "seqNo" : "41"
   },
   {
      "GoBack" : "2",
      "longitude" : "120.6466",
      "outDis" : "50",
      "Id" : "5477",
      "oid" : "13279",
      "districtId" : "1",
      "nameZh" : "文心大墩七街口",
      "pgp" : "0",
      "terminal" : "0",
      "latitude" : "24.14419",
      "inDis" : "50",
      "routeId" : "53",
      "seqNo" : "42"
   },
   {
      "GoBack" : "2",
      "longitude" : "120.6465",
      "outDis" : "75",
      "Id" : "4356",
      "oid" : "10994",
      "districtId" : "1",
      "nameZh" : "文心森林公園",
      "pgp" : "0",
      "terminal" : "0",
      "latitude" : "24.14631",
      "inDis" : "75",
      "routeId" : "53",
      "seqNo" : "43"
   },
   {
      "GoBack" : "2",
      "longitude" : "120.64669",
      "outDis" : "50",
      "Id" : "4268",
      "oid" : "13268",
      "districtId" : "1",
      "nameZh" : "文心公益路口",
      "pgp" : "0",
      "terminal" : "0",
      "latitude" : "24.15048",
      "inDis" : "50",
      "routeId" : "53",
      "seqNo" : "44"
   },
   {
      "GoBack" : "2",
      "longitude" : "120.64672",
      "outDis" : "50",
      "Id" : "4270",
      "oid" : "13270",
      "districtId" : "1",
      "nameZh" : "文心市政路口",
      "pgp" : "0",
      "terminal" : "0",
      "latitude" : "24.15461",
      "inDis" : "50",
      "routeId" : "53",
      "seqNo" : "45"
   },
   {
      "GoBack" : "2",
      "longitude" : "120.64682",
      "outDis" : "50",
      "Id" : "1433",
      "oid" : "13256",
      "districtId" : "1",
      "nameZh" : "中央健保局(文心路)",
      "pgp" : "0",
      "terminal" : "0",
      "latitude" : "24.15762",
      "inDis" : "50",
      "routeId" : "53",
      "seqNo" : "46"
   },
   {
      "GoBack" : "2",
      "longitude" : "120.64751",
      "outDis" : "50",
      "Id" : "0019",
      "oid" : "13298",
      "districtId" : "1",
      "nameZh" : "市警局",
      "pgp" : "0",
      "terminal" : "0",
      "latitude" : "24.15938",
      "inDis" : "50",
      "routeId" : "53",
      "seqNo" : "47"
   },
   {
      "GoBack" : "2",
      "longitude" : "120.64866",
      "outDis" : "50",
      "Id" : "4266",
      "oid" : "13267",
      "districtId" : "1",
      "nameZh" : "文心臺灣大道口",
      "pgp" : "0",
      "terminal" : "0",
      "latitude" : "24.16128",
      "inDis" : "50",
      "routeId" : "53",
      "seqNo" : "48"
   },
   {
      "GoBack" : "2",
      "longitude" : "120.65057",
      "outDis" : "50",
      "Id" : "4269",
      "oid" : "13269",
      "districtId" : "1",
      "nameZh" : "文心四川路口",
      "pgp" : "0",
      "terminal" : "0",
      "latitude" : "24.16388",
      "inDis" : "50",
      "routeId" : "53",
      "seqNo" : "49"
   },
   {
      "GoBack" : "2",
      "longitude" : "120.65221",
      "outDis" : "50",
      "Id" : "4273",
      "oid" : "13273",
      "districtId" : "1",
      "nameZh" : "文心西屯路口",
      "pgp" : "0",
      "terminal" : "0",
      "latitude" : "24.16614",
      "inDis" : "50",
      "routeId" : "53",
      "seqNo" : "50"
   },
   {
      "GoBack" : "2",
      "longitude" : "120.65563",
      "outDis" : "50",
      "Id" : "4271",
      "oid" : "13271",
      "districtId" : "1",
      "nameZh" : "文心甘肅路口",
      "pgp" : "0",
      "terminal" : "0",
      "latitude" : "24.16903",
      "inDis" : "50",
      "routeId" : "53",
      "seqNo" : "51"
   },
   {
      "GoBack" : "2",
      "longitude" : "120.65914",
      "outDis" : "50",
      "Id" : "4612",
      "oid" : "13281",
      "districtId" : "1",
      "nameZh" : "文華高中(文心路)",
      "pgp" : "0",
      "terminal" : "0",
      "latitude" : "24.17101",
      "inDis" : "50",
      "routeId" : "53",
      "seqNo" : "52"
   },
   {
      "GoBack" : "2",
      "longitude" : "120.66069",
      "outDis" : "50",
      "Id" : "4275",
      "oid" : "13275",
      "districtId" : "1",
      "nameZh" : "文心河南路口",
      "pgp" : "0",
      "terminal" : "0",
      "latitude" : "24.17149",
      "inDis" : "50",
      "routeId" : "53",
      "seqNo" : "53"
   },
   {
      "GoBack" : "2",
      "longitude" : "120.66342",
      "outDis" : "50",
      "Id" : "0230",
      "oid" : "13312",
      "districtId" : "1",
      "nameZh" : "重慶國小",
      "pgp" : "0",
      "terminal" : "0",
      "latitude" : "24.17225",
      "inDis" : "50",
      "routeId" : "53",
      "seqNo" : "54"
   },
   {
      "GoBack" : "2",
      "longitude" : "120.66561",
      "outDis" : "50",
      "Id" : "0229",
      "oid" : "13296",
      "districtId" : "1",
      "nameZh" : "臺灣日報",
      "pgp" : "0",
      "terminal" : "0",
      "latitude" : "24.17277",
      "inDis" : "50",
      "routeId" : "53",
      "seqNo" : "55"
   },
   {
      "GoBack" : "2",
      "longitude" : "120.66832",
      "outDis" : "50",
      "Id" : "4355",
      "oid" : "13277",
      "districtId" : "1",
      "nameZh" : "文心陝西路口",
      "pgp" : "0",
      "terminal" : "0",
      "latitude" : "24.17328",
      "inDis" : "50",
      "routeId" : "53",
      "seqNo" : "56"
   },
   {
      "GoBack" : "2",
      "longitude" : "120.67166",
      "outDis" : "50",
      "Id" : "4265",
      "oid" : "13266",
      "districtId" : "1",
      "nameZh" : "文心中清路口",
      "pgp" : "0",
      "terminal" : "0",
      "latitude" : "24.1738",
      "inDis" : "50",
      "routeId" : "53",
      "seqNo" : "57"
   },
   {
      "GoBack" : "2",
      "longitude" : "120.67447",
      "outDis" : "50",
      "Id" : "4276",
      "oid" : "12539",
      "districtId" : "1",
      "nameZh" : "文心青島東街口",
      "pgp" : "0",
      "terminal" : "0",
      "latitude" : "24.17376",
      "inDis" : "50",
      "routeId" : "53",
      "seqNo" : "58"
   },
   {
      "GoBack" : "2",
      "longitude" : "120.67568",
      "outDis" : "50",
      "Id" : "4277",
      "oid" : "13118",
      "districtId" : "1",
      "nameZh" : "文心山西路口",
      "pgp" : "0",
      "terminal" : "0",
      "latitude" : "24.17352",
      "inDis" : "50",
      "routeId" : "53",
      "seqNo" : "59"
   },
   {
      "GoBack" : "2",
      "longitude" : "120.67927",
      "outDis" : "50",
      "Id" : "4280",
      "oid" : "13127",
      "districtId" : "1",
      "nameZh" : "文心梅川西路口",
      "pgp" : "0",
      "terminal" : "0",
      "latitude" : "24.17296",
      "inDis" : "50",
      "routeId" : "53",
      "seqNo" : "60"
   },
   {
      "GoBack" : "2",
      "longitude" : "120.68246",
      "outDis" : "50",
      "Id" : "0224",
      "oid" : "13278",
      "districtId" : "1",
      "nameZh" : "文心國小",
      "pgp" : "0",
      "terminal" : "0",
      "latitude" : "24.17241",
      "inDis" : "50",
      "routeId" : "53",
      "seqNo" : "61"
   },
   {
      "GoBack" : "2",
      "longitude" : "120.68599",
      "outDis" : "50",
      "Id" : "4279",
      "oid" : "13125",
      "districtId" : "1",
      "nameZh" : "文心崇德路口",
      "pgp" : "0",
      "terminal" : "0",
      "latitude" : "24.17195",
      "inDis" : "50",
      "routeId" : "53",
      "seqNo" : "62"
   },
   {
      "GoBack" : "2",
      "longitude" : "120.68764",
      "outDis" : "50",
      "Id" : "4283",
      "oid" : "13280",
      "districtId" : "1",
      "nameZh" : "文心熱河路口",
      "pgp" : "0",
      "terminal" : "0",
      "latitude" : "24.17184",
      "inDis" : "50",
      "routeId" : "53",
      "seqNo" : "63"
   },
   {
      "GoBack" : "2",
      "longitude" : "120.69167",
      "outDis" : "50",
      "Id" : "4274",
      "oid" : "13274",
      "districtId" : "1",
      "nameZh" : "文心昌平路口",
      "pgp" : "0",
      "terminal" : "0",
      "latitude" : "24.17132",
      "inDis" : "50",
      "routeId" : "53",
      "seqNo" : "64"
   },
   {
      "GoBack" : "2",
      "longitude" : "120.69447",
      "outDis" : "50",
      "Id" : "5780",
      "oid" : "320882893",
      "districtId" : "1",
      "nameZh" : "文心興安路口",
      "pgp" : "0",
      "terminal" : "0",
      "latitude" : "24.17109",
      "inDis" : "50",
      "routeId" : "53",
      "seqNo" : "65"
   },
   {
      "GoBack" : "2",
      "longitude" : "120.6959",
      "outDis" : "50",
      "Id" : "0102",
      "oid" : "13297",
      "districtId" : "1",
      "nameZh" : "四維國小",
      "pgp" : "0",
      "terminal" : "0",
      "latitude" : "24.17093",
      "inDis" : "50",
      "routeId" : "53",
      "seqNo" : "66"
   },
   {
      "GoBack" : "2",
      "longitude" : "120.6983",
      "outDis" : "50",
      "Id" : "0222",
      "oid" : "13241",
      "districtId" : "1",
      "nameZh" : "聯安醫院",
      "pgp" : "0",
      "terminal" : "0",
      "latitude" : "24.1703",
      "inDis" : "50",
      "routeId" : "53",
      "seqNo" : "67"
   },
   {
      "GoBack" : "2",
      "longitude" : "120.70266",
      "outDis" : "50",
      "Id" : "4312",
      "oid" : "13176",
      "districtId" : "1",
      "nameZh" : "東光國小",
      "pgp" : "0",
      "terminal" : "0",
      "latitude" : "24.16978",
      "inDis" : "50",
      "routeId" : "53",
      "seqNo" : "68"
   },
   {
      "GoBack" : "2",
      "longitude" : "120.70432",
      "outDis" : "50",
      "Id" : "5712",
      "oid" : "13063",
      "districtId" : "1",
      "nameZh" : "三和/東光里",
      "pgp" : "0",
      "terminal" : "0",
      "latitude" : "24.16955",
      "inDis" : "50",
      "routeId" : "53",
      "seqNo" : "69"
   },
   {
      "GoBack" : "2",
      "longitude" : "120.70687",
      "outDis" : "50",
      "Id" : "4319",
      "oid" : "13062",
      "districtId" : "1",
      "nameZh" : "三甲公園",
      "pgp" : "0",
      "terminal" : "0",
      "latitude" : "24.16726",
      "inDis" : "50",
      "routeId" : "53",
      "seqNo" : "70"
   },
   {
      "GoBack" : "2",
      "longitude" : "120.7096",
      "outDis" : "80",
      "Id" : "5105",
      "oid" : "310603463",
      "districtId" : "1",
      "nameZh" : "景賢八路口",
      "pgp" : "0",
      "terminal" : "0",
      "latitude" : "24.16725",
      "inDis" : "30",
      "routeId" : "53",
      "seqNo" : "71"
   },
   {
      "GoBack" : "2",
      "longitude" : "120.71168",
      "outDis" : "50",
      "Id" : "4320",
      "oid" : "301532258",
      "districtId" : "1",
      "nameZh" : "東山高中",
      "pgp" : "0",
      "terminal" : "0",
      "latitude" : "24.16596",
      "inDis" : "50",
      "routeId" : "53",
      "seqNo" : "72"
   },
   {
      "GoBack" : "2",
      "longitude" : "120.70621",
      "outDis" : "90",
      "Id" : "0470",
      "oid" : "68D7F787D67B43BB8D728BAE37A2CBD8",
      "districtId" : "1",
      "nameZh" : "太原二號橋",
      "pgp" : "0",
      "terminal" : "0",
      "latitude" : "24.16468",
      "inDis" : "50",
      "routeId" : "53",
      "seqNo" : "73"
   },
   {
      "GoBack" : "2",
      "longitude" : "120.70346",
      "outDis" : "50",
      "Id" : "0218",
      "oid" : "13060",
      "districtId" : "1",
      "nameZh" : "三川福德祠",
      "pgp" : "0",
      "terminal" : "0",
      "latitude" : "24.16498",
      "inDis" : "50",
      "routeId" : "53",
      "seqNo" : "74"
   },
   {
      "GoBack" : "2",
      "longitude" : "120.70017",
      "outDis" : "50",
      "Id" : "4351",
      "oid" : "13263",
      "districtId" : "1",
      "nameZh" : "太原火車站",
      "pgp" : "0",
      "terminal" : "0",
      "latitude" : "24.16612",
      "inDis" : "50",
      "routeId" : "53",
      "seqNo" : "75"
   }
]
