[
   {
      "GoBack" : "1",
      "longitude" : "120.68464",
      "outDis" : "50",
      "Id" : "0041",
      "oid" : "C167CA455EFE4FFCB38588B3A312B63B",
      "districtId" : "1",
      "nameZh" : "臺中火車站",
      "pgp" : "0",
      "terminal" : "0",
      "latitude" : "24.13784",
      "inDis" : "50",
      "routeId" : "6",
      "seqNo" : "1"
   },
   {
      "GoBack" : "1",
      "longitude" : "120.68345",
      "outDis" : "50",
      "Id" : "0151",
      "oid" : "C81EADEE4A264A87952E15D4306AB72D",
      "districtId" : "1",
      "nameZh" : "第一廣場",
      "pgp" : "0",
      "terminal" : "0",
      "latitude" : "24.13906",
      "inDis" : "50",
      "routeId" : "6",
      "seqNo" : "2"
   },
   {
      "GoBack" : "1",
      "longitude" : "120.6826",
      "outDis" : "50",
      "Id" : "4401",
      "oid" : "95C23B3D67B441DEA2964A8080ADB25E",
      "districtId" : "1",
      "nameZh" : "彰化銀行(臺灣大道)",
      "pgp" : "0",
      "terminal" : "0",
      "latitude" : "24.13984",
      "inDis" : "50",
      "routeId" : "6",
      "seqNo" : "3"
   },
   {
      "GoBack" : "1",
      "longitude" : "120.68212",
      "outDis" : "50",
      "Id" : "0206",
      "oid" : "4F0E625E438442E89D3E7E588EB4E817",
      "districtId" : "1",
      "nameZh" : "第一信用",
      "pgp" : "0",
      "terminal" : "0",
      "latitude" : "24.14046",
      "inDis" : "50",
      "routeId" : "6",
      "seqNo" : "4"
   },
   {
      "GoBack" : "1",
      "longitude" : "120.68014",
      "outDis" : "50",
      "Id" : "4395",
      "oid" : "7573151EFC6949B795139FEDD5D0D6A0",
      "districtId" : "1",
      "nameZh" : "第二市場(臺灣大道)",
      "pgp" : "0",
      "terminal" : "0",
      "latitude" : "24.14198",
      "inDis" : "50",
      "routeId" : "6",
      "seqNo" : "5"
   },
   {
      "GoBack" : "1",
      "longitude" : "120.68133",
      "outDis" : "50",
      "Id" : "5506",
      "oid" : "F6FA47A1BA3940DE92C76AA095B5D022",
      "districtId" : "1",
      "nameZh" : "光復國小(三民路)",
      "pgp" : "0",
      "terminal" : "0",
      "latitude" : "24.14407",
      "inDis" : "50",
      "routeId" : "6",
      "seqNo" : "6"
   },
   {
      "GoBack" : "1",
      "longitude" : "120.68227",
      "outDis" : "50",
      "Id" : "4543",
      "oid" : "3889DA37343F488CA07D04BACAD3EFF3",
      "districtId" : "1",
      "nameZh" : "臺中公園(三民路)",
      "pgp" : "0",
      "terminal" : "0",
      "latitude" : "24.14525",
      "inDis" : "50",
      "routeId" : "6",
      "seqNo" : "7"
   },
   {
      "GoBack" : "1",
      "longitude" : "120.68387",
      "outDis" : "50",
      "Id" : "0045",
      "oid" : "994C49E4076C4E45996C70C565FF9B1B",
      "districtId" : "1",
      "nameZh" : "國立臺中科技大學",
      "pgp" : "0",
      "terminal" : "0",
      "latitude" : "24.14921",
      "inDis" : "50",
      "routeId" : "6",
      "seqNo" : "8"
   },
   {
      "GoBack" : "1",
      "longitude" : "120.68514",
      "outDis" : "50",
      "Id" : "0046",
      "oid" : "B14D08C718A34651A508B74873213384",
      "districtId" : "1",
      "nameZh" : "中友百貨",
      "pgp" : "0",
      "terminal" : "0",
      "latitude" : "24.15241",
      "inDis" : "50",
      "routeId" : "6",
      "seqNo" : "9"
   },
   {
      "GoBack" : "1",
      "longitude" : "120.68381",
      "outDis" : "50",
      "Id" : "3772",
      "oid" : "900AB447C1A84ABF9B0307D4C19EF61B",
      "districtId" : "1",
      "nameZh" : "五權學士路口",
      "pgp" : "0",
      "terminal" : "0",
      "latitude" : "24.1538",
      "inDis" : "50",
      "routeId" : "6",
      "seqNo" : "10"
   },
   {
      "GoBack" : "1",
      "longitude" : "120.68025",
      "outDis" : "50",
      "Id" : "0146",
      "oid" : "247487935B4E415DB0F48B572D8D2B2A",
      "districtId" : "1",
      "nameZh" : "五常里",
      "pgp" : "0",
      "terminal" : "0",
      "latitude" : "24.15236",
      "inDis" : "50",
      "routeId" : "6",
      "seqNo" : "11"
   },
   {
      "GoBack" : "1",
      "longitude" : "120.67864",
      "outDis" : "50",
      "Id" : "0145",
      "oid" : "9AEB2335BC2F41BE84BD87430620C4D1",
      "districtId" : "1",
      "nameZh" : "光大里",
      "pgp" : "0",
      "terminal" : "0",
      "latitude" : "24.15177",
      "inDis" : "50",
      "routeId" : "6",
      "seqNo" : "12"
   },
   {
      "GoBack" : "1",
      "longitude" : "120.67733",
      "outDis" : "50",
      "Id" : "0503",
      "oid" : "4BF41FD8F19248D1B76E3E931E9CD31C",
      "districtId" : "1",
      "nameZh" : "臺中二中",
      "pgp" : "0",
      "terminal" : "0",
      "latitude" : "24.15247",
      "inDis" : "50",
      "routeId" : "6",
      "seqNo" : "13"
   },
   {
      "GoBack" : "1",
      "longitude" : "120.67743",
      "outDis" : "50",
      "Id" : "0481",
      "oid" : "9ED68F3AEB42477E8295E898B94C17C6",
      "districtId" : "1",
      "nameZh" : "文莊里",
      "pgp" : "0",
      "terminal" : "0",
      "latitude" : "24.15466",
      "inDis" : "50",
      "routeId" : "6",
      "seqNo" : "14"
   },
   {
      "GoBack" : "1",
      "longitude" : "120.67654",
      "outDis" : "50",
      "Id" : "0092",
      "oid" : "1A3F833142E74A8DAD16231165B2490C",
      "districtId" : "1",
      "nameZh" : "邱厝里",
      "pgp" : "0",
      "terminal" : "0",
      "latitude" : "24.15662",
      "inDis" : "50",
      "routeId" : "6",
      "seqNo" : "15"
   },
   {
      "GoBack" : "1",
      "longitude" : "120.67614",
      "outDis" : "50",
      "Id" : "5732",
      "oid" : "009BE350135A46E7870EC3D6994CA747",
      "districtId" : "1",
      "nameZh" : "中清健行路口",
      "pgp" : "0",
      "terminal" : "0",
      "latitude" : "24.15863",
      "inDis" : "50",
      "routeId" : "6",
      "seqNo" : "16"
   },
   {
      "GoBack" : "1",
      "longitude" : "120.67533",
      "outDis" : "50",
      "Id" : "5733",
      "oid" : "913DE806DEE146C38BE56C32FEC939B6",
      "districtId" : "1",
      "nameZh" : "大道公廟(中清路)",
      "pgp" : "0",
      "terminal" : "0",
      "latitude" : "24.16061",
      "inDis" : "50",
      "routeId" : "6",
      "seqNo" : "17"
   },
   {
      "GoBack" : "1",
      "longitude" : "120.67484",
      "outDis" : "50",
      "Id" : "5734",
      "oid" : "34ED003637CF441AAA6148A660018C54",
      "districtId" : "1",
      "nameZh" : "中清忠明路口",
      "pgp" : "0",
      "terminal" : "0",
      "latitude" : "24.16233",
      "inDis" : "50",
      "routeId" : "6",
      "seqNo" : "18"
   },
   {
      "GoBack" : "1",
      "longitude" : "120.67415",
      "outDis" : "50",
      "Id" : "5735",
      "oid" : "94A3DB58D5D1450FA36E9316B703E759",
      "districtId" : "1",
      "nameZh" : "中清太原路口",
      "pgp" : "0",
      "terminal" : "0",
      "latitude" : "24.16409",
      "inDis" : "50",
      "routeId" : "6",
      "seqNo" : "19"
   },
   {
      "GoBack" : "1",
      "longitude" : "120.67332",
      "outDis" : "50",
      "Id" : "5736",
      "oid" : "0DFE2E8283F649B89A0BF41A48AB216A",
      "districtId" : "1",
      "nameZh" : "中清漢口路口",
      "pgp" : "0",
      "terminal" : "0",
      "latitude" : "24.16651",
      "inDis" : "50",
      "routeId" : "6",
      "seqNo" : "20"
   },
   {
      "GoBack" : "1",
      "longitude" : "120.67292",
      "outDis" : "50",
      "Id" : "5737",
      "oid" : "E99A845B157C499293492F1879F0D1B0",
      "districtId" : "1",
      "nameZh" : "曉明女中(中清路)",
      "pgp" : "0",
      "terminal" : "0",
      "latitude" : "24.16835",
      "inDis" : "50",
      "routeId" : "6",
      "seqNo" : "21"
   },
   {
      "GoBack" : "1",
      "longitude" : "120.67218",
      "outDis" : "50",
      "Id" : "1629",
      "oid" : "CFDB0D0FFB664D12983DAF2181610824",
      "districtId" : "1",
      "nameZh" : "天津路商圈",
      "pgp" : "0",
      "terminal" : "0",
      "latitude" : "24.17062",
      "inDis" : "50",
      "routeId" : "6",
      "seqNo" : "22"
   },
   {
      "GoBack" : "1",
      "longitude" : "120.67181",
      "outDis" : "50",
      "Id" : "0805",
      "oid" : "FBADCB6886F6487DB2C895CC51D221B4",
      "districtId" : "1",
      "nameZh" : "頂賴厝",
      "pgp" : "0",
      "terminal" : "0",
      "latitude" : "24.1721",
      "inDis" : "50",
      "routeId" : "6",
      "seqNo" : "23"
   },
   {
      "GoBack" : "1",
      "longitude" : "120.67095",
      "outDis" : "50",
      "Id" : "0334",
      "oid" : "6B4F9E33C8B446F0B9B8A76F51303F0C",
      "districtId" : "1",
      "nameZh" : "下水湳",
      "pgp" : "0",
      "terminal" : "0",
      "latitude" : "24.17535",
      "inDis" : "50",
      "routeId" : "6",
      "seqNo" : "24"
   },
   {
      "GoBack" : "1",
      "longitude" : "120.67008",
      "outDis" : "30",
      "Id" : "0486",
      "oid" : "319227554",
      "districtId" : "1",
      "nameZh" : "水湳",
      "pgp" : "0",
      "terminal" : "0",
      "latitude" : "24.17636",
      "inDis" : "30",
      "routeId" : "6",
      "seqNo" : "25"
   },
   {
      "GoBack" : "1",
      "longitude" : "120.66916",
      "outDis" : "50",
      "Id" : "5100",
      "oid" : "319227555",
      "districtId" : "1",
      "nameZh" : "水湳市場(中清路)",
      "pgp" : "0",
      "terminal" : "0",
      "latitude" : "24.17756",
      "inDis" : "50",
      "routeId" : "6",
      "seqNo" : "26"
   },
   {
      "GoBack" : "1",
      "longitude" : "120.66815",
      "outDis" : "50",
      "Id" : "0385",
      "oid" : "2A4AA4ABB45B46D4B2537CD8AE12D26E",
      "districtId" : "1",
      "nameZh" : "大德國中",
      "pgp" : "0",
      "terminal" : "0",
      "latitude" : "24.17894",
      "inDis" : "50",
      "routeId" : "6",
      "seqNo" : "27"
   },
   {
      "GoBack" : "1",
      "longitude" : "120.66655",
      "outDis" : "50",
      "Id" : "0593",
      "oid" : "01A0B4823FD248B689ED6BC1074682B2",
      "districtId" : "1",
      "nameZh" : "全民醫院",
      "pgp" : "0",
      "terminal" : "0",
      "latitude" : "24.18134",
      "inDis" : "50",
      "routeId" : "6",
      "seqNo" : "28"
   },
   {
      "GoBack" : "1",
      "longitude" : "120.66559",
      "outDis" : "50",
      "Id" : "0789",
      "oid" : "2986084F1E014F88ACB3E1B7ACF7A86F",
      "districtId" : "1",
      "nameZh" : "陳平",
      "pgp" : "0",
      "terminal" : "0",
      "latitude" : "24.18302",
      "inDis" : "50",
      "routeId" : "6",
      "seqNo" : "29"
   },
   {
      "GoBack" : "1",
      "longitude" : "120.66475",
      "outDis" : "50",
      "Id" : "0801",
      "oid" : "19644082D44C422CB4B7EEBD72D7EC2E",
      "districtId" : "1",
      "nameZh" : "頂陳平",
      "pgp" : "0",
      "terminal" : "0",
      "latitude" : "24.1845",
      "inDis" : "50",
      "routeId" : "6",
      "seqNo" : "30"
   },
   {
      "GoBack" : "1",
      "longitude" : "120.66365",
      "outDis" : "50",
      "Id" : "2638",
      "oid" : "C9D6B93CF70B4C628B42468EAA9DA131",
      "districtId" : "1",
      "nameZh" : "后庄仔",
      "pgp" : "0",
      "terminal" : "0",
      "latitude" : "24.1865",
      "inDis" : "50",
      "routeId" : "6",
      "seqNo" : "31"
   },
   {
      "GoBack" : "1",
      "longitude" : "120.66262",
      "outDis" : "50",
      "Id" : "0989",
      "oid" : "20960530156A41E9AA06D02EE6479576",
      "districtId" : "1",
      "nameZh" : "中清后庄路口",
      "pgp" : "0",
      "terminal" : "0",
      "latitude" : "24.1883",
      "inDis" : "50",
      "routeId" : "6",
      "seqNo" : "32"
   },
   {
      "GoBack" : "1",
      "longitude" : "120.66143",
      "outDis" : "50",
      "Id" : "0708",
      "oid" : "68ED624491414F5D85A6F70EB5A9B678",
      "districtId" : "1",
      "nameZh" : "后庄國宅",
      "pgp" : "0",
      "terminal" : "0",
      "latitude" : "24.19035",
      "inDis" : "50",
      "routeId" : "6",
      "seqNo" : "33"
   },
   {
      "GoBack" : "1",
      "longitude" : "120.66029",
      "outDis" : "50",
      "Id" : "3293",
      "oid" : "F98DE0D7EDB345278CD4203455034B62",
      "districtId" : "1",
      "nameZh" : "貿易三村",
      "pgp" : "0",
      "terminal" : "0",
      "latitude" : "24.19228",
      "inDis" : "50",
      "routeId" : "6",
      "seqNo" : "34"
   },
   {
      "GoBack" : "1",
      "longitude" : "120.65942",
      "outDis" : "50",
      "Id" : "2069",
      "oid" : "84BAA059AAE94A14AB7023534F276E65",
      "districtId" : "1",
      "nameZh" : "中清同榮路口",
      "pgp" : "0",
      "terminal" : "0",
      "latitude" : "24.19372",
      "inDis" : "50",
      "routeId" : "6",
      "seqNo" : "35"
   },
   {
      "GoBack" : "1",
      "longitude" : "120.65836",
      "outDis" : "50",
      "Id" : "0136",
      "oid" : "BA8F3BA5596C474F958D85417CCFDD3B",
      "districtId" : "1",
      "nameZh" : "下港尾",
      "pgp" : "0",
      "terminal" : "0",
      "latitude" : "24.19545",
      "inDis" : "50",
      "routeId" : "6",
      "seqNo" : "36"
   },
   {
      "GoBack" : "1",
      "longitude" : "120.65619",
      "outDis" : "50",
      "Id" : "1475",
      "oid" : "0964360A5479493CAC91437973FCB313",
      "districtId" : "1",
      "nameZh" : "中清環中路口",
      "pgp" : "0",
      "terminal" : "0",
      "latitude" : "24.19898",
      "inDis" : "50",
      "routeId" : "6",
      "seqNo" : "37"
   },
   {
      "GoBack" : "1",
      "longitude" : "120.65532",
      "outDis" : "50",
      "Id" : "0827",
      "oid" : "620D576D65DE47499F84B690D8899282",
      "districtId" : "1",
      "nameZh" : "港尾",
      "pgp" : "0",
      "terminal" : "0",
      "latitude" : "24.20036",
      "inDis" : "50",
      "routeId" : "6",
      "seqNo" : "38"
   },
   {
      "GoBack" : "1",
      "longitude" : "120.65363",
      "outDis" : "50",
      "Id" : "3247",
      "oid" : "3645",
      "districtId" : "1",
      "nameZh" : "港尾橋",
      "pgp" : "0",
      "terminal" : "0",
      "latitude" : "24.2034",
      "inDis" : "50",
      "routeId" : "6",
      "seqNo" : "39"
   },
   {
      "GoBack" : "1",
      "longitude" : "120.6524",
      "outDis" : "50",
      "Id" : "0936",
      "oid" : "809039BCD21A45BBBDF522C1CA58F0A5",
      "districtId" : "1",
      "nameZh" : "頭張(中清路)",
      "pgp" : "0",
      "terminal" : "0",
      "latitude" : "24.20594",
      "inDis" : "50",
      "routeId" : "6",
      "seqNo" : "40"
   },
   {
      "GoBack" : "1",
      "longitude" : "120.6517",
      "outDis" : "50",
      "Id" : "0806",
      "oid" : "2038DE7FECFE4081A1580357AF0C7092",
      "districtId" : "1",
      "nameZh" : "頂頭張(中清路)",
      "pgp" : "0",
      "terminal" : "0",
      "latitude" : "24.20769",
      "inDis" : "50",
      "routeId" : "6",
      "seqNo" : "41"
   },
   {
      "GoBack" : "1",
      "longitude" : "120.6509",
      "outDis" : "50",
      "Id" : "1348",
      "oid" : "308058862",
      "districtId" : "1",
      "nameZh" : "大雅交流道",
      "pgp" : "0",
      "terminal" : "0",
      "latitude" : "24.20939",
      "inDis" : "50",
      "routeId" : "6",
      "seqNo" : "42"
   },
   {
      "GoBack" : "1",
      "longitude" : "120.65013",
      "outDis" : "50",
      "Id" : "0938",
      "oid" : "E5137BE06C2A4F24B330DFA8E44609D5",
      "districtId" : "1",
      "nameZh" : "龍善寺",
      "pgp" : "0",
      "terminal" : "0",
      "latitude" : "24.21217",
      "inDis" : "50",
      "routeId" : "6",
      "seqNo" : "43"
   },
   {
      "GoBack" : "1",
      "longitude" : "120.64956",
      "outDis" : "50",
      "Id" : "1345",
      "oid" : "5BB4187D820D4757827153749206AB4F",
      "districtId" : "1",
      "nameZh" : "大華國中",
      "pgp" : "0",
      "terminal" : "0",
      "latitude" : "24.21521",
      "inDis" : "50",
      "routeId" : "6",
      "seqNo" : "44"
   },
   {
      "GoBack" : "1",
      "longitude" : "120.64923",
      "outDis" : "50",
      "Id" : "2558",
      "oid" : "9CF9646B1824456FAA6826704A9184AB",
      "districtId" : "1",
      "nameZh" : "南大雅",
      "pgp" : "0",
      "terminal" : "0",
      "latitude" : "24.21697",
      "inDis" : "50",
      "routeId" : "6",
      "seqNo" : "45"
   },
   {
      "GoBack" : "1",
      "longitude" : "120.64808",
      "outDis" : "50",
      "Id" : "4306",
      "oid" : "2A80E6447DE14104B123FE106E9F5779",
      "districtId" : "1",
      "nameZh" : "中清雅潭路口",
      "pgp" : "0",
      "terminal" : "0",
      "latitude" : "24.2198",
      "inDis" : "50",
      "routeId" : "6",
      "seqNo" : "46"
   },
   {
      "GoBack" : "1",
      "longitude" : "120.64804",
      "outDis" : "50",
      "Id" : "1346",
      "oid" : "1740F4069EEA45C1864039ACA14B71C3",
      "districtId" : "1",
      "nameZh" : "大雅",
      "pgp" : "0",
      "terminal" : "0",
      "latitude" : "24.22356",
      "inDis" : "50",
      "routeId" : "6",
      "seqNo" : "47"
   },
   {
      "GoBack" : "1",
      "longitude" : "120.64682",
      "outDis" : "50",
      "Id" : "1620",
      "oid" : "6977D047141849C5BC29B7A698C9CD14",
      "districtId" : "1",
      "nameZh" : "大雅分駐所",
      "pgp" : "0",
      "terminal" : "0",
      "latitude" : "24.22493",
      "inDis" : "50",
      "routeId" : "6",
      "seqNo" : "48"
   },
   {
      "GoBack" : "1",
      "longitude" : "120.64457",
      "outDis" : "50",
      "Id" : "5423",
      "oid" : "313288973",
      "districtId" : "1",
      "nameZh" : "大雅澄清醫院",
      "pgp" : "0",
      "terminal" : "0",
      "latitude" : "24.22699",
      "inDis" : "50",
      "routeId" : "6",
      "seqNo" : "49"
   },
   {
      "GoBack" : "1",
      "longitude" : "120.64288",
      "outDis" : "50",
      "Id" : "4651",
      "oid" : "CB64F05774DC419A8B6A40F0B772A32D",
      "districtId" : "1",
      "nameZh" : "大明國小(中清路)",
      "pgp" : "0",
      "terminal" : "0",
      "latitude" : "24.22874",
      "inDis" : "50",
      "routeId" : "6",
      "seqNo" : "50"
   },
   {
      "GoBack" : "1",
      "longitude" : "120.64131",
      "outDis" : "50",
      "Id" : "2253",
      "oid" : "7CF5A582E68D4FC6A7DCEF938B35031F",
      "districtId" : "1",
      "nameZh" : "秀山里",
      "pgp" : "0",
      "terminal" : "0",
      "latitude" : "24.23034",
      "inDis" : "50",
      "routeId" : "6",
      "seqNo" : "51"
   },
   {
      "GoBack" : "1",
      "longitude" : "120.63847",
      "outDis" : "50",
      "Id" : "2798",
      "oid" : "27214FDE7184410ABF972E795AF52CDC",
      "districtId" : "1",
      "nameZh" : "泰聯公司",
      "pgp" : "0",
      "terminal" : "0",
      "latitude" : "24.2331",
      "inDis" : "50",
      "routeId" : "6",
      "seqNo" : "52"
   },
   {
      "GoBack" : "1",
      "longitude" : "120.63495",
      "outDis" : "50",
      "Id" : "1593",
      "oid" : "DB181C859CD04C3EBDDFC8D051B6959F",
      "districtId" : "1",
      "nameZh" : "六寶里",
      "pgp" : "0",
      "terminal" : "0",
      "latitude" : "24.23654",
      "inDis" : "50",
      "routeId" : "6",
      "seqNo" : "53"
   },
   {
      "GoBack" : "1",
      "longitude" : "120.63238",
      "outDis" : "50",
      "Id" : "2289",
      "oid" : "41F45D5AF249445FAECF6D6432E2F566",
      "districtId" : "1",
      "nameZh" : "亞東公司",
      "pgp" : "0",
      "terminal" : "0",
      "latitude" : "24.23905",
      "inDis" : "50",
      "routeId" : "6",
      "seqNo" : "54"
   },
   {
      "GoBack" : "1",
      "longitude" : "120.63124",
      "outDis" : "50",
      "Id" : "1591",
      "oid" : "EBFADEDA761C48B5A70E45E3540BABF4",
      "districtId" : "1",
      "nameZh" : "六張犁",
      "pgp" : "0",
      "terminal" : "0",
      "latitude" : "24.24015",
      "inDis" : "50",
      "routeId" : "6",
      "seqNo" : "55"
   },
   {
      "GoBack" : "1",
      "longitude" : "120.62876",
      "outDis" : "50",
      "Id" : "1660",
      "oid" : "B422F6F022DE448C9669DB2D7B905C31",
      "districtId" : "1",
      "nameZh" : "月祥文化路口",
      "pgp" : "0",
      "terminal" : "0",
      "latitude" : "24.24067",
      "inDis" : "50",
      "routeId" : "6",
      "seqNo" : "56"
   },
   {
      "GoBack" : "1",
      "longitude" : "120.62584",
      "outDis" : "50",
      "Id" : "5030",
      "oid" : "309520676",
      "districtId" : "1",
      "nameZh" : "六寶公園",
      "pgp" : "0",
      "terminal" : "0",
      "latitude" : "24.23705",
      "inDis" : "50",
      "routeId" : "6",
      "seqNo" : "57"
   },
   {
      "GoBack" : "1",
      "longitude" : "120.62448",
      "outDis" : "50",
      "Id" : "2350",
      "oid" : "B1002A3DED024F2CAB6289048EA7EDD5",
      "districtId" : "1",
      "nameZh" : "忠義市場(原民中心)",
      "pgp" : "0",
      "terminal" : "0",
      "latitude" : "24.2351",
      "inDis" : "50",
      "routeId" : "6",
      "seqNo" : "58"
   },
   {
      "GoBack" : "1",
      "longitude" : "120.62391",
      "outDis" : "50",
      "Id" : "5110",
      "oid" : "60C2BDC8F7364A43AA53713CD57733FC",
      "districtId" : "1",
      "nameZh" : "忠義里(中科實驗高中)",
      "pgp" : "0",
      "terminal" : "1",
      "latitude" : "24.23109",
      "inDis" : "50",
      "routeId" : "6",
      "seqNo" : "60"
   },
   {
      "GoBack" : "2",
      "longitude" : "120.62395",
      "outDis" : "50",
      "Id" : "5110",
      "oid" : "E1463B88D2E3489191E0C59267D20867",
      "districtId" : "1",
      "nameZh" : "忠義里(中科實驗高中)",
      "pgp" : "0",
      "terminal" : "0",
      "latitude" : "24.23111",
      "inDis" : "50",
      "routeId" : "6",
      "seqNo" : "1"
   },
   {
      "GoBack" : "2",
      "longitude" : "120.62439",
      "outDis" : "50",
      "Id" : "2350",
      "oid" : "7DCCDCB7D19349B3ACA148882BC4490F",
      "districtId" : "1",
      "nameZh" : "忠義市場(原民中心)",
      "pgp" : "0",
      "terminal" : "0",
      "latitude" : "24.23497",
      "inDis" : "50",
      "routeId" : "6",
      "seqNo" : "2"
   },
   {
      "GoBack" : "2",
      "longitude" : "120.62584",
      "outDis" : "50",
      "Id" : "5030",
      "oid" : "309520677",
      "districtId" : "1",
      "nameZh" : "六寶公園",
      "pgp" : "0",
      "terminal" : "0",
      "latitude" : "24.23703",
      "inDis" : "50",
      "routeId" : "6",
      "seqNo" : "3"
   },
   {
      "GoBack" : "2",
      "longitude" : "120.62821",
      "outDis" : "50",
      "Id" : "1660",
      "oid" : "FE5C51D0497B4D4CBE89EA0811F1BCE9",
      "districtId" : "1",
      "nameZh" : "月祥文化路口",
      "pgp" : "0",
      "terminal" : "0",
      "latitude" : "24.24054",
      "inDis" : "50",
      "routeId" : "6",
      "seqNo" : "4"
   },
   {
      "GoBack" : "2",
      "longitude" : "120.63098",
      "outDis" : "50",
      "Id" : "1591",
      "oid" : "31AFE6DBC2714D539196C066CBC20B32",
      "districtId" : "1",
      "nameZh" : "六張犁",
      "pgp" : "0",
      "terminal" : "0",
      "latitude" : "24.24016",
      "inDis" : "50",
      "routeId" : "6",
      "seqNo" : "5"
   },
   {
      "GoBack" : "2",
      "longitude" : "120.63194",
      "outDis" : "50",
      "Id" : "2289",
      "oid" : "E1B6DD4D38FF4C88835DB0226F539050",
      "districtId" : "1",
      "nameZh" : "亞東公司",
      "pgp" : "0",
      "terminal" : "0",
      "latitude" : "24.23922",
      "inDis" : "50",
      "routeId" : "6",
      "seqNo" : "6"
   },
   {
      "GoBack" : "2",
      "longitude" : "120.63457",
      "outDis" : "50",
      "Id" : "1593",
      "oid" : "D0D2B2860EE248D9ABC0B61DE7BBF3AB",
      "districtId" : "1",
      "nameZh" : "六寶里",
      "pgp" : "0",
      "terminal" : "0",
      "latitude" : "24.23667",
      "inDis" : "50",
      "routeId" : "6",
      "seqNo" : "7"
   },
   {
      "GoBack" : "2",
      "longitude" : "120.63847",
      "outDis" : "50",
      "Id" : "2798",
      "oid" : "1FD6637206FE4B609239D89232100EA6",
      "districtId" : "1",
      "nameZh" : "泰聯公司",
      "pgp" : "0",
      "terminal" : "0",
      "latitude" : "24.2331",
      "inDis" : "50",
      "routeId" : "6",
      "seqNo" : "8"
   },
   {
      "GoBack" : "2",
      "longitude" : "120.64088",
      "outDis" : "50",
      "Id" : "2253",
      "oid" : "2BEF1238D3C34B9B9432A0D166A06B86",
      "districtId" : "1",
      "nameZh" : "秀山里",
      "pgp" : "0",
      "terminal" : "0",
      "latitude" : "24.2305",
      "inDis" : "50",
      "routeId" : "6",
      "seqNo" : "9"
   },
   {
      "GoBack" : "2",
      "longitude" : "120.64296",
      "outDis" : "50",
      "Id" : "4651",
      "oid" : "C7D040ED6E8D4034817CD789AB2C88CB",
      "districtId" : "1",
      "nameZh" : "大明國小(中清路)",
      "pgp" : "0",
      "terminal" : "0",
      "latitude" : "24.22846",
      "inDis" : "50",
      "routeId" : "6",
      "seqNo" : "10"
   },
   {
      "GoBack" : "2",
      "longitude" : "120.64457",
      "outDis" : "50",
      "Id" : "5423",
      "oid" : "313288973",
      "districtId" : "1",
      "nameZh" : "大雅澄清醫院",
      "pgp" : "0",
      "terminal" : "0",
      "latitude" : "24.22699",
      "inDis" : "50",
      "routeId" : "6",
      "seqNo" : "11"
   },
   {
      "GoBack" : "2",
      "longitude" : "120.64661",
      "outDis" : "50",
      "Id" : "1620",
      "oid" : "4A29C2779B9A40B2BD01F48233D413C2",
      "districtId" : "1",
      "nameZh" : "大雅分駐所",
      "pgp" : "0",
      "terminal" : "0",
      "latitude" : "24.22498",
      "inDis" : "50",
      "routeId" : "6",
      "seqNo" : "12"
   },
   {
      "GoBack" : "2",
      "longitude" : "120.64805",
      "outDis" : "50",
      "Id" : "1346",
      "oid" : "B42B6C3875D345B59E0D9759A67CF0C3",
      "districtId" : "1",
      "nameZh" : "大雅",
      "pgp" : "0",
      "terminal" : "0",
      "latitude" : "24.22288",
      "inDis" : "50",
      "routeId" : "6",
      "seqNo" : "13"
   },
   {
      "GoBack" : "2",
      "longitude" : "120.64799",
      "outDis" : "50",
      "Id" : "4306",
      "oid" : "D84814BFB3114CDE98A44CE0E4B8673E",
      "districtId" : "1",
      "nameZh" : "中清雅潭路口",
      "pgp" : "0",
      "terminal" : "0",
      "latitude" : "24.21971",
      "inDis" : "50",
      "routeId" : "6",
      "seqNo" : "14"
   },
   {
      "GoBack" : "2",
      "longitude" : "120.64909",
      "outDis" : "50",
      "Id" : "2558",
      "oid" : "37B96B8128A84D31AD1EE9AB9ACFECB2",
      "districtId" : "1",
      "nameZh" : "南大雅",
      "pgp" : "0",
      "terminal" : "0",
      "latitude" : "24.21724",
      "inDis" : "50",
      "routeId" : "6",
      "seqNo" : "15"
   },
   {
      "GoBack" : "2",
      "longitude" : "120.64951",
      "outDis" : "50",
      "Id" : "1345",
      "oid" : "3E308F6EEB5242048A3DB23DE7636EFA",
      "districtId" : "1",
      "nameZh" : "大華國中",
      "pgp" : "0",
      "terminal" : "0",
      "latitude" : "24.21475",
      "inDis" : "50",
      "routeId" : "6",
      "seqNo" : "16"
   },
   {
      "GoBack" : "2",
      "longitude" : "120.64998",
      "outDis" : "50",
      "Id" : "0938",
      "oid" : "9F0E3769148840C6A903A5D08B1E573C",
      "districtId" : "1",
      "nameZh" : "龍善寺",
      "pgp" : "0",
      "terminal" : "0",
      "latitude" : "24.21227",
      "inDis" : "50",
      "routeId" : "6",
      "seqNo" : "17"
   },
   {
      "GoBack" : "2",
      "longitude" : "120.6507",
      "outDis" : "50",
      "Id" : "1348",
      "oid" : "307750209",
      "districtId" : "1",
      "nameZh" : "大雅交流道",
      "pgp" : "0",
      "terminal" : "0",
      "latitude" : "24.20979",
      "inDis" : "50",
      "routeId" : "6",
      "seqNo" : "18"
   },
   {
      "GoBack" : "2",
      "longitude" : "120.65156",
      "outDis" : "50",
      "Id" : "0806",
      "oid" : "096D68858861478A886BFDE00D0DB5FF",
      "districtId" : "1",
      "nameZh" : "頂頭張(中清路)",
      "pgp" : "0",
      "terminal" : "0",
      "latitude" : "24.20754",
      "inDis" : "50",
      "routeId" : "6",
      "seqNo" : "19"
   },
   {
      "GoBack" : "2",
      "longitude" : "120.65233",
      "outDis" : "50",
      "Id" : "0936",
      "oid" : "D8C5975EE971467E83C4024456675837",
      "districtId" : "1",
      "nameZh" : "頭張(中清路)",
      "pgp" : "0",
      "terminal" : "0",
      "latitude" : "24.20598",
      "inDis" : "50",
      "routeId" : "6",
      "seqNo" : "20"
   },
   {
      "GoBack" : "2",
      "longitude" : "120.65363",
      "outDis" : "50",
      "Id" : "3247",
      "oid" : "3645",
      "districtId" : "1",
      "nameZh" : "港尾橋",
      "pgp" : "0",
      "terminal" : "0",
      "latitude" : "24.2034",
      "inDis" : "50",
      "routeId" : "6",
      "seqNo" : "21"
   },
   {
      "GoBack" : "2",
      "longitude" : "120.65488",
      "outDis" : "50",
      "Id" : "0827",
      "oid" : "80445C09EDBA4FB5AA131E314FA23CB0",
      "districtId" : "1",
      "nameZh" : "港尾",
      "pgp" : "0",
      "terminal" : "0",
      "latitude" : "24.20085",
      "inDis" : "50",
      "routeId" : "6",
      "seqNo" : "22"
   },
   {
      "GoBack" : "2",
      "longitude" : "120.65628",
      "outDis" : "50",
      "Id" : "1475",
      "oid" : "FC9509C594F04EAFA81036266294DD43",
      "districtId" : "1",
      "nameZh" : "中清環中路口",
      "pgp" : "0",
      "terminal" : "0",
      "latitude" : "24.19847",
      "inDis" : "50",
      "routeId" : "6",
      "seqNo" : "23"
   },
   {
      "GoBack" : "2",
      "longitude" : "120.65828",
      "outDis" : "50",
      "Id" : "0136",
      "oid" : "1E1097C1B28B4D47A0976CA97DC2DE18",
      "districtId" : "1",
      "nameZh" : "下港尾",
      "pgp" : "0",
      "terminal" : "0",
      "latitude" : "24.19519",
      "inDis" : "50",
      "routeId" : "6",
      "seqNo" : "24"
   },
   {
      "GoBack" : "2",
      "longitude" : "120.65938",
      "outDis" : "50",
      "Id" : "2069",
      "oid" : "A4D10D628E924EEABA9DA4F1D5EB856B",
      "districtId" : "1",
      "nameZh" : "中清同榮路口",
      "pgp" : "0",
      "terminal" : "0",
      "latitude" : "24.19357",
      "inDis" : "50",
      "routeId" : "6",
      "seqNo" : "25"
   },
   {
      "GoBack" : "2",
      "longitude" : "120.6604",
      "outDis" : "50",
      "Id" : "3293",
      "oid" : "CF90FCC2E1514A2F9CC0CB2CD4338C9D",
      "districtId" : "1",
      "nameZh" : "貿易三村",
      "pgp" : "0",
      "terminal" : "0",
      "latitude" : "24.19186",
      "inDis" : "50",
      "routeId" : "6",
      "seqNo" : "26"
   },
   {
      "GoBack" : "2",
      "longitude" : "120.66144",
      "outDis" : "50",
      "Id" : "0708",
      "oid" : "A10E78082C124078AECBC25E6D875A52",
      "districtId" : "1",
      "nameZh" : "后庄國宅",
      "pgp" : "0",
      "terminal" : "0",
      "latitude" : "24.19024",
      "inDis" : "50",
      "routeId" : "6",
      "seqNo" : "27"
   },
   {
      "GoBack" : "2",
      "longitude" : "120.66264",
      "outDis" : "50",
      "Id" : "0989",
      "oid" : "7B3AA59DEE9D48C691A727E4135AA11B",
      "districtId" : "1",
      "nameZh" : "中清后庄路口",
      "pgp" : "0",
      "terminal" : "0",
      "latitude" : "24.18803",
      "inDis" : "50",
      "routeId" : "6",
      "seqNo" : "28"
   },
   {
      "GoBack" : "2",
      "longitude" : "120.66333",
      "outDis" : "50",
      "Id" : "2638",
      "oid" : "C18004E4F82C4932B64DE1E61B29C9A1",
      "districtId" : "1",
      "nameZh" : "后庄仔",
      "pgp" : "0",
      "terminal" : "0",
      "latitude" : "24.18675",
      "inDis" : "50",
      "routeId" : "6",
      "seqNo" : "29"
   },
   {
      "GoBack" : "2",
      "longitude" : "120.66466",
      "outDis" : "50",
      "Id" : "0801",
      "oid" : "776914084DDA4F39BB7305C3B1338D5F",
      "districtId" : "1",
      "nameZh" : "頂陳平",
      "pgp" : "0",
      "terminal" : "0",
      "latitude" : "24.1846",
      "inDis" : "50",
      "routeId" : "6",
      "seqNo" : "30"
   },
   {
      "GoBack" : "2",
      "longitude" : "120.66619",
      "outDis" : "50",
      "Id" : "0789",
      "oid" : "A79D1A7213DA46D19EEC19EF1152FD4B",
      "districtId" : "1",
      "nameZh" : "陳平",
      "pgp" : "0",
      "terminal" : "0",
      "latitude" : "24.18201",
      "inDis" : "50",
      "routeId" : "6",
      "seqNo" : "31"
   },
   {
      "GoBack" : "2",
      "longitude" : "120.6668",
      "outDis" : "50",
      "Id" : "0593",
      "oid" : "4C8C01C35CFE4D818D4D1F7A045528DA",
      "districtId" : "1",
      "nameZh" : "全民醫院",
      "pgp" : "0",
      "terminal" : "0",
      "latitude" : "24.1805",
      "inDis" : "50",
      "routeId" : "6",
      "seqNo" : "32"
   },
   {
      "GoBack" : "2",
      "longitude" : "120.66768",
      "outDis" : "50",
      "Id" : "0385",
      "oid" : "9B2EE187D8A04920BE4EB194E36AB894",
      "districtId" : "1",
      "nameZh" : "大德國中",
      "pgp" : "0",
      "terminal" : "0",
      "latitude" : "24.17953",
      "inDis" : "50",
      "routeId" : "6",
      "seqNo" : "33"
   },
   {
      "GoBack" : "2",
      "longitude" : "120.66916",
      "outDis" : "50",
      "Id" : "5100",
      "oid" : "319227555",
      "districtId" : "1",
      "nameZh" : "水湳市場(中清路)",
      "pgp" : "0",
      "terminal" : "0",
      "latitude" : "24.17756",
      "inDis" : "50",
      "routeId" : "6",
      "seqNo" : "34"
   },
   {
      "GoBack" : "2",
      "longitude" : "120.67008",
      "outDis" : "30",
      "Id" : "0486",
      "oid" : "308022314",
      "districtId" : "1",
      "nameZh" : "水湳",
      "pgp" : "0",
      "terminal" : "0",
      "latitude" : "24.17636",
      "inDis" : "30",
      "routeId" : "6",
      "seqNo" : "35"
   },
   {
      "GoBack" : "2",
      "longitude" : "120.67078",
      "outDis" : "50",
      "Id" : "0334",
      "oid" : "D69AC0FA54AD4C7599C77BACA548875B",
      "districtId" : "1",
      "nameZh" : "下水湳",
      "pgp" : "0",
      "terminal" : "0",
      "latitude" : "24.17553",
      "inDis" : "50",
      "routeId" : "6",
      "seqNo" : "36"
   },
   {
      "GoBack" : "2",
      "longitude" : "120.67177",
      "outDis" : "50",
      "Id" : "0805",
      "oid" : "965866CC54FF4E268DF9616A05214C1B",
      "districtId" : "1",
      "nameZh" : "頂賴厝",
      "pgp" : "0",
      "terminal" : "0",
      "latitude" : "24.17127",
      "inDis" : "50",
      "routeId" : "6",
      "seqNo" : "37"
   },
   {
      "GoBack" : "2",
      "longitude" : "120.6722",
      "outDis" : "50",
      "Id" : "1629",
      "oid" : "22DFBF09B3AC420A94E90318A07C24F7",
      "districtId" : "1",
      "nameZh" : "天津路商圈",
      "pgp" : "0",
      "terminal" : "0",
      "latitude" : "24.16994",
      "inDis" : "50",
      "routeId" : "6",
      "seqNo" : "38"
   },
   {
      "GoBack" : "2",
      "longitude" : "120.67277",
      "outDis" : "50",
      "Id" : "5737",
      "oid" : "EEE57A6B18F14F22BCCD9F06A436A8C2",
      "districtId" : "1",
      "nameZh" : "曉明女中(中清路)",
      "pgp" : "0",
      "terminal" : "0",
      "latitude" : "24.16844",
      "inDis" : "50",
      "routeId" : "6",
      "seqNo" : "39"
   },
   {
      "GoBack" : "2",
      "longitude" : "120.67334",
      "outDis" : "50",
      "Id" : "5736",
      "oid" : "2486142F37134281B7568FAB224083FA",
      "districtId" : "1",
      "nameZh" : "中清漢口路口",
      "pgp" : "0",
      "terminal" : "0",
      "latitude" : "24.16644",
      "inDis" : "50",
      "routeId" : "6",
      "seqNo" : "40"
   },
   {
      "GoBack" : "2",
      "longitude" : "120.67408",
      "outDis" : "50",
      "Id" : "5735",
      "oid" : "A393C9CEDC4A4351BCC1DDFF4F0F9FE9",
      "districtId" : "1",
      "nameZh" : "中清太原路口",
      "pgp" : "0",
      "terminal" : "0",
      "latitude" : "24.16425",
      "inDis" : "50",
      "routeId" : "6",
      "seqNo" : "41"
   },
   {
      "GoBack" : "2",
      "longitude" : "120.67515",
      "outDis" : "50",
      "Id" : "5734",
      "oid" : "C02A12E789034E33BD006AAA8ECF76DE",
      "districtId" : "1",
      "nameZh" : "中清忠明路口",
      "pgp" : "0",
      "terminal" : "0",
      "latitude" : "24.16206",
      "inDis" : "50",
      "routeId" : "6",
      "seqNo" : "42"
   },
   {
      "GoBack" : "2",
      "longitude" : "120.6754",
      "outDis" : "50",
      "Id" : "5733",
      "oid" : "EA01A806BCA24D81A505B5416942E240",
      "districtId" : "1",
      "nameZh" : "大道公廟(中清路)",
      "pgp" : "0",
      "terminal" : "0",
      "latitude" : "24.16085",
      "inDis" : "50",
      "routeId" : "6",
      "seqNo" : "43"
   },
   {
      "GoBack" : "2",
      "longitude" : "120.67592",
      "outDis" : "50",
      "Id" : "5732",
      "oid" : "B5CA81078560433EA93D6537281AD4DF",
      "districtId" : "1",
      "nameZh" : "中清健行路口",
      "pgp" : "0",
      "terminal" : "0",
      "latitude" : "24.15861",
      "inDis" : "50",
      "routeId" : "6",
      "seqNo" : "44"
   },
   {
      "GoBack" : "2",
      "longitude" : "120.67652",
      "outDis" : "50",
      "Id" : "0092",
      "oid" : "356ECA8C94F64527AADB770F3DD3FF93",
      "districtId" : "1",
      "nameZh" : "邱厝里",
      "pgp" : "0",
      "terminal" : "0",
      "latitude" : "24.15695",
      "inDis" : "50",
      "routeId" : "6",
      "seqNo" : "45"
   },
   {
      "GoBack" : "2",
      "longitude" : "120.67723",
      "outDis" : "50",
      "Id" : "0481",
      "oid" : "8374448D47B941B78C09BC7A6142916E",
      "districtId" : "1",
      "nameZh" : "文莊里",
      "pgp" : "0",
      "terminal" : "0",
      "latitude" : "24.15487",
      "inDis" : "50",
      "routeId" : "6",
      "seqNo" : "46"
   },
   {
      "GoBack" : "2",
      "longitude" : "120.67738",
      "outDis" : "50",
      "Id" : "0503",
      "oid" : "508C089B09C9497197A11B24888C9B23",
      "districtId" : "1",
      "nameZh" : "臺中二中",
      "pgp" : "0",
      "terminal" : "0",
      "latitude" : "24.15247",
      "inDis" : "50",
      "routeId" : "6",
      "seqNo" : "47"
   },
   {
      "GoBack" : "2",
      "longitude" : "120.67863",
      "outDis" : "50",
      "Id" : "0145",
      "oid" : "08CD2F386FA4465DBB661E6A921E43E8",
      "districtId" : "1",
      "nameZh" : "光大里",
      "pgp" : "0",
      "terminal" : "0",
      "latitude" : "24.15179",
      "inDis" : "50",
      "routeId" : "6",
      "seqNo" : "48"
   },
   {
      "GoBack" : "2",
      "longitude" : "120.68016",
      "outDis" : "50",
      "Id" : "0146",
      "oid" : "895187B4012049C8B470121808B5DD0F",
      "districtId" : "1",
      "nameZh" : "五常里",
      "pgp" : "0",
      "terminal" : "0",
      "latitude" : "24.15229",
      "inDis" : "50",
      "routeId" : "6",
      "seqNo" : "49"
   },
   {
      "GoBack" : "2",
      "longitude" : "120.68381",
      "outDis" : "50",
      "Id" : "3772",
      "oid" : "900AB447C1A84ABF9B0307D4C19EF61B",
      "districtId" : "1",
      "nameZh" : "五權學士路口",
      "pgp" : "0",
      "terminal" : "0",
      "latitude" : "24.1538",
      "inDis" : "50",
      "routeId" : "6",
      "seqNo" : "50"
   },
   {
      "GoBack" : "2",
      "longitude" : "120.68563",
      "outDis" : "50",
      "Id" : "0047",
      "oid" : "8EA5AE8A2A3F4E69A218E9693FC62B61",
      "districtId" : "1",
      "nameZh" : "一心市場",
      "pgp" : "0",
      "terminal" : "0",
      "latitude" : "24.15369",
      "inDis" : "50",
      "routeId" : "6",
      "seqNo" : "51"
   },
   {
      "GoBack" : "2",
      "longitude" : "120.68469",
      "outDis" : "50",
      "Id" : "0046",
      "oid" : "B366916E0B354E34B7F18272CA61DA53",
      "districtId" : "1",
      "nameZh" : "中友百貨",
      "pgp" : "0",
      "terminal" : "0",
      "latitude" : "24.15131",
      "inDis" : "50",
      "routeId" : "6",
      "seqNo" : "52"
   },
   {
      "GoBack" : "2",
      "longitude" : "120.68387",
      "outDis" : "50",
      "Id" : "0045",
      "oid" : "7283F03A2BE144B7B72452CD5BD29117",
      "districtId" : "1",
      "nameZh" : "國立臺中科技大學",
      "pgp" : "0",
      "terminal" : "0",
      "latitude" : "24.14961",
      "inDis" : "50",
      "routeId" : "6",
      "seqNo" : "53"
   },
   {
      "GoBack" : "2",
      "longitude" : "120.68221",
      "outDis" : "50",
      "Id" : "4543",
      "oid" : "9D21DC3A713749ECA6EE2D8C2F29267A",
      "districtId" : "1",
      "nameZh" : "臺中公園(三民路)",
      "pgp" : "0",
      "terminal" : "0",
      "latitude" : "24.14552",
      "inDis" : "50",
      "routeId" : "6",
      "seqNo" : "54"
   },
   {
      "GoBack" : "2",
      "longitude" : "120.68129",
      "outDis" : "50",
      "Id" : "5506",
      "oid" : "3C91ADFEFEE54A3783F79F8C2B88375C",
      "districtId" : "1",
      "nameZh" : "光復國小(三民路)",
      "pgp" : "0",
      "terminal" : "0",
      "latitude" : "24.14414",
      "inDis" : "50",
      "routeId" : "6",
      "seqNo" : "55"
   },
   {
      "GoBack" : "2",
      "longitude" : "120.68",
      "outDis" : "50",
      "Id" : "4609",
      "oid" : "026921CF0B754AB68305BC87090839C1",
      "districtId" : "1",
      "nameZh" : "第二市場(三民路)",
      "pgp" : "0",
      "terminal" : "0",
      "latitude" : "24.14268",
      "inDis" : "50",
      "routeId" : "6",
      "seqNo" : "56"
   },
   {
      "GoBack" : "2",
      "longitude" : "120.67838",
      "outDis" : "50",
      "Id" : "5026",
      "oid" : "309504377",
      "districtId" : "1",
      "nameZh" : "美榮藥局",
      "pgp" : "0",
      "terminal" : "0",
      "latitude" : "24.14131",
      "inDis" : "50",
      "routeId" : "6",
      "seqNo" : "57"
   },
   {
      "GoBack" : "2",
      "longitude" : "120.67848",
      "outDis" : "50",
      "Id" : "4416",
      "oid" : "6DA05825CE704FBB9B2BF69FECA70245",
      "districtId" : "1",
      "nameZh" : "臺中州廳",
      "pgp" : "0",
      "terminal" : "0",
      "latitude" : "24.1391",
      "inDis" : "50",
      "routeId" : "6",
      "seqNo" : "58"
   },
   {
      "GoBack" : "2",
      "longitude" : "120.68043",
      "outDis" : "50",
      "Id" : "0215",
      "oid" : "8159",
      "districtId" : "1",
      "nameZh" : "合作金庫",
      "pgp" : "0",
      "terminal" : "0",
      "latitude" : "24.13835",
      "inDis" : "50",
      "routeId" : "6",
      "seqNo" : "59"
   },
   {
      "GoBack" : "2",
      "longitude" : "120.6819",
      "outDis" : "50",
      "Id" : "0216",
      "oid" : "E4B570DADCA84FE0A80A498FB8CCFE0E",
      "districtId" : "1",
      "nameZh" : "彰化銀行(自由路)",
      "pgp" : "0",
      "terminal" : "0",
      "latitude" : "24.1397",
      "inDis" : "50",
      "routeId" : "6",
      "seqNo" : "60"
   },
   {
      "GoBack" : "2",
      "longitude" : "120.68351",
      "outDis" : "50",
      "Id" : "0905",
      "oid" : "FAE57250444D477EAC3E5501646FB743",
      "districtId" : "1",
      "nameZh" : "綠川東站",
      "pgp" : "0",
      "terminal" : "0",
      "latitude" : "24.13822",
      "inDis" : "50",
      "routeId" : "6",
      "seqNo" : "61"
   }
]
