[
   {
      "GoBack" : "1",
      "longitude" : "120.68656",
      "outDis" : "50",
      "Id" : "4359",
      "oid" : "13294",
      "districtId" : "1",
      "nameZh" : "臺中洲際棒球場",
      "pgp" : "0",
      "terminal" : "0",
      "latitude" : "24.19932",
      "inDis" : "50",
      "routeId" : "71",
      "seqNo" : "1"
   },
   {
      "GoBack" : "1",
      "longitude" : "120.68659",
      "outDis" : "50",
      "Id" : "3818",
      "oid" : "320761403",
      "districtId" : "1",
      "nameZh" : "錦村市場",
      "pgp" : "0",
      "terminal" : "0",
      "latitude" : "24.16564",
      "inDis" : "50",
      "routeId" : "71",
      "seqNo" : "2"
   },
   {
      "GoBack" : "1",
      "longitude" : "120.68638",
      "outDis" : "50",
      "Id" : "4252",
      "oid" : "13341",
      "districtId" : "1",
      "nameZh" : "崇德豐樂路口",
      "pgp" : "0",
      "terminal" : "0",
      "latitude" : "24.19293",
      "inDis" : "50",
      "routeId" : "71",
      "seqNo" : "3"
   },
   {
      "GoBack" : "1",
      "longitude" : "120.68634",
      "outDis" : "50",
      "Id" : "2959",
      "oid" : "473A37CAF9904D4B827C8F1D764A45A9",
      "districtId" : "1",
      "nameZh" : "崇德十路口",
      "pgp" : "0",
      "terminal" : "0",
      "latitude" : "24.18967",
      "inDis" : "50",
      "routeId" : "71",
      "seqNo" : "4"
   },
   {
      "GoBack" : "1",
      "longitude" : "120.68622",
      "outDis" : "50",
      "Id" : "2958",
      "oid" : "DD047587CF8A4CD88A0A329373FBC18B",
      "districtId" : "1",
      "nameZh" : "崇德九路口",
      "pgp" : "0",
      "terminal" : "0",
      "latitude" : "24.18756",
      "inDis" : "50",
      "routeId" : "71",
      "seqNo" : "5"
   },
   {
      "GoBack" : "1",
      "longitude" : "120.68618",
      "outDis" : "50",
      "Id" : "1393",
      "oid" : "12310",
      "districtId" : "1",
      "nameZh" : "崇德山西路口",
      "pgp" : "0",
      "terminal" : "0",
      "latitude" : "24.18506",
      "inDis" : "50",
      "routeId" : "71",
      "seqNo" : "6"
   },
   {
      "GoBack" : "1",
      "longitude" : "120.68608",
      "outDis" : "50",
      "Id" : "0194",
      "oid" : "3F9355C49723488087AA25A171DA589C",
      "districtId" : "1",
      "nameZh" : "北屯區行政大樓",
      "pgp" : "0",
      "terminal" : "0",
      "latitude" : "24.18262",
      "inDis" : "50",
      "routeId" : "71",
      "seqNo" : "7"
   },
   {
      "GoBack" : "1",
      "longitude" : "120.68608",
      "outDis" : "50",
      "Id" : "5387",
      "oid" : "313288983",
      "districtId" : "1",
      "nameZh" : "崇德六路口",
      "pgp" : "0",
      "terminal" : "0",
      "latitude" : "24.18086",
      "inDis" : "50",
      "routeId" : "71",
      "seqNo" : "8"
   },
   {
      "GoBack" : "1",
      "longitude" : "120.68591",
      "outDis" : "50",
      "Id" : "0195",
      "oid" : "A93A32B569E84CE9933AE7FE448736D5",
      "districtId" : "1",
      "nameZh" : "崇德五路口",
      "pgp" : "0",
      "terminal" : "0",
      "latitude" : "24.17873",
      "inDis" : "50",
      "routeId" : "71",
      "seqNo" : "9"
   },
   {
      "GoBack" : "1",
      "longitude" : "120.68577",
      "outDis" : "50",
      "Id" : "0196",
      "oid" : "6A2D5559ADA34ACBA7ECFB3EFBE252FC",
      "districtId" : "1",
      "nameZh" : "崇德一路口",
      "pgp" : "0",
      "terminal" : "0",
      "latitude" : "24.17701",
      "inDis" : "50",
      "routeId" : "71",
      "seqNo" : "10"
   },
   {
      "GoBack" : "1",
      "longitude" : "120.6856",
      "outDis" : "50",
      "Id" : "5131",
      "oid" : "6F88DBC19E8F40FD9584181B502367B3",
      "districtId" : "1",
      "nameZh" : "崇德國中(民俗公園)",
      "pgp" : "0",
      "terminal" : "0",
      "latitude" : "24.17548",
      "inDis" : "50",
      "routeId" : "71",
      "seqNo" : "11"
   },
   {
      "GoBack" : "1",
      "longitude" : "120.68551",
      "outDis" : "50",
      "Id" : "0199",
      "oid" : "BF67D032E8C84D20B891E598EC5C2C4B",
      "districtId" : "1",
      "nameZh" : "崇德瀋陽路口",
      "pgp" : "0",
      "terminal" : "0",
      "latitude" : "24.17309",
      "inDis" : "50",
      "routeId" : "71",
      "seqNo" : "12"
   },
   {
      "GoBack" : "1",
      "longitude" : "120.68539",
      "outDis" : "50",
      "Id" : "4339",
      "oid" : "301782125",
      "districtId" : "1",
      "nameZh" : "崇德文心路口",
      "pgp" : "0",
      "terminal" : "0",
      "latitude" : "24.1717",
      "inDis" : "50",
      "routeId" : "71",
      "seqNo" : "13"
   },
   {
      "GoBack" : "1",
      "longitude" : "120.68535",
      "outDis" : "50",
      "Id" : "1768",
      "oid" : "7D7C1F7FFBCD4DFC8B686BDE19C296A6",
      "districtId" : "1",
      "nameZh" : "崇德北平路口",
      "pgp" : "0",
      "terminal" : "0",
      "latitude" : "24.1705",
      "inDis" : "50",
      "routeId" : "71",
      "seqNo" : "14"
   },
   {
      "GoBack" : "1",
      "longitude" : "120.68519",
      "outDis" : "50",
      "Id" : "3511",
      "oid" : "C33017FCF1B44CAC92BECCEC65752F75",
      "districtId" : "1",
      "nameZh" : "聖德禪寺",
      "pgp" : "0",
      "terminal" : "0",
      "latitude" : "24.16831",
      "inDis" : "50",
      "routeId" : "71",
      "seqNo" : "15"
   },
   {
      "GoBack" : "1",
      "longitude" : "120.68512",
      "outDis" : "50",
      "Id" : "0098",
      "oid" : "CED26B76A2DD46E495912FD095280685",
      "districtId" : "1",
      "nameZh" : "崇德橋",
      "pgp" : "0",
      "terminal" : "0",
      "latitude" : "24.16563",
      "inDis" : "50",
      "routeId" : "71",
      "seqNo" : "16"
   },
   {
      "GoBack" : "1",
      "longitude" : "120.685",
      "outDis" : "50",
      "Id" : "4576",
      "oid" : "FA81FF27EF014382A1FEF795D38D5882",
      "districtId" : "1",
      "nameZh" : "崇德德化街口",
      "pgp" : "0",
      "terminal" : "0",
      "latitude" : "24.1618",
      "inDis" : "50",
      "routeId" : "71",
      "seqNo" : "17"
   },
   {
      "GoBack" : "1",
      "longitude" : "120.685",
      "outDis" : "50",
      "Id" : "4607",
      "oid" : "08177DC7157F4FEA9FC51ED942FE94EF",
      "districtId" : "1",
      "nameZh" : "新民高中(崇德路)",
      "pgp" : "0",
      "terminal" : "0",
      "latitude" : "24.15977",
      "inDis" : "50",
      "routeId" : "71",
      "seqNo" : "18"
   },
   {
      "GoBack" : "1",
      "longitude" : "120.68543",
      "outDis" : "50",
      "Id" : "0203",
      "oid" : "C9BD10DADBCA46DABFE81A38A80B4D7C",
      "districtId" : "1",
      "nameZh" : "市立殯儀館",
      "pgp" : "0",
      "terminal" : "0",
      "latitude" : "24.15629",
      "inDis" : "50",
      "routeId" : "71",
      "seqNo" : "19"
   },
   {
      "GoBack" : "1",
      "longitude" : "120.68578",
      "outDis" : "50",
      "Id" : "0047",
      "oid" : "7185",
      "districtId" : "1",
      "nameZh" : "一心市場",
      "pgp" : "0",
      "terminal" : "0",
      "latitude" : "24.1541",
      "inDis" : "50",
      "routeId" : "71",
      "seqNo" : "20"
   },
   {
      "GoBack" : "1",
      "longitude" : "120.68468",
      "outDis" : "50",
      "Id" : "0046",
      "oid" : "9AA3E9F6231A4A37811686F932F5A71E",
      "districtId" : "1",
      "nameZh" : "中友百貨",
      "pgp" : "0",
      "terminal" : "0",
      "latitude" : "24.15127",
      "inDis" : "50",
      "routeId" : "71",
      "seqNo" : "21"
   },
   {
      "GoBack" : "1",
      "longitude" : "120.68387",
      "outDis" : "50",
      "Id" : "0045",
      "oid" : "7F0C2DDA86C147B68BEC8D87632439AF",
      "districtId" : "1",
      "nameZh" : "國立臺中科技大學",
      "pgp" : "0",
      "terminal" : "0",
      "latitude" : "24.14952",
      "inDis" : "50",
      "routeId" : "71",
      "seqNo" : "22"
   },
   {
      "GoBack" : "1",
      "longitude" : "120.68463",
      "outDis" : "50",
      "Id" : "1513",
      "oid" : "16096",
      "districtId" : "1",
      "nameZh" : "中興堂",
      "pgp" : "0",
      "terminal" : "0",
      "latitude" : "24.14621",
      "inDis" : "50",
      "routeId" : "71",
      "seqNo" : "23"
   },
   {
      "GoBack" : "1",
      "longitude" : "120.6859",
      "outDis" : "50",
      "Id" : "4544",
      "oid" : "F695AA1C2E4B462887B38FCE631DD956",
      "districtId" : "1",
      "nameZh" : "臺中公園(雙十路)",
      "pgp" : "0",
      "terminal" : "0",
      "latitude" : "24.1442",
      "inDis" : "50",
      "routeId" : "71",
      "seqNo" : "24"
   },
   {
      "GoBack" : "1",
      "longitude" : "120.68582",
      "outDis" : "50",
      "Id" : "0402",
      "oid" : "73E2032078A642F3B4B0602F54D62881",
      "districtId" : "1",
      "nameZh" : "干城站",
      "pgp" : "0",
      "terminal" : "0",
      "latitude" : "24.14105",
      "inDis" : "50",
      "routeId" : "71",
      "seqNo" : "25"
   },
   {
      "GoBack" : "1",
      "longitude" : "120.68451",
      "outDis" : "50",
      "Id" : "1824",
      "oid" : "3C915D11BDA8437DB8ED6C5ACAF42586",
      "districtId" : "1",
      "nameZh" : "臺中火車站",
      "pgp" : "0",
      "terminal" : "0",
      "latitude" : "24.13754",
      "inDis" : "50",
      "routeId" : "71",
      "seqNo" : "26"
   },
   {
      "GoBack" : "1",
      "longitude" : "120.68093",
      "outDis" : "50",
      "Id" : "4284",
      "oid" : "E40722A4D2FE4DA48255FFEA56235858",
      "districtId" : "1",
      "nameZh" : "民權繼光街口",
      "pgp" : "0",
      "terminal" : "0",
      "latitude" : "24.13685",
      "inDis" : "50",
      "routeId" : "71",
      "seqNo" : "27"
   },
   {
      "GoBack" : "1",
      "longitude" : "120.67764",
      "outDis" : "50",
      "Id" : "0071",
      "oid" : "F764BE34D95843DCB1D98ED13BD21430",
      "districtId" : "1",
      "nameZh" : "臺中女中",
      "pgp" : "0",
      "terminal" : "0",
      "latitude" : "24.1358",
      "inDis" : "50",
      "routeId" : "71",
      "seqNo" : "28"
   },
   {
      "GoBack" : "1",
      "longitude" : "120.67575",
      "outDis" : "50",
      "Id" : "0070",
      "oid" : "16FD2946EB314BFB9F81C2560AA6909F",
      "districtId" : "1",
      "nameZh" : "地方法院",
      "pgp" : "0",
      "terminal" : "0",
      "latitude" : "24.13389",
      "inDis" : "50",
      "routeId" : "71",
      "seqNo" : "29"
   },
   {
      "GoBack" : "1",
      "longitude" : "120.67258",
      "outDis" : "50",
      "Id" : "4317",
      "oid" : "0ABE34155E7C41639EA54A3C9CE3C944",
      "districtId" : "1",
      "nameZh" : "林森三民路口",
      "pgp" : "0",
      "terminal" : "0",
      "latitude" : "24.13609",
      "inDis" : "50",
      "routeId" : "71",
      "seqNo" : "30"
   },
   {
      "GoBack" : "1",
      "longitude" : "120.66874",
      "outDis" : "50",
      "Id" : "0068",
      "oid" : "B49E3D5556984C0EA54F992A83291CF0",
      "districtId" : "1",
      "nameZh" : "忠信國小",
      "pgp" : "0",
      "terminal" : "0",
      "latitude" : "24.13934",
      "inDis" : "50",
      "routeId" : "71",
      "seqNo" : "31"
   },
   {
      "GoBack" : "1",
      "longitude" : "120.66624",
      "outDis" : "50",
      "Id" : "5088",
      "oid" : "ED24729DF4EF448D886E3D4326E33273",
      "districtId" : "1",
      "nameZh" : "大墩文化中心(五權路)",
      "pgp" : "0",
      "terminal" : "0",
      "latitude" : "24.14092",
      "inDis" : "50",
      "routeId" : "71",
      "seqNo" : "32"
   },
   {
      "GoBack" : "1",
      "longitude" : "120.66355",
      "outDis" : "50",
      "Id" : "4556",
      "oid" : "9E344ABDD74C4AD09325ACF0241FB288",
      "districtId" : "1",
      "nameZh" : "美術館(五權西路)",
      "pgp" : "0",
      "terminal" : "0",
      "latitude" : "24.14015",
      "inDis" : "50",
      "routeId" : "71",
      "seqNo" : "33"
   },
   {
      "GoBack" : "1",
      "longitude" : "120.66174",
      "outDis" : "50",
      "Id" : "0172",
      "oid" : "3B8EFAA4544948A0BD1CB29B646BA2FF",
      "districtId" : "1",
      "nameZh" : "向上國中",
      "pgp" : "0",
      "terminal" : "0",
      "latitude" : "24.14303",
      "inDis" : "50",
      "routeId" : "71",
      "seqNo" : "34"
   },
   {
      "GoBack" : "1",
      "longitude" : "120.66167",
      "outDis" : "50",
      "Id" : "5396",
      "oid" : "312960894",
      "districtId" : "1",
      "nameZh" : "美村向上路口",
      "pgp" : "0",
      "terminal" : "0",
      "latitude" : "24.14645",
      "inDis" : "50",
      "routeId" : "71",
      "seqNo" : "35"
   },
   {
      "GoBack" : "1",
      "longitude" : "120.66167",
      "outDis" : "50",
      "Id" : "0212",
      "oid" : "CCD5BD6C0BCF437BB8396B9C9FA1AC7E",
      "districtId" : "1",
      "nameZh" : "美村向上北路口",
      "pgp" : "0",
      "terminal" : "0",
      "latitude" : "24.14805",
      "inDis" : "50",
      "routeId" : "71",
      "seqNo" : "36"
   },
   {
      "GoBack" : "1",
      "longitude" : "120.66167",
      "outDis" : "50",
      "Id" : "0459",
      "oid" : "5F190B9B61284691887E3D17168AC390",
      "districtId" : "1",
      "nameZh" : "美村公益路口",
      "pgp" : "0",
      "terminal" : "0",
      "latitude" : "24.15044",
      "inDis" : "50",
      "routeId" : "71",
      "seqNo" : "37"
   },
   {
      "GoBack" : "1",
      "longitude" : "120.6617",
      "outDis" : "50",
      "Id" : "0643",
      "oid" : "C971AFA744EF4269B0CC6FFBD3B2B981",
      "districtId" : "1",
      "nameZh" : "美村忠誠路口",
      "pgp" : "0",
      "terminal" : "0",
      "latitude" : "24.15304",
      "inDis" : "50",
      "routeId" : "71",
      "seqNo" : "38"
   },
   {
      "GoBack" : "1",
      "longitude" : "120.66203",
      "outDis" : "50",
      "Id" : "5169",
      "oid" : "0B8E3A65536744E3BC4EF5602165D7B3",
      "districtId" : "1",
      "nameZh" : "廣三SOGO(美村路)",
      "pgp" : "0",
      "terminal" : "0",
      "latitude" : "24.15471",
      "inDis" : "50",
      "routeId" : "71",
      "seqNo" : "39"
   },
   {
      "GoBack" : "1",
      "longitude" : "120.66425",
      "outDis" : "50",
      "Id" : "0089",
      "oid" : "D29A6ADA963A41BA96AF3D25D8B9B57C",
      "districtId" : "1",
      "nameZh" : "忠明高中",
      "pgp" : "0",
      "terminal" : "0",
      "latitude" : "24.15805",
      "inDis" : "50",
      "routeId" : "71",
      "seqNo" : "40"
   },
   {
      "GoBack" : "1",
      "longitude" : "120.66683",
      "outDis" : "50",
      "Id" : "4318",
      "oid" : "03380A3426804737B05351D3CB6F41D1",
      "districtId" : "1",
      "nameZh" : "植物園(西屯路)",
      "pgp" : "0",
      "terminal" : "0",
      "latitude" : "24.1583",
      "inDis" : "50",
      "routeId" : "71",
      "seqNo" : "41"
   },
   {
      "GoBack" : "2",
      "longitude" : "120.667",
      "outDis" : "50",
      "Id" : "4318",
      "oid" : "514BC809602549FFA9D3E8F8407EB95F",
      "districtId" : "1",
      "nameZh" : "植物園(西屯路)",
      "pgp" : "0",
      "terminal" : "0",
      "latitude" : "24.1583",
      "inDis" : "50",
      "routeId" : "71",
      "seqNo" : "1"
   },
   {
      "GoBack" : "2",
      "longitude" : "120.66406",
      "outDis" : "50",
      "Id" : "0089",
      "oid" : "B8E01A776AD34FE9AEBD521E8E92958D",
      "districtId" : "1",
      "nameZh" : "忠明高中",
      "pgp" : "0",
      "terminal" : "0",
      "latitude" : "24.15798",
      "inDis" : "50",
      "routeId" : "71",
      "seqNo" : "2"
   },
   {
      "GoBack" : "2",
      "longitude" : "120.66218",
      "outDis" : "50",
      "Id" : "5169",
      "oid" : "16A663DAA6F2424B8C447B4A20DB801A",
      "districtId" : "1",
      "nameZh" : "廣三SOGO(美村路)",
      "pgp" : "0",
      "terminal" : "0",
      "latitude" : "24.15504",
      "inDis" : "50",
      "routeId" : "71",
      "seqNo" : "3"
   },
   {
      "GoBack" : "2",
      "longitude" : "120.66177",
      "outDis" : "50",
      "Id" : "0643",
      "oid" : "8B7C2661FA064BC1BA507F08E1BC8777",
      "districtId" : "1",
      "nameZh" : "美村忠誠路口",
      "pgp" : "0",
      "terminal" : "0",
      "latitude" : "24.15296",
      "inDis" : "50",
      "routeId" : "71",
      "seqNo" : "4"
   },
   {
      "GoBack" : "2",
      "longitude" : "120.66172",
      "outDis" : "50",
      "Id" : "0459",
      "oid" : "6317DD74746A47E99834505DE6E34364",
      "districtId" : "1",
      "nameZh" : "美村公益路口",
      "pgp" : "0",
      "terminal" : "0",
      "latitude" : "24.15038",
      "inDis" : "50",
      "routeId" : "71",
      "seqNo" : "5"
   },
   {
      "GoBack" : "2",
      "longitude" : "120.66167",
      "outDis" : "50",
      "Id" : "0212",
      "oid" : "FB2477187D7B41F294E2E3584EF276E8",
      "districtId" : "1",
      "nameZh" : "美村向上北路口",
      "pgp" : "0",
      "terminal" : "0",
      "latitude" : "24.14831",
      "inDis" : "50",
      "routeId" : "71",
      "seqNo" : "6"
   },
   {
      "GoBack" : "2",
      "longitude" : "120.66167",
      "outDis" : "50",
      "Id" : "5396",
      "oid" : "312960894",
      "districtId" : "1",
      "nameZh" : "美村向上路口",
      "pgp" : "0",
      "terminal" : "0",
      "latitude" : "24.14645",
      "inDis" : "50",
      "routeId" : "71",
      "seqNo" : "7"
   },
   {
      "GoBack" : "2",
      "longitude" : "120.66163",
      "outDis" : "50",
      "Id" : "0172",
      "oid" : "8F36002250D04408880A35894070A149",
      "districtId" : "1",
      "nameZh" : "向上國中",
      "pgp" : "0",
      "terminal" : "0",
      "latitude" : "24.14383",
      "inDis" : "50",
      "routeId" : "71",
      "seqNo" : "8"
   },
   {
      "GoBack" : "2",
      "longitude" : "120.66288",
      "outDis" : "50",
      "Id" : "4556",
      "oid" : "AB35A0DE868845C0B6B3B8AC2111C9A1",
      "districtId" : "1",
      "nameZh" : "美術館(五權西路)",
      "pgp" : "0",
      "terminal" : "0",
      "latitude" : "24.14003",
      "inDis" : "50",
      "routeId" : "71",
      "seqNo" : "9"
   },
   {
      "GoBack" : "2",
      "longitude" : "120.66644",
      "outDis" : "50",
      "Id" : "5088",
      "oid" : "02B91D455F7C4084B003BEEAB368C531",
      "districtId" : "1",
      "nameZh" : "大墩文化中心(五權路)",
      "pgp" : "0",
      "terminal" : "0",
      "latitude" : "24.14072",
      "inDis" : "50",
      "routeId" : "71",
      "seqNo" : "10"
   },
   {
      "GoBack" : "2",
      "longitude" : "120.66854",
      "outDis" : "50",
      "Id" : "0068",
      "oid" : "E343EAB7B8F34DD5BD05D6086C5F007D",
      "districtId" : "1",
      "nameZh" : "忠信國小",
      "pgp" : "0",
      "terminal" : "0",
      "latitude" : "24.13942",
      "inDis" : "50",
      "routeId" : "71",
      "seqNo" : "11"
   },
   {
      "GoBack" : "2",
      "longitude" : "120.67226",
      "outDis" : "50",
      "Id" : "4317",
      "oid" : "8E56F19F1C8B46DC90DDD25465B1DA26",
      "districtId" : "1",
      "nameZh" : "林森三民路口",
      "pgp" : "0",
      "terminal" : "0",
      "latitude" : "24.13612",
      "inDis" : "50",
      "routeId" : "71",
      "seqNo" : "12"
   },
   {
      "GoBack" : "2",
      "longitude" : "120.67578",
      "outDis" : "50",
      "Id" : "0070",
      "oid" : "4B3A1AA9F7B04E30AFCDA944CC3DE7AD",
      "districtId" : "1",
      "nameZh" : "地方法院",
      "pgp" : "0",
      "terminal" : "0",
      "latitude" : "24.13383",
      "inDis" : "50",
      "routeId" : "71",
      "seqNo" : "13"
   },
   {
      "GoBack" : "2",
      "longitude" : "120.67799",
      "outDis" : "50",
      "Id" : "0071",
      "oid" : "92CABD19F89445B48A30B415D975CDF7",
      "districtId" : "1",
      "nameZh" : "臺中女中",
      "pgp" : "0",
      "terminal" : "0",
      "latitude" : "24.13594",
      "inDis" : "50",
      "routeId" : "71",
      "seqNo" : "14"
   },
   {
      "GoBack" : "2",
      "longitude" : "120.68106",
      "outDis" : "50",
      "Id" : "4284",
      "oid" : "7D4DB74B1F63443AA8955A28597EB953",
      "districtId" : "1",
      "nameZh" : "民權繼光街口",
      "pgp" : "0",
      "terminal" : "0",
      "latitude" : "24.13707",
      "inDis" : "50",
      "routeId" : "71",
      "seqNo" : "15"
   },
   {
      "GoBack" : "2",
      "longitude" : "120.68456",
      "outDis" : "50",
      "Id" : "1824",
      "oid" : "A8491E314E744FF59BAAFD279B511B38",
      "districtId" : "1",
      "nameZh" : "臺中火車站",
      "pgp" : "0",
      "terminal" : "0",
      "latitude" : "24.1372",
      "inDis" : "50",
      "routeId" : "71",
      "seqNo" : "16"
   },
   {
      "GoBack" : "2",
      "longitude" : "120.68607",
      "outDis" : "50",
      "Id" : "0402",
      "oid" : "B27946DD37FB49488AB9975BBF46C592",
      "districtId" : "1",
      "nameZh" : "干城站",
      "pgp" : "0",
      "terminal" : "0",
      "latitude" : "24.14086",
      "inDis" : "50",
      "routeId" : "71",
      "seqNo" : "17"
   },
   {
      "GoBack" : "2",
      "longitude" : "120.68582",
      "outDis" : "50",
      "Id" : "4561",
      "oid" : "4C0F8426770D41898B45F60F2EFB829E",
      "districtId" : "1",
      "nameZh" : "立體停車場(雙十路)",
      "pgp" : "0",
      "terminal" : "0",
      "latitude" : "24.14248",
      "inDis" : "50",
      "routeId" : "71",
      "seqNo" : "18"
   },
   {
      "GoBack" : "2",
      "longitude" : "120.68615",
      "outDis" : "50",
      "Id" : "4544",
      "oid" : "17D20483944C45999A4C3D12CC4FAC46",
      "districtId" : "1",
      "nameZh" : "臺中公園(雙十路)",
      "pgp" : "0",
      "terminal" : "0",
      "latitude" : "24.14399",
      "inDis" : "50",
      "routeId" : "71",
      "seqNo" : "19"
   },
   {
      "GoBack" : "2",
      "longitude" : "120.68448",
      "outDis" : "50",
      "Id" : "1513",
      "oid" : "15989",
      "districtId" : "1",
      "nameZh" : "中興堂",
      "pgp" : "0",
      "terminal" : "0",
      "latitude" : "24.14626",
      "inDis" : "50",
      "routeId" : "71",
      "seqNo" : "20"
   },
   {
      "GoBack" : "2",
      "longitude" : "120.68403",
      "outDis" : "50",
      "Id" : "0045",
      "oid" : "153755099F674C2BB4626D42BF1BE14D",
      "districtId" : "1",
      "nameZh" : "國立臺中科技大學",
      "pgp" : "0",
      "terminal" : "0",
      "latitude" : "24.14952",
      "inDis" : "50",
      "routeId" : "71",
      "seqNo" : "21"
   },
   {
      "GoBack" : "2",
      "longitude" : "120.68514",
      "outDis" : "50",
      "Id" : "0046",
      "oid" : "4C8FFFFD0D404731B48E298FC14F3CA6",
      "districtId" : "1",
      "nameZh" : "中友百貨",
      "pgp" : "0",
      "terminal" : "0",
      "latitude" : "24.15257",
      "inDis" : "50",
      "routeId" : "71",
      "seqNo" : "22"
   },
   {
      "GoBack" : "2",
      "longitude" : "120.68563",
      "outDis" : "50",
      "Id" : "0203",
      "oid" : "BC517E8D162B43FC9D94F1DF8EC89B5F",
      "districtId" : "1",
      "nameZh" : "市立殯儀館",
      "pgp" : "0",
      "terminal" : "0",
      "latitude" : "24.15627",
      "inDis" : "50",
      "routeId" : "71",
      "seqNo" : "23"
   },
   {
      "GoBack" : "2",
      "longitude" : "120.68509",
      "outDis" : "50",
      "Id" : "4607",
      "oid" : "7465C42E3C7A4A24BDF5431A7D643255",
      "districtId" : "1",
      "nameZh" : "新民高中(崇德路)",
      "pgp" : "0",
      "terminal" : "0",
      "latitude" : "24.15943",
      "inDis" : "50",
      "routeId" : "71",
      "seqNo" : "24"
   },
   {
      "GoBack" : "2",
      "longitude" : "120.68509",
      "outDis" : "50",
      "Id" : "4576",
      "oid" : "22979124A9FD4BBCB697E29094DE1B0B",
      "districtId" : "1",
      "nameZh" : "崇德德化街口",
      "pgp" : "0",
      "terminal" : "0",
      "latitude" : "24.16175",
      "inDis" : "50",
      "routeId" : "71",
      "seqNo" : "25"
   },
   {
      "GoBack" : "2",
      "longitude" : "120.68509",
      "outDis" : "50",
      "Id" : "0098",
      "oid" : "926598AF0CCF41CEA53715E94DEDF968",
      "districtId" : "1",
      "nameZh" : "崇德橋",
      "pgp" : "0",
      "terminal" : "0",
      "latitude" : "24.16454",
      "inDis" : "50",
      "routeId" : "71",
      "seqNo" : "26"
   },
   {
      "GoBack" : "2",
      "longitude" : "120.68518",
      "outDis" : "50",
      "Id" : "3511",
      "oid" : "426FC3502D3E412AB415FD5391889DB4",
      "districtId" : "1",
      "nameZh" : "聖德禪寺",
      "pgp" : "0",
      "terminal" : "0",
      "latitude" : "24.16814",
      "inDis" : "50",
      "routeId" : "71",
      "seqNo" : "27"
   },
   {
      "GoBack" : "2",
      "longitude" : "120.68548",
      "outDis" : "50",
      "Id" : "1768",
      "oid" : "5F2ACD0C23E941CC9922D75C54681D23",
      "districtId" : "1",
      "nameZh" : "崇德北平路口",
      "pgp" : "0",
      "terminal" : "0",
      "latitude" : "24.1705",
      "inDis" : "50",
      "routeId" : "71",
      "seqNo" : "28"
   },
   {
      "GoBack" : "2",
      "longitude" : "120.68538",
      "outDis" : "50",
      "Id" : "4339",
      "oid" : "314796200",
      "districtId" : "1",
      "nameZh" : "崇德文心路口",
      "pgp" : "0",
      "terminal" : "0",
      "latitude" : "24.17163",
      "inDis" : "50",
      "routeId" : "71",
      "seqNo" : "29"
   },
   {
      "GoBack" : "2",
      "longitude" : "120.68562",
      "outDis" : "50",
      "Id" : "0199",
      "oid" : "07809A05FCD046809C22C69630FD79D0",
      "districtId" : "1",
      "nameZh" : "崇德瀋陽路口",
      "pgp" : "0",
      "terminal" : "0",
      "latitude" : "24.17298",
      "inDis" : "50",
      "routeId" : "71",
      "seqNo" : "30"
   },
   {
      "GoBack" : "2",
      "longitude" : "120.6856",
      "outDis" : "50",
      "Id" : "5131",
      "oid" : "306661878",
      "districtId" : "1",
      "nameZh" : "崇德國中(民俗公園)",
      "pgp" : "0",
      "terminal" : "0",
      "latitude" : "24.17523",
      "inDis" : "50",
      "routeId" : "71",
      "seqNo" : "31"
   },
   {
      "GoBack" : "2",
      "longitude" : "120.68586",
      "outDis" : "50",
      "Id" : "0196",
      "oid" : "A08B6B176CAC4C0B9A6EA64F1F98006A",
      "districtId" : "1",
      "nameZh" : "崇德一路口",
      "pgp" : "0",
      "terminal" : "0",
      "latitude" : "24.17674",
      "inDis" : "50",
      "routeId" : "71",
      "seqNo" : "32"
   },
   {
      "GoBack" : "2",
      "longitude" : "120.68585",
      "outDis" : "50",
      "Id" : "0195",
      "oid" : "219A93B415B14EA180A8E1960FB310F7",
      "districtId" : "1",
      "nameZh" : "崇德五路口",
      "pgp" : "0",
      "terminal" : "0",
      "latitude" : "24.17873",
      "inDis" : "50",
      "routeId" : "71",
      "seqNo" : "33"
   },
   {
      "GoBack" : "2",
      "longitude" : "120.68608",
      "outDis" : "50",
      "Id" : "5387",
      "oid" : "313288983",
      "districtId" : "1",
      "nameZh" : "崇德六路口",
      "pgp" : "0",
      "terminal" : "0",
      "latitude" : "24.18086",
      "inDis" : "50",
      "routeId" : "71",
      "seqNo" : "34"
   },
   {
      "GoBack" : "2",
      "longitude" : "120.68624",
      "outDis" : "50",
      "Id" : "0194",
      "oid" : "3E74F15728D8475398FD1EDC513F5F40",
      "districtId" : "1",
      "nameZh" : "北屯區行政大樓",
      "pgp" : "0",
      "terminal" : "0",
      "latitude" : "24.18258",
      "inDis" : "50",
      "routeId" : "71",
      "seqNo" : "35"
   },
   {
      "GoBack" : "2",
      "longitude" : "120.68618",
      "outDis" : "50",
      "Id" : "1393",
      "oid" : "12310",
      "districtId" : "1",
      "nameZh" : "崇德山西路口",
      "pgp" : "0",
      "terminal" : "0",
      "latitude" : "24.18506",
      "inDis" : "50",
      "routeId" : "71",
      "seqNo" : "36"
   },
   {
      "GoBack" : "2",
      "longitude" : "120.68619",
      "outDis" : "50",
      "Id" : "2958",
      "oid" : "B38650F6D9E54C1E841E05929BD8D9B2",
      "districtId" : "1",
      "nameZh" : "崇德九路口",
      "pgp" : "0",
      "terminal" : "1",
      "latitude" : "24.18759",
      "inDis" : "50",
      "routeId" : "71",
      "seqNo" : "37"
   },
   {
      "GoBack" : "2",
      "longitude" : "120.68624",
      "outDis" : "50",
      "Id" : "2959",
      "oid" : "830DE29F4F834CA0AAE94128FD06134E",
      "districtId" : "1",
      "nameZh" : "崇德十路口",
      "pgp" : "0",
      "terminal" : "0",
      "latitude" : "24.1894",
      "inDis" : "50",
      "routeId" : "71",
      "seqNo" : "38"
   },
   {
      "GoBack" : "2",
      "longitude" : "120.68648",
      "outDis" : "50",
      "Id" : "4252",
      "oid" : "12454",
      "districtId" : "1",
      "nameZh" : "崇德豐樂路口",
      "pgp" : "0",
      "terminal" : "0",
      "latitude" : "24.19325",
      "inDis" : "50",
      "routeId" : "71",
      "seqNo" : "39"
   },
   {
      "GoBack" : "2",
      "longitude" : "120.68659",
      "outDis" : "50",
      "Id" : "3818",
      "oid" : "320761403",
      "districtId" : "1",
      "nameZh" : "錦村市場",
      "pgp" : "0",
      "terminal" : "0",
      "latitude" : "24.16564",
      "inDis" : "50",
      "routeId" : "71",
      "seqNo" : "40"
   },
   {
      "GoBack" : "2",
      "longitude" : "120.68656",
      "outDis" : "50",
      "Id" : "4359",
      "oid" : "13294",
      "districtId" : "1",
      "nameZh" : "臺中洲際棒球場",
      "pgp" : "0",
      "terminal" : "0",
      "latitude" : "24.19932",
      "inDis" : "50",
      "routeId" : "71",
      "seqNo" : "41"
   }
]
