[
   {
      "GoBack" : "1",
      "longitude" : "120.68443",
      "outDis" : "50",
      "Id" : "0443",
      "oid" : "B5187D1FE629474C8A89D8EB309D6D8A",
      "districtId" : "1",
      "nameZh" : "仁友東站",
      "pgp" : "0",
      "terminal" : "0",
      "latitude" : "24.13901",
      "inDis" : "50",
      "routeId" : "48區",
      "seqNo" : "1"
   },
   {
      "GoBack" : "1",
      "longitude" : "120.68358",
      "outDis" : "50",
      "Id" : "0151",
      "oid" : "7436",
      "districtId" : "1",
      "nameZh" : "第一廣場",
      "pgp" : "0",
      "terminal" : "0",
      "latitude" : "24.13897",
      "inDis" : "50",
      "routeId" : "48區",
      "seqNo" : "2"
   },
   {
      "GoBack" : "1",
      "longitude" : "120.68254",
      "outDis" : "50",
      "Id" : "4401",
      "oid" : "0E4D954A575948E0A5A3CE5F33E0A3FE",
      "districtId" : "1",
      "nameZh" : "彰化銀行(臺灣大道)",
      "pgp" : "0",
      "terminal" : "0",
      "latitude" : "24.13998",
      "inDis" : "50",
      "routeId" : "48區",
      "seqNo" : "3"
   },
   {
      "GoBack" : "1",
      "longitude" : "120.68009",
      "outDis" : "50",
      "Id" : "4395",
      "oid" : "52DDCC4E850344F9874BD5EC4C836B84",
      "districtId" : "1",
      "nameZh" : "第二市場(臺灣大道)",
      "pgp" : "0",
      "terminal" : "0",
      "latitude" : "24.14198",
      "inDis" : "50",
      "routeId" : "48區",
      "seqNo" : "4"
   },
   {
      "GoBack" : "1",
      "longitude" : "120.67666",
      "outDis" : "50",
      "Id" : "4375",
      "oid" : "33FEC1CA6D894F06A60986F57EF6CA18",
      "districtId" : "1",
      "nameZh" : "臺灣大道中華路口",
      "pgp" : "0",
      "terminal" : "0",
      "latitude" : "24.14472",
      "inDis" : "50",
      "routeId" : "48區",
      "seqNo" : "6"
   },
   {
      "GoBack" : "1",
      "longitude" : "120.67463",
      "outDis" : "50",
      "Id" : "5092",
      "oid" : "969E34CDFBAF4D2CA01C818D685DC781",
      "districtId" : "1",
      "nameZh" : "臺灣大道原子街口",
      "pgp" : "0",
      "terminal" : "0",
      "latitude" : "24.14671",
      "inDis" : "50",
      "routeId" : "48區",
      "seqNo" : "7"
   },
   {
      "GoBack" : "1",
      "longitude" : "120.67148",
      "outDis" : "50",
      "Id" : "0723",
      "oid" : "F36DDF54718742C091EB4BA97DC692F7",
      "districtId" : "1",
      "nameZh" : "茄苳腳",
      "pgp" : "0",
      "terminal" : "0",
      "latitude" : "24.14963",
      "inDis" : "50",
      "routeId" : "48區",
      "seqNo" : "9"
   },
   {
      "GoBack" : "2",
      "longitude" : "120.67158",
      "outDis" : "50",
      "Id" : "0723",
      "oid" : "4001F3F97C02495499BA96A952330C37",
      "districtId" : "1",
      "nameZh" : "茄苳腳",
      "pgp" : "0",
      "terminal" : "0",
      "latitude" : "24.14925",
      "inDis" : "50",
      "routeId" : "48區",
      "seqNo" : "1"
   },
   {
      "GoBack" : "2",
      "longitude" : "120.67463",
      "outDis" : "50",
      "Id" : "5092",
      "oid" : "319105376",
      "districtId" : "1",
      "nameZh" : "臺灣大道原子街口",
      "pgp" : "0",
      "terminal" : "0",
      "latitude" : "24.14671",
      "inDis" : "50",
      "routeId" : "48區",
      "seqNo" : "3"
   },
   {
      "GoBack" : "2",
      "longitude" : "120.67666",
      "outDis" : "50",
      "Id" : "4375",
      "oid" : "319105377",
      "districtId" : "1",
      "nameZh" : "臺灣大道中華路口",
      "pgp" : "0",
      "terminal" : "0",
      "latitude" : "24.14472",
      "inDis" : "50",
      "routeId" : "48區",
      "seqNo" : "4"
   },
   {
      "GoBack" : "2",
      "longitude" : "120.67838",
      "outDis" : "50",
      "Id" : "0446",
      "oid" : "319144686",
      "districtId" : "1",
      "nameZh" : "仁愛醫院(臺灣大道)",
      "pgp" : "0",
      "terminal" : "0",
      "latitude" : "24.14347",
      "inDis" : "50",
      "routeId" : "48區",
      "seqNo" : "5"
   },
   {
      "GoBack" : "2",
      "longitude" : "120.68009",
      "outDis" : "50",
      "Id" : "4395",
      "oid" : "52DDCC4E850344F9874BD5EC4C836B84",
      "districtId" : "1",
      "nameZh" : "第二市場(臺灣大道)",
      "pgp" : "0",
      "terminal" : "0",
      "latitude" : "24.14198",
      "inDis" : "50",
      "routeId" : "48區",
      "seqNo" : "6"
   },
   {
      "GoBack" : "2",
      "longitude" : "120.68254",
      "outDis" : "50",
      "Id" : "4401",
      "oid" : "0E4D954A575948E0A5A3CE5F33E0A3FE",
      "districtId" : "1",
      "nameZh" : "彰化銀行(臺灣大道)",
      "pgp" : "0",
      "terminal" : "0",
      "latitude" : "24.13998",
      "inDis" : "50",
      "routeId" : "48區",
      "seqNo" : "7"
   },
   {
      "GoBack" : "2",
      "longitude" : "120.68358",
      "outDis" : "50",
      "Id" : "0151",
      "oid" : "7436",
      "districtId" : "1",
      "nameZh" : "第一廣場",
      "pgp" : "0",
      "terminal" : "0",
      "latitude" : "24.13897",
      "inDis" : "50",
      "routeId" : "48區",
      "seqNo" : "8"
   },
   {
      "GoBack" : "2",
      "longitude" : "120.68449",
      "outDis" : "50",
      "Id" : "1824",
      "oid" : "319371924",
      "districtId" : "1",
      "nameZh" : "臺中車站(臺灣大道)",
      "pgp" : "0",
      "terminal" : "0",
      "latitude" : "24.13802",
      "inDis" : "50",
      "routeId" : "48區",
      "seqNo" : "9"
   },
   {
      "GoBack" : "2",
      "longitude" : "120.68501",
      "outDis" : "50",
      "Id" : "0443",
      "oid" : "82B82BD6794344CA83D25AC589CF6A2B",
      "districtId" : "1",
      "nameZh" : "仁友東站",
      "pgp" : "0",
      "terminal" : "0",
      "latitude" : "24.13937",
      "inDis" : "50",
      "routeId" : "48區",
      "seqNo" : "10"
   }
]
