[
   {
      "GoBack" : "1",
      "longitude" : "120.81147",
      "outDis" : "50",
      "Id" : "3368",
      "oid" : "6412",
      "districtId" : "1",
      "nameZh" : "新五村",
      "pgp" : "0",
      "terminal" : "0",
      "latitude" : "24.19043",
      "inDis" : "50",
      "routeId" : "273",
      "seqNo" : "1"
   },
   {
      "GoBack" : "1",
      "longitude" : "120.81558",
      "outDis" : "50",
      "Id" : "2705",
      "oid" : "6062",
      "districtId" : "1",
      "nameZh" : "茅埔角",
      "pgp" : "0",
      "terminal" : "0",
      "latitude" : "24.18477",
      "inDis" : "50",
      "routeId" : "273",
      "seqNo" : "2"
   },
   {
      "GoBack" : "1",
      "longitude" : "120.81594",
      "outDis" : "50",
      "Id" : "4206",
      "oid" : "12291",
      "districtId" : "1",
      "nameZh" : "食水井",
      "pgp" : "0",
      "terminal" : "0",
      "latitude" : "24.17801",
      "inDis" : "50",
      "routeId" : "273",
      "seqNo" : "3"
   },
   {
      "GoBack" : "1",
      "longitude" : "120.81494",
      "outDis" : "50",
      "Id" : "2604",
      "oid" : "6006",
      "districtId" : "1",
      "nameZh" : "南華莊",
      "pgp" : "0",
      "terminal" : "0",
      "latitude" : "24.17592",
      "inDis" : "50",
      "routeId" : "273",
      "seqNo" : "4"
   },
   {
      "GoBack" : "1",
      "longitude" : "120.81009",
      "outDis" : "50",
      "Id" : "2964",
      "oid" : "6189",
      "districtId" : "1",
      "nameZh" : "崎頂",
      "pgp" : "0",
      "terminal" : "0",
      "latitude" : "24.17426",
      "inDis" : "50",
      "routeId" : "273",
      "seqNo" : "5"
   },
   {
      "GoBack" : "1",
      "longitude" : "120.8126",
      "outDis" : "50",
      "Id" : "3006",
      "oid" : "6214",
      "districtId" : "1",
      "nameZh" : "梅園",
      "pgp" : "0",
      "terminal" : "0",
      "latitude" : "24.16064",
      "inDis" : "50",
      "routeId" : "273",
      "seqNo" : "6"
   },
   {
      "GoBack" : "1",
      "longitude" : "120.81362",
      "outDis" : "50",
      "Id" : "2131",
      "oid" : "5732",
      "districtId" : "1",
      "nameZh" : "池上",
      "pgp" : "0",
      "terminal" : "0",
      "latitude" : "24.15705",
      "inDis" : "50",
      "routeId" : "273",
      "seqNo" : "7"
   },
   {
      "GoBack" : "1",
      "longitude" : "120.81321",
      "outDis" : "50",
      "Id" : "3855",
      "oid" : "6656",
      "districtId" : "1",
      "nameZh" : "龍泉",
      "pgp" : "0",
      "terminal" : "0",
      "latitude" : "24.15462",
      "inDis" : "50",
      "routeId" : "273",
      "seqNo" : "8"
   },
   {
      "GoBack" : "1",
      "longitude" : "120.81248",
      "outDis" : "50",
      "Id" : "3856",
      "oid" : "6657",
      "districtId" : "1",
      "nameZh" : "龍泉下",
      "pgp" : "0",
      "terminal" : "0",
      "latitude" : "24.15316",
      "inDis" : "50",
      "routeId" : "273",
      "seqNo" : "9"
   },
   {
      "GoBack" : "1",
      "longitude" : "120.81057",
      "outDis" : "50",
      "Id" : "2218",
      "oid" : "5775",
      "districtId" : "1",
      "nameZh" : "伯公前",
      "pgp" : "0",
      "terminal" : "0",
      "latitude" : "24.15176",
      "inDis" : "50",
      "routeId" : "273",
      "seqNo" : "10"
   },
   {
      "GoBack" : "1",
      "longitude" : "120.80589",
      "outDis" : "50",
      "Id" : "2714",
      "oid" : "6064",
      "districtId" : "1",
      "nameZh" : "茄苳寮",
      "pgp" : "0",
      "terminal" : "0",
      "latitude" : "24.15078",
      "inDis" : "50",
      "routeId" : "273",
      "seqNo" : "11"
   },
   {
      "GoBack" : "2",
      "longitude" : "120.80589",
      "outDis" : "50",
      "Id" : "2714",
      "oid" : "6064",
      "districtId" : "1",
      "nameZh" : "茄苳寮",
      "pgp" : "0",
      "terminal" : "0",
      "latitude" : "24.15078",
      "inDis" : "50",
      "routeId" : "273",
      "seqNo" : "1"
   },
   {
      "GoBack" : "2",
      "longitude" : "120.81057",
      "outDis" : "50",
      "Id" : "2218",
      "oid" : "5775",
      "districtId" : "1",
      "nameZh" : "伯公前",
      "pgp" : "0",
      "terminal" : "0",
      "latitude" : "24.15176",
      "inDis" : "50",
      "routeId" : "273",
      "seqNo" : "2"
   },
   {
      "GoBack" : "2",
      "longitude" : "120.81248",
      "outDis" : "50",
      "Id" : "3856",
      "oid" : "6657",
      "districtId" : "1",
      "nameZh" : "龍泉下",
      "pgp" : "0",
      "terminal" : "0",
      "latitude" : "24.15316",
      "inDis" : "50",
      "routeId" : "273",
      "seqNo" : "3"
   },
   {
      "GoBack" : "2",
      "longitude" : "120.81321",
      "outDis" : "50",
      "Id" : "3855",
      "oid" : "6656",
      "districtId" : "1",
      "nameZh" : "龍泉",
      "pgp" : "0",
      "terminal" : "0",
      "latitude" : "24.15462",
      "inDis" : "50",
      "routeId" : "273",
      "seqNo" : "4"
   },
   {
      "GoBack" : "2",
      "longitude" : "120.81362",
      "outDis" : "50",
      "Id" : "2131",
      "oid" : "5732",
      "districtId" : "1",
      "nameZh" : "池上",
      "pgp" : "0",
      "terminal" : "0",
      "latitude" : "24.15705",
      "inDis" : "50",
      "routeId" : "273",
      "seqNo" : "5"
   },
   {
      "GoBack" : "2",
      "longitude" : "120.8126",
      "outDis" : "50",
      "Id" : "3006",
      "oid" : "6214",
      "districtId" : "1",
      "nameZh" : "梅園",
      "pgp" : "0",
      "terminal" : "0",
      "latitude" : "24.16064",
      "inDis" : "50",
      "routeId" : "273",
      "seqNo" : "6"
   },
   {
      "GoBack" : "2",
      "longitude" : "120.81009",
      "outDis" : "50",
      "Id" : "2964",
      "oid" : "6189",
      "districtId" : "1",
      "nameZh" : "崎頂",
      "pgp" : "0",
      "terminal" : "0",
      "latitude" : "24.17426",
      "inDis" : "50",
      "routeId" : "273",
      "seqNo" : "7"
   },
   {
      "GoBack" : "2",
      "longitude" : "120.81494",
      "outDis" : "50",
      "Id" : "2604",
      "oid" : "6006",
      "districtId" : "1",
      "nameZh" : "南華莊",
      "pgp" : "0",
      "terminal" : "0",
      "latitude" : "24.17592",
      "inDis" : "50",
      "routeId" : "273",
      "seqNo" : "8"
   },
   {
      "GoBack" : "2",
      "longitude" : "120.81594",
      "outDis" : "50",
      "Id" : "4206",
      "oid" : "12291",
      "districtId" : "1",
      "nameZh" : "食水井",
      "pgp" : "0",
      "terminal" : "0",
      "latitude" : "24.17801",
      "inDis" : "50",
      "routeId" : "273",
      "seqNo" : "9"
   },
   {
      "GoBack" : "2",
      "longitude" : "120.81558",
      "outDis" : "50",
      "Id" : "2705",
      "oid" : "6062",
      "districtId" : "1",
      "nameZh" : "茅埔角",
      "pgp" : "0",
      "terminal" : "0",
      "latitude" : "24.18477",
      "inDis" : "50",
      "routeId" : "273",
      "seqNo" : "10"
   },
   {
      "GoBack" : "2",
      "longitude" : "120.81147",
      "outDis" : "50",
      "Id" : "3368",
      "oid" : "6412",
      "districtId" : "1",
      "nameZh" : "新五村",
      "pgp" : "0",
      "terminal" : "0",
      "latitude" : "24.19043",
      "inDis" : "50",
      "routeId" : "273",
      "seqNo" : "11"
   }
]
