[
   {
      "GoBack" : "1",
      "longitude" : "120.72108",
      "outDis" : "60",
      "Id" : "3359",
      "oid" : "309256356",
      "districtId" : "1",
      "nameZh" : "慈濟醫院",
      "pgp" : "0",
      "terminal" : "0",
      "latitude" : "24.19577",
      "inDis" : "40",
      "routeId" : "66",
      "seqNo" : "1"
   },
   {
      "GoBack" : "1",
      "longitude" : "120.71929",
      "outDis" : "50",
      "Id" : "4976",
      "oid" : "311497495",
      "districtId" : "1",
      "nameZh" : "慈濟中醫院",
      "pgp" : "0",
      "terminal" : "0",
      "latitude" : "24.19299",
      "inDis" : "30",
      "routeId" : "66",
      "seqNo" : "2"
   },
   {
      "GoBack" : "1",
      "longitude" : "120.71826",
      "outDis" : "80",
      "Id" : "3513",
      "oid" : "18383735",
      "districtId" : "1",
      "nameZh" : "聖興站",
      "pgp" : "0",
      "terminal" : "0",
      "latitude" : "24.1915",
      "inDis" : "50",
      "routeId" : "66",
      "seqNo" : "3"
   },
   {
      "GoBack" : "1",
      "longitude" : "120.71822",
      "outDis" : "80",
      "Id" : "2078",
      "oid" : "18383739",
      "districtId" : "1",
      "nameZh" : "名人球場",
      "pgp" : "0",
      "terminal" : "0",
      "latitude" : "24.1883",
      "inDis" : "50",
      "routeId" : "66",
      "seqNo" : "4"
   },
   {
      "GoBack" : "1",
      "longitude" : "120.71871",
      "outDis" : "80",
      "Id" : "1552",
      "oid" : "18383740",
      "districtId" : "1",
      "nameZh" : "仁愛之家",
      "pgp" : "0",
      "terminal" : "0",
      "latitude" : "24.18586",
      "inDis" : "50",
      "routeId" : "66",
      "seqNo" : "5"
   },
   {
      "GoBack" : "1",
      "longitude" : "120.71926",
      "outDis" : "80",
      "Id" : "0729",
      "oid" : "18383741",
      "districtId" : "1",
      "nameZh" : "軍功松竹路口",
      "pgp" : "0",
      "terminal" : "0",
      "latitude" : "24.18306",
      "inDis" : "50",
      "routeId" : "66",
      "seqNo" : "6"
   },
   {
      "GoBack" : "1",
      "longitude" : "120.71968",
      "outDis" : "80",
      "Id" : "2631",
      "oid" : "8F2888792AA24CF595E9D627CBDD0615",
      "districtId" : "1",
      "nameZh" : "建功橋頭",
      "pgp" : "0",
      "terminal" : "0",
      "latitude" : "24.17988",
      "inDis" : "50",
      "routeId" : "66",
      "seqNo" : "7"
   },
   {
      "GoBack" : "1",
      "longitude" : "120.71935",
      "outDis" : "80",
      "Id" : "2723",
      "oid" : "1231D4FD99824DA49C314A4A979CA80C",
      "districtId" : "1",
      "nameZh" : "軍功農會",
      "pgp" : "0",
      "terminal" : "0",
      "latitude" : "24.17728",
      "inDis" : "50",
      "routeId" : "66",
      "seqNo" : "8"
   },
   {
      "GoBack" : "1",
      "longitude" : "120.71975",
      "outDis" : "80",
      "Id" : "0727",
      "oid" : "C25B0BE6A8B0444BBA34EFE9F31ADF1F",
      "districtId" : "1",
      "nameZh" : "軍功里",
      "pgp" : "0",
      "terminal" : "0",
      "latitude" : "24.17591",
      "inDis" : "50",
      "routeId" : "66",
      "seqNo" : "9"
   },
   {
      "GoBack" : "1",
      "longitude" : "120.72206",
      "outDis" : "80",
      "Id" : "4592",
      "oid" : "D7C3DCEDE2694C808193199453153C8F",
      "districtId" : "1",
      "nameZh" : "和平里(東山路)",
      "pgp" : "0",
      "terminal" : "0",
      "latitude" : "24.17601",
      "inDis" : "50",
      "routeId" : "66",
      "seqNo" : "10"
   },
   {
      "GoBack" : "1",
      "longitude" : "120.72436",
      "outDis" : "80",
      "Id" : "0687",
      "oid" : "3959BAD3D4B843F6BA998264EA65A6CA",
      "districtId" : "1",
      "nameZh" : "長興塑膠",
      "pgp" : "0",
      "terminal" : "0",
      "latitude" : "24.17618",
      "inDis" : "50",
      "routeId" : "66",
      "seqNo" : "11"
   },
   {
      "GoBack" : "1",
      "longitude" : "120.72721",
      "outDis" : "80",
      "Id" : "0555",
      "oid" : "4A9F9F066C5C43D4A037C2F3FF0146C4",
      "districtId" : "1",
      "nameZh" : "正覺寺",
      "pgp" : "0",
      "terminal" : "0",
      "latitude" : "24.1765",
      "inDis" : "50",
      "routeId" : "66",
      "seqNo" : "12"
   },
   {
      "GoBack" : "1",
      "longitude" : "120.73186",
      "outDis" : "80",
      "Id" : "0854",
      "oid" : "55760E049AD24CCFBBC8478639895C3C",
      "districtId" : "1",
      "nameZh" : "圓山新村",
      "pgp" : "0",
      "terminal" : "0",
      "latitude" : "24.17701",
      "inDis" : "50",
      "routeId" : "66",
      "seqNo" : "13"
   },
   {
      "GoBack" : "1",
      "longitude" : "120.73458",
      "outDis" : "80",
      "Id" : "0534",
      "oid" : "51210828",
      "districtId" : "1",
      "nameZh" : "台電東山所",
      "pgp" : "0",
      "terminal" : "0",
      "latitude" : "24.1771",
      "inDis" : "50",
      "routeId" : "66",
      "seqNo" : "14"
   },
   {
      "GoBack" : "1",
      "longitude" : "120.73588",
      "outDis" : "80",
      "Id" : "0768",
      "oid" : "51210826",
      "districtId" : "1",
      "nameZh" : "梨仔園",
      "pgp" : "0",
      "terminal" : "0",
      "latitude" : "24.17776",
      "inDis" : "50",
      "routeId" : "66",
      "seqNo" : "15"
   },
   {
      "GoBack" : "1",
      "longitude" : "120.73708",
      "outDis" : "80",
      "Id" : "0784",
      "oid" : "51210830",
      "districtId" : "1",
      "nameZh" : "逢甲橋",
      "pgp" : "0",
      "terminal" : "0",
      "latitude" : "24.17839",
      "inDis" : "50",
      "routeId" : "66",
      "seqNo" : "16"
   },
   {
      "GoBack" : "1",
      "longitude" : "120.74005",
      "outDis" : "80",
      "Id" : "0350",
      "oid" : "51210832",
      "districtId" : "1",
      "nameZh" : "大坑圓環",
      "pgp" : "0",
      "terminal" : "0",
      "latitude" : "24.17916",
      "inDis" : "50",
      "routeId" : "66",
      "seqNo" : "17"
   },
   {
      "GoBack" : "1",
      "longitude" : "120.74387",
      "outDis" : "70",
      "Id" : "0871",
      "oid" : "39D6AA99455E463EA3DB906E06CEC2B7",
      "districtId" : "1",
      "nameZh" : "聖壽宮",
      "pgp" : "0",
      "terminal" : "0",
      "latitude" : "24.18356",
      "inDis" : "60",
      "routeId" : "66",
      "seqNo" : "19"
   },
   {
      "GoBack" : "1",
      "longitude" : "120.74437",
      "outDis" : "70",
      "Id" : "0770",
      "oid" : "FEBA9D640EB8499CBB34B5956B467136",
      "districtId" : "1",
      "nameZh" : "清水橋",
      "pgp" : "0",
      "terminal" : "0",
      "latitude" : "24.18677",
      "inDis" : "60",
      "routeId" : "66",
      "seqNo" : "20"
   },
   {
      "GoBack" : "1",
      "longitude" : "120.74522",
      "outDis" : "50",
      "Id" : "0688",
      "oid" : "313421899",
      "districtId" : "1",
      "nameZh" : "青山社區",
      "pgp" : "0",
      "terminal" : "0",
      "latitude" : "24.18815",
      "inDis" : "50",
      "routeId" : "66",
      "seqNo" : "21"
   },
   {
      "GoBack" : "1",
      "longitude" : "120.74626",
      "outDis" : "70",
      "Id" : "0939",
      "oid" : "3C87526F34F2463B88A983D68A30997F",
      "districtId" : "1",
      "nameZh" : "龜山農場",
      "pgp" : "0",
      "terminal" : "0",
      "latitude" : "24.19021",
      "inDis" : "60",
      "routeId" : "66",
      "seqNo" : "22"
   },
   {
      "GoBack" : "1",
      "longitude" : "120.74716",
      "outDis" : "70",
      "Id" : "0501",
      "oid" : "C01970BDCC0140B28CB82465E3CB1B10",
      "districtId" : "1",
      "nameZh" : "天星大飯店",
      "pgp" : "0",
      "terminal" : "0",
      "latitude" : "24.19292",
      "inDis" : "60",
      "routeId" : "66",
      "seqNo" : "23"
   },
   {
      "GoBack" : "1",
      "longitude" : "120.74755",
      "outDis" : "70",
      "Id" : "0839",
      "oid" : "81E637F39A374D4797D3DB5F987FADE4",
      "districtId" : "1",
      "nameZh" : "貴城山莊",
      "pgp" : "0",
      "terminal" : "0",
      "latitude" : "24.19392",
      "inDis" : "60",
      "routeId" : "66",
      "seqNo" : "24"
   },
   {
      "GoBack" : "1",
      "longitude" : "120.74754",
      "outDis" : "50",
      "Id" : "5085",
      "oid" : "5678",
      "districtId" : "1",
      "nameZh" : "大坑國小",
      "pgp" : "0",
      "terminal" : "0",
      "latitude" : "24.19584",
      "inDis" : "50",
      "routeId" : "66",
      "seqNo" : "25"
   },
   {
      "GoBack" : "1",
      "longitude" : "120.75035",
      "outDis" : "50",
      "Id" : "4526",
      "oid" : "305531050",
      "districtId" : "1",
      "nameZh" : "普陀精舍",
      "pgp" : "0",
      "terminal" : "0",
      "latitude" : "24.19831",
      "inDis" : "50",
      "routeId" : "66",
      "seqNo" : "26"
   },
   {
      "GoBack" : "1",
      "longitude" : "120.75266",
      "outDis" : "70",
      "Id" : "0964",
      "oid" : "B16868A88BE246DF9D30C3DEE38B4088",
      "districtId" : "1",
      "nameZh" : "觀光果園",
      "pgp" : "0",
      "terminal" : "0",
      "latitude" : "24.19906",
      "inDis" : "60",
      "routeId" : "66",
      "seqNo" : "27"
   },
   {
      "GoBack" : "1",
      "longitude" : "120.7562",
      "outDis" : "70",
      "Id" : "0897",
      "oid" : "60CEA9DD9A8D484FA3D7C660219B9495",
      "districtId" : "1",
      "nameZh" : "福慧寺",
      "pgp" : "0",
      "terminal" : "0",
      "latitude" : "24.19984",
      "inDis" : "60",
      "routeId" : "66",
      "seqNo" : "28"
   },
   {
      "GoBack" : "1",
      "longitude" : "120.76067",
      "outDis" : "70",
      "Id" : "2849",
      "oid" : "3707BAA3DD3B47EBA53154C0C0DFEA85",
      "districtId" : "1",
      "nameZh" : "荔園",
      "pgp" : "0",
      "terminal" : "0",
      "latitude" : "24.19977",
      "inDis" : "60",
      "routeId" : "66",
      "seqNo" : "29"
   },
   {
      "GoBack" : "1",
      "longitude" : "120.76311",
      "outDis" : "70",
      "Id" : "0651",
      "oid" : "D62F938FCA2A4DB092AE0901A02D3707",
      "districtId" : "1",
      "nameZh" : "東山樂園",
      "pgp" : "0",
      "terminal" : "0",
      "latitude" : "24.19927",
      "inDis" : "60",
      "routeId" : "66",
      "seqNo" : "30"
   },
   {
      "GoBack" : "1",
      "longitude" : "120.76602",
      "outDis" : "50",
      "Id" : "5510",
      "oid" : "4A03173F918D4A9FB054C8A776712B28",
      "districtId" : "1",
      "nameZh" : "復興橋",
      "pgp" : "0",
      "terminal" : "0",
      "latitude" : "24.19861",
      "inDis" : "50",
      "routeId" : "66",
      "seqNo" : "31"
   },
   {
      "GoBack" : "1",
      "longitude" : "120.76704",
      "outDis" : "70",
      "Id" : "0323",
      "oid" : "73B42B8C96664F36B4EE7ACE03FFB6BF",
      "districtId" : "1",
      "nameZh" : "三角埔",
      "pgp" : "0",
      "terminal" : "0",
      "latitude" : "24.1983",
      "inDis" : "60",
      "routeId" : "66",
      "seqNo" : "32"
   },
   {
      "GoBack" : "1",
      "longitude" : "120.77575",
      "outDis" : "70",
      "Id" : "0560",
      "oid" : "7E60B8961A3E4130B5B9184C2A97F2FA",
      "districtId" : "1",
      "nameZh" : "民德橋",
      "pgp" : "0",
      "terminal" : "0",
      "latitude" : "24.19865",
      "inDis" : "60",
      "routeId" : "66",
      "seqNo" : "33"
   },
   {
      "GoBack" : "1",
      "longitude" : "120.77809",
      "outDis" : "70",
      "Id" : "5614",
      "oid" : "1562D12F09064C16B6BA35298D894D11",
      "districtId" : "1",
      "nameZh" : "雙連坪",
      "pgp" : "0",
      "terminal" : "0",
      "latitude" : "24.19885",
      "inDis" : "60",
      "routeId" : "66",
      "seqNo" : "34"
   },
   {
      "GoBack" : "1",
      "longitude" : "120.78378",
      "outDis" : "70",
      "Id" : "0979",
      "oid" : "BBBF318B5E7F42B6BB1E10F97420EE29",
      "districtId" : "1",
      "nameZh" : "一號登山步道口(體訓場)",
      "pgp" : "0",
      "terminal" : "0",
      "latitude" : "24.19064",
      "inDis" : "60",
      "routeId" : "66",
      "seqNo" : "37"
   },
   {
      "GoBack" : "1",
      "longitude" : "120.7857",
      "outDis" : "70",
      "Id" : "1012",
      "oid" : "384EC77FCFAC4579B51575A58CBCA423",
      "districtId" : "1",
      "nameZh" : "二號登山步道口",
      "pgp" : "0",
      "terminal" : "0",
      "latitude" : "24.18412",
      "inDis" : "60",
      "routeId" : "66",
      "seqNo" : "38"
   },
   {
      "GoBack" : "1",
      "longitude" : "120.78497",
      "outDis" : "70",
      "Id" : "1100",
      "oid" : "6091D4A71BD6462790D247E96F53C1D8",
      "districtId" : "1",
      "nameZh" : "三號登山步道口",
      "pgp" : "0",
      "terminal" : "0",
      "latitude" : "24.17979",
      "inDis" : "60",
      "routeId" : "66",
      "seqNo" : "39"
   },
   {
      "GoBack" : "1",
      "longitude" : "120.78266",
      "outDis" : "70",
      "Id" : "3510",
      "oid" : "9A3951E017B14009AF029AFEFB6B314A",
      "districtId" : "1",
      "nameZh" : "聖母堂停車場",
      "pgp" : "0",
      "terminal" : "0",
      "latitude" : "24.17893",
      "inDis" : "60",
      "routeId" : "66",
      "seqNo" : "40"
   },
   {
      "GoBack" : "1",
      "longitude" : "120.78343",
      "outDis" : "70",
      "Id" : "1442",
      "oid" : "DB8B9FED239E43F6A42D8BEDF0CD7FCC",
      "districtId" : "1",
      "nameZh" : "中正露營區",
      "pgp" : "0",
      "terminal" : "0",
      "latitude" : "24.17619",
      "inDis" : "60",
      "routeId" : "66",
      "seqNo" : "41"
   },
   {
      "GoBack" : "1",
      "longitude" : "120.7734",
      "outDis" : "70",
      "Id" : "0996",
      "oid" : "5EDBB478424946DAB771E37340741CB8",
      "districtId" : "1",
      "nameZh" : "九華山苦行林",
      "pgp" : "0",
      "terminal" : "0",
      "latitude" : "24.17966",
      "inDis" : "60",
      "routeId" : "66",
      "seqNo" : "42"
   },
   {
      "GoBack" : "1",
      "longitude" : "120.7687",
      "outDis" : "70",
      "Id" : "2553",
      "oid" : "1488C65CE0D040EEBA3C66435B1FB27E",
      "districtId" : "1",
      "nameZh" : "保安橋(武廟育化堂)",
      "pgp" : "0",
      "terminal" : "0",
      "latitude" : "24.17857",
      "inDis" : "60",
      "routeId" : "66",
      "seqNo" : "43"
   },
   {
      "GoBack" : "1",
      "longitude" : "120.76428",
      "outDis" : "70",
      "Id" : "3318",
      "oid" : "41E8681DBC9A48DB8C958F83C0CE8FBC",
      "districtId" : "1",
      "nameZh" : "順豐窯",
      "pgp" : "0",
      "terminal" : "0",
      "latitude" : "24.17913",
      "inDis" : "60",
      "routeId" : "66",
      "seqNo" : "44"
   },
   {
      "GoBack" : "1",
      "longitude" : "120.76179",
      "outDis" : "70",
      "Id" : "2065",
      "oid" : "BF77DC6882BC483FAA4645B68417A1B1",
      "districtId" : "1",
      "nameZh" : "同仁堂互動館",
      "pgp" : "0",
      "terminal" : "0",
      "latitude" : "24.17859",
      "inDis" : "60",
      "routeId" : "66",
      "seqNo" : "45"
   },
   {
      "GoBack" : "1",
      "longitude" : "120.75879",
      "outDis" : "70",
      "Id" : "3379",
      "oid" : "0D7D23DB776C435E84878FBEEFC9F8F8",
      "districtId" : "1",
      "nameZh" : "新民高中活動中心",
      "pgp" : "0",
      "terminal" : "0",
      "latitude" : "24.17922",
      "inDis" : "60",
      "routeId" : "66",
      "seqNo" : "46"
   },
   {
      "GoBack" : "1",
      "longitude" : "120.75683",
      "outDis" : "70",
      "Id" : "0627",
      "oid" : "CB6D74035029417BB90B90CA552633D5",
      "districtId" : "1",
      "nameZh" : "亞哥花園",
      "pgp" : "0",
      "terminal" : "0",
      "latitude" : "24.17528",
      "inDis" : "60",
      "routeId" : "66",
      "seqNo" : "47"
   },
   {
      "GoBack" : "1",
      "longitude" : "120.7501",
      "outDis" : "70",
      "Id" : "0347",
      "oid" : "41D3596D1EF14896B941574DFBFD655B",
      "districtId" : "1",
      "nameZh" : "土地公廟",
      "pgp" : "0",
      "terminal" : "0",
      "latitude" : "24.17915",
      "inDis" : "60",
      "routeId" : "66",
      "seqNo" : "48"
   },
   {
      "GoBack" : "1",
      "longitude" : "120.74571",
      "outDis" : "70",
      "Id" : "0837",
      "oid" : "DC574032F5F147F1B096D2F7557EA6E7",
      "districtId" : "1",
      "nameZh" : "華陽山莊(霞客溫泉)",
      "pgp" : "0",
      "terminal" : "0",
      "latitude" : "24.1784",
      "inDis" : "60",
      "routeId" : "66",
      "seqNo" : "49"
   },
   {
      "GoBack" : "1",
      "longitude" : "120.74336",
      "outDis" : "70",
      "Id" : "0586",
      "oid" : "BEB4075DE8424268A40322B714B56CCE",
      "districtId" : "1",
      "nameZh" : "光政橋",
      "pgp" : "0",
      "terminal" : "0",
      "latitude" : "24.17672",
      "inDis" : "60",
      "routeId" : "66",
      "seqNo" : "50"
   },
   {
      "GoBack" : "1",
      "longitude" : "120.74136",
      "outDis" : "70",
      "Id" : "3041",
      "oid" : "E56B59C56A5F4E739881A432C7BFFFDA",
      "districtId" : "1",
      "nameZh" : "祥龍橋",
      "pgp" : "0",
      "terminal" : "0",
      "latitude" : "24.17817",
      "inDis" : "60",
      "routeId" : "66",
      "seqNo" : "51"
   },
   {
      "GoBack" : "1",
      "longitude" : "120.74019",
      "outDis" : "80",
      "Id" : "0350",
      "oid" : "7A67A9553CA44BD3B7D29D7F74022DF4",
      "districtId" : "1",
      "nameZh" : "大坑圓環",
      "pgp" : "0",
      "terminal" : "0",
      "latitude" : "24.17902",
      "inDis" : "30",
      "routeId" : "66",
      "seqNo" : "52"
   },
   {
      "GoBack" : "1",
      "longitude" : "120.73728",
      "outDis" : "80",
      "Id" : "0784",
      "oid" : "D0E7C5377E9243B397A03D832D3CB2F4",
      "districtId" : "1",
      "nameZh" : "逢甲橋",
      "pgp" : "0",
      "terminal" : "0",
      "latitude" : "24.17842",
      "inDis" : "30",
      "routeId" : "66",
      "seqNo" : "53"
   },
   {
      "GoBack" : "1",
      "longitude" : "120.73603",
      "outDis" : "80",
      "Id" : "0768",
      "oid" : "FAA05D6110F54FD48E9EAF46E7801D7B",
      "districtId" : "1",
      "nameZh" : "梨仔園",
      "pgp" : "0",
      "terminal" : "0",
      "latitude" : "24.17786",
      "inDis" : "30",
      "routeId" : "66",
      "seqNo" : "54"
   },
   {
      "GoBack" : "1",
      "longitude" : "120.73475",
      "outDis" : "80",
      "Id" : "0534",
      "oid" : "B7ED57A445204EAB91D095D9E99A2293",
      "districtId" : "1",
      "nameZh" : "台電東山所",
      "pgp" : "0",
      "terminal" : "0",
      "latitude" : "24.17716",
      "inDis" : "30",
      "routeId" : "66",
      "seqNo" : "55"
   },
   {
      "GoBack" : "1",
      "longitude" : "120.73201",
      "outDis" : "80",
      "Id" : "0854",
      "oid" : "53481E6C23574AC3B22120E846E4859F",
      "districtId" : "1",
      "nameZh" : "圓山新村",
      "pgp" : "0",
      "terminal" : "0",
      "latitude" : "24.17702",
      "inDis" : "30",
      "routeId" : "66",
      "seqNo" : "56"
   },
   {
      "GoBack" : "1",
      "longitude" : "120.72737",
      "outDis" : "80",
      "Id" : "0555",
      "oid" : "DC88850022F444628FC35A67DA65D2AB",
      "districtId" : "1",
      "nameZh" : "正覺寺",
      "pgp" : "0",
      "terminal" : "0",
      "latitude" : "24.17651",
      "inDis" : "30",
      "routeId" : "66",
      "seqNo" : "57"
   },
   {
      "GoBack" : "1",
      "longitude" : "120.72452",
      "outDis" : "80",
      "Id" : "0687",
      "oid" : "00FEC32B10604E8F941D034EA82678EA",
      "districtId" : "1",
      "nameZh" : "長興塑膠",
      "pgp" : "0",
      "terminal" : "0",
      "latitude" : "24.17614",
      "inDis" : "30",
      "routeId" : "66",
      "seqNo" : "58"
   },
   {
      "GoBack" : "1",
      "longitude" : "120.72222",
      "outDis" : "80",
      "Id" : "4592",
      "oid" : "0925361A842C4B0A823EC81894D4CFD3",
      "districtId" : "1",
      "nameZh" : "和平里(東山路)",
      "pgp" : "0",
      "terminal" : "0",
      "latitude" : "24.17606",
      "inDis" : "30",
      "routeId" : "66",
      "seqNo" : "59"
   },
   {
      "GoBack" : "1",
      "longitude" : "120.71995",
      "outDis" : "80",
      "Id" : "0727",
      "oid" : "F46C4AEAD9F0457DAB6BA0CC3D541DE2",
      "districtId" : "1",
      "nameZh" : "軍功里",
      "pgp" : "0",
      "terminal" : "0",
      "latitude" : "24.17594",
      "inDis" : "30",
      "routeId" : "66",
      "seqNo" : "60"
   },
   {
      "GoBack" : "1",
      "longitude" : "120.71928",
      "outDis" : "80",
      "Id" : "2723",
      "oid" : "BC3C7B07E292463993C35CBDF729D902",
      "districtId" : "1",
      "nameZh" : "軍功農會",
      "pgp" : "0",
      "terminal" : "0",
      "latitude" : "24.17713",
      "inDis" : "30",
      "routeId" : "66",
      "seqNo" : "61"
   },
   {
      "GoBack" : "1",
      "longitude" : "120.71959",
      "outDis" : "80",
      "Id" : "2631",
      "oid" : "7828906847C74D6E9010751716E43189",
      "districtId" : "1",
      "nameZh" : "建功橋頭",
      "pgp" : "0",
      "terminal" : "0",
      "latitude" : "24.17975",
      "inDis" : "30",
      "routeId" : "66",
      "seqNo" : "62"
   },
   {
      "GoBack" : "1",
      "longitude" : "120.71934",
      "outDis" : "80",
      "Id" : "0729",
      "oid" : "18383732",
      "districtId" : "1",
      "nameZh" : "軍功松竹路口",
      "pgp" : "0",
      "terminal" : "0",
      "latitude" : "24.18293",
      "inDis" : "30",
      "routeId" : "66",
      "seqNo" : "63"
   },
   {
      "GoBack" : "1",
      "longitude" : "120.71879",
      "outDis" : "80",
      "Id" : "1552",
      "oid" : "18383733",
      "districtId" : "1",
      "nameZh" : "仁愛之家",
      "pgp" : "0",
      "terminal" : "0",
      "latitude" : "24.18571",
      "inDis" : "30",
      "routeId" : "66",
      "seqNo" : "64"
   },
   {
      "GoBack" : "1",
      "longitude" : "120.7184",
      "outDis" : "80",
      "Id" : "2078",
      "oid" : "18383734",
      "districtId" : "1",
      "nameZh" : "名人球場",
      "pgp" : "0",
      "terminal" : "0",
      "latitude" : "24.18816",
      "inDis" : "30",
      "routeId" : "66",
      "seqNo" : "65"
   },
   {
      "GoBack" : "1",
      "longitude" : "120.71811",
      "outDis" : "80",
      "Id" : "3513",
      "oid" : "18383738",
      "districtId" : "1",
      "nameZh" : "聖興站",
      "pgp" : "0",
      "terminal" : "0",
      "latitude" : "24.19143",
      "inDis" : "30",
      "routeId" : "66",
      "seqNo" : "66"
   },
   {
      "GoBack" : "1",
      "longitude" : "120.71929",
      "outDis" : "50",
      "Id" : "4976",
      "oid" : "311497496",
      "districtId" : "1",
      "nameZh" : "慈濟中醫院",
      "pgp" : "0",
      "terminal" : "0",
      "latitude" : "24.19285",
      "inDis" : "30",
      "routeId" : "66",
      "seqNo" : "67"
   },
   {
      "GoBack" : "1",
      "longitude" : "120.72097",
      "outDis" : "60",
      "Id" : "3359",
      "oid" : "309256355",
      "districtId" : "1",
      "nameZh" : "慈濟醫院",
      "pgp" : "0",
      "terminal" : "0",
      "latitude" : "24.19567",
      "inDis" : "20",
      "routeId" : "66",
      "seqNo" : "68"
   },
   {
      "GoBack" : "2",
      "longitude" : "120.72108",
      "outDis" : "60",
      "Id" : "3359",
      "oid" : "309256356",
      "districtId" : "1",
      "nameZh" : "慈濟醫院",
      "pgp" : "0",
      "terminal" : "0",
      "latitude" : "24.19577",
      "inDis" : "40",
      "routeId" : "66",
      "seqNo" : "1"
   },
   {
      "GoBack" : "2",
      "longitude" : "120.71929",
      "outDis" : "50",
      "Id" : "4976",
      "oid" : "311497495",
      "districtId" : "1",
      "nameZh" : "慈濟中醫院",
      "pgp" : "0",
      "terminal" : "0",
      "latitude" : "24.19299",
      "inDis" : "30",
      "routeId" : "66",
      "seqNo" : "2"
   },
   {
      "GoBack" : "2",
      "longitude" : "120.71826",
      "outDis" : "80",
      "Id" : "3513",
      "oid" : "18383735",
      "districtId" : "1",
      "nameZh" : "聖興站",
      "pgp" : "0",
      "terminal" : "0",
      "latitude" : "24.1915",
      "inDis" : "50",
      "routeId" : "66",
      "seqNo" : "3"
   },
   {
      "GoBack" : "2",
      "longitude" : "120.71822",
      "outDis" : "80",
      "Id" : "2078",
      "oid" : "18383739",
      "districtId" : "1",
      "nameZh" : "名人球場",
      "pgp" : "0",
      "terminal" : "0",
      "latitude" : "24.1883",
      "inDis" : "50",
      "routeId" : "66",
      "seqNo" : "4"
   },
   {
      "GoBack" : "2",
      "longitude" : "120.71871",
      "outDis" : "80",
      "Id" : "1552",
      "oid" : "18383740",
      "districtId" : "1",
      "nameZh" : "仁愛之家",
      "pgp" : "0",
      "terminal" : "0",
      "latitude" : "24.18586",
      "inDis" : "50",
      "routeId" : "66",
      "seqNo" : "5"
   },
   {
      "GoBack" : "2",
      "longitude" : "120.71926",
      "outDis" : "80",
      "Id" : "0729",
      "oid" : "18383741",
      "districtId" : "1",
      "nameZh" : "軍功松竹路口",
      "pgp" : "0",
      "terminal" : "0",
      "latitude" : "24.18306",
      "inDis" : "50",
      "routeId" : "66",
      "seqNo" : "6"
   },
   {
      "GoBack" : "2",
      "longitude" : "120.71968",
      "outDis" : "80",
      "Id" : "2631",
      "oid" : "8F2888792AA24CF595E9D627CBDD0615",
      "districtId" : "1",
      "nameZh" : "建功橋頭",
      "pgp" : "0",
      "terminal" : "0",
      "latitude" : "24.17988",
      "inDis" : "50",
      "routeId" : "66",
      "seqNo" : "7"
   },
   {
      "GoBack" : "2",
      "longitude" : "120.71935",
      "outDis" : "80",
      "Id" : "2723",
      "oid" : "1231D4FD99824DA49C314A4A979CA80C",
      "districtId" : "1",
      "nameZh" : "軍功農會",
      "pgp" : "0",
      "terminal" : "0",
      "latitude" : "24.17728",
      "inDis" : "50",
      "routeId" : "66",
      "seqNo" : "8"
   },
   {
      "GoBack" : "2",
      "longitude" : "120.71975",
      "outDis" : "80",
      "Id" : "0727",
      "oid" : "C25B0BE6A8B0444BBA34EFE9F31ADF1F",
      "districtId" : "1",
      "nameZh" : "軍功里",
      "pgp" : "0",
      "terminal" : "0",
      "latitude" : "24.17591",
      "inDis" : "50",
      "routeId" : "66",
      "seqNo" : "9"
   },
   {
      "GoBack" : "2",
      "longitude" : "120.72206",
      "outDis" : "80",
      "Id" : "4592",
      "oid" : "D7C3DCEDE2694C808193199453153C8F",
      "districtId" : "1",
      "nameZh" : "和平里(東山路)",
      "pgp" : "0",
      "terminal" : "0",
      "latitude" : "24.17601",
      "inDis" : "50",
      "routeId" : "66",
      "seqNo" : "10"
   },
   {
      "GoBack" : "2",
      "longitude" : "120.72436",
      "outDis" : "80",
      "Id" : "0687",
      "oid" : "3959BAD3D4B843F6BA998264EA65A6CA",
      "districtId" : "1",
      "nameZh" : "長興塑膠",
      "pgp" : "0",
      "terminal" : "0",
      "latitude" : "24.17618",
      "inDis" : "50",
      "routeId" : "66",
      "seqNo" : "11"
   },
   {
      "GoBack" : "2",
      "longitude" : "120.72721",
      "outDis" : "80",
      "Id" : "0555",
      "oid" : "4A9F9F066C5C43D4A037C2F3FF0146C4",
      "districtId" : "1",
      "nameZh" : "正覺寺",
      "pgp" : "0",
      "terminal" : "0",
      "latitude" : "24.1765",
      "inDis" : "50",
      "routeId" : "66",
      "seqNo" : "12"
   },
   {
      "GoBack" : "2",
      "longitude" : "120.73186",
      "outDis" : "80",
      "Id" : "0854",
      "oid" : "55760E049AD24CCFBBC8478639895C3C",
      "districtId" : "1",
      "nameZh" : "圓山新村",
      "pgp" : "0",
      "terminal" : "0",
      "latitude" : "24.17701",
      "inDis" : "50",
      "routeId" : "66",
      "seqNo" : "13"
   },
   {
      "GoBack" : "2",
      "longitude" : "120.73459",
      "outDis" : "80",
      "Id" : "0534",
      "oid" : "B24D5ED8C2D047748449DA6329B4794E",
      "districtId" : "1",
      "nameZh" : "台電東山所",
      "pgp" : "0",
      "terminal" : "0",
      "latitude" : "24.17708",
      "inDis" : "50",
      "routeId" : "66",
      "seqNo" : "14"
   },
   {
      "GoBack" : "2",
      "longitude" : "120.73566",
      "outDis" : "80",
      "Id" : "0768",
      "oid" : "7A15D79CD36141A1A88A1EAB8495B304",
      "districtId" : "1",
      "nameZh" : "梨仔園",
      "pgp" : "0",
      "terminal" : "0",
      "latitude" : "24.17762",
      "inDis" : "50",
      "routeId" : "66",
      "seqNo" : "15"
   },
   {
      "GoBack" : "2",
      "longitude" : "120.73706",
      "outDis" : "80",
      "Id" : "0784",
      "oid" : "F8B3D02E73E940E28F88323D157F45F2",
      "districtId" : "1",
      "nameZh" : "逢甲橋",
      "pgp" : "0",
      "terminal" : "0",
      "latitude" : "24.1784",
      "inDis" : "50",
      "routeId" : "66",
      "seqNo" : "16"
   },
   {
      "GoBack" : "2",
      "longitude" : "120.74013",
      "outDis" : "80",
      "Id" : "0350",
      "oid" : "CEC5FC212B054810B4431F45AF6B7166",
      "districtId" : "1",
      "nameZh" : "大坑圓環",
      "pgp" : "0",
      "terminal" : "0",
      "latitude" : "24.17903",
      "inDis" : "50",
      "routeId" : "66",
      "seqNo" : "17"
   },
   {
      "GoBack" : "2",
      "longitude" : "120.74228",
      "outDis" : "65",
      "Id" : "0434",
      "oid" : "8116E1DFAD274F44825CE92F6E14BACB",
      "districtId" : "1",
      "nameZh" : "中興巷",
      "pgp" : "0",
      "terminal" : "0",
      "latitude" : "24.17981",
      "inDis" : "40",
      "routeId" : "66",
      "seqNo" : "18"
   },
   {
      "GoBack" : "2",
      "longitude" : "120.74143",
      "outDis" : "75",
      "Id" : "3041",
      "oid" : "0F65465F01E1452888D277B3B249CDDD",
      "districtId" : "1",
      "nameZh" : "祥龍橋",
      "pgp" : "0",
      "terminal" : "0",
      "latitude" : "24.17818",
      "inDis" : "60",
      "routeId" : "66",
      "seqNo" : "19"
   },
   {
      "GoBack" : "2",
      "longitude" : "120.7434",
      "outDis" : "75",
      "Id" : "0586",
      "oid" : "E002339F0DD143A0835BED86788EFD8E",
      "districtId" : "1",
      "nameZh" : "光政橋",
      "pgp" : "0",
      "terminal" : "0",
      "latitude" : "24.1767",
      "inDis" : "60",
      "routeId" : "66",
      "seqNo" : "20"
   },
   {
      "GoBack" : "2",
      "longitude" : "120.74569",
      "outDis" : "75",
      "Id" : "0837",
      "oid" : "4221BF5FA8E54E8DB272A6353EF7DB56",
      "districtId" : "1",
      "nameZh" : "華陽山莊(霞客溫泉)",
      "pgp" : "0",
      "terminal" : "0",
      "latitude" : "24.17829",
      "inDis" : "60",
      "routeId" : "66",
      "seqNo" : "21"
   },
   {
      "GoBack" : "2",
      "longitude" : "120.75009",
      "outDis" : "75",
      "Id" : "0347",
      "oid" : "FE0E34E1C9324610A479DA4592DF5004",
      "districtId" : "1",
      "nameZh" : "土地公廟",
      "pgp" : "0",
      "terminal" : "0",
      "latitude" : "24.17907",
      "inDis" : "60",
      "routeId" : "66",
      "seqNo" : "22"
   },
   {
      "GoBack" : "2",
      "longitude" : "120.75682",
      "outDis" : "75",
      "Id" : "0627",
      "oid" : "8B243AE272ED4136A3CC45EF91F9BDB2",
      "districtId" : "1",
      "nameZh" : "亞哥花園",
      "pgp" : "0",
      "terminal" : "0",
      "latitude" : "24.17525",
      "inDis" : "60",
      "routeId" : "66",
      "seqNo" : "23"
   },
   {
      "GoBack" : "2",
      "longitude" : "120.75899",
      "outDis" : "75",
      "Id" : "3379",
      "oid" : "3D1B2A84F2574C5F877D94426FDC27CD",
      "districtId" : "1",
      "nameZh" : "新民高中活動中心",
      "pgp" : "0",
      "terminal" : "0",
      "latitude" : "24.17906",
      "inDis" : "60",
      "routeId" : "66",
      "seqNo" : "24"
   },
   {
      "GoBack" : "2",
      "longitude" : "120.76177",
      "outDis" : "75",
      "Id" : "2065",
      "oid" : "AFE030F1BAA94EA584F467B6CE59AE5E",
      "districtId" : "1",
      "nameZh" : "同仁堂互動館",
      "pgp" : "0",
      "terminal" : "0",
      "latitude" : "24.17856",
      "inDis" : "60",
      "routeId" : "66",
      "seqNo" : "25"
   },
   {
      "GoBack" : "2",
      "longitude" : "120.76454",
      "outDis" : "75",
      "Id" : "3318",
      "oid" : "7D178642585F4C6FAD8DC211DFB6C02A",
      "districtId" : "1",
      "nameZh" : "順豐窯",
      "pgp" : "0",
      "terminal" : "0",
      "latitude" : "24.17918",
      "inDis" : "60",
      "routeId" : "66",
      "seqNo" : "26"
   },
   {
      "GoBack" : "2",
      "longitude" : "120.76872",
      "outDis" : "75",
      "Id" : "2553",
      "oid" : "4D15276661D2455FA6107B49262A3A7C",
      "districtId" : "1",
      "nameZh" : "保安橋(武廟育化堂)",
      "pgp" : "0",
      "terminal" : "0",
      "latitude" : "24.17852",
      "inDis" : "60",
      "routeId" : "66",
      "seqNo" : "27"
   },
   {
      "GoBack" : "2",
      "longitude" : "120.77343",
      "outDis" : "75",
      "Id" : "0996",
      "oid" : "A09F61E0CB5C4B95B0767FB2F5CFF85C",
      "districtId" : "1",
      "nameZh" : "九華山苦行林",
      "pgp" : "0",
      "terminal" : "0",
      "latitude" : "24.17959",
      "inDis" : "60",
      "routeId" : "66",
      "seqNo" : "28"
   },
   {
      "GoBack" : "2",
      "longitude" : "120.78349",
      "outDis" : "75",
      "Id" : "1442",
      "oid" : "3AA3C38EDD2A42E9B69FD58FE3295B9E",
      "districtId" : "1",
      "nameZh" : "中正露營區",
      "pgp" : "0",
      "terminal" : "0",
      "latitude" : "24.1761",
      "inDis" : "60",
      "routeId" : "66",
      "seqNo" : "29"
   },
   {
      "GoBack" : "2",
      "longitude" : "120.78272",
      "outDis" : "75",
      "Id" : "3510",
      "oid" : "C6E4E4B569214E23BABA384AA963A1D0",
      "districtId" : "1",
      "nameZh" : "聖母堂停車場",
      "pgp" : "0",
      "terminal" : "0",
      "latitude" : "24.17899",
      "inDis" : "60",
      "routeId" : "66",
      "seqNo" : "30"
   },
   {
      "GoBack" : "2",
      "longitude" : "120.78502",
      "outDis" : "75",
      "Id" : "1100",
      "oid" : "3AA029277C984F32A4C5D7D9C6A2B815",
      "districtId" : "1",
      "nameZh" : "三號登山步道口",
      "pgp" : "0",
      "terminal" : "0",
      "latitude" : "24.17981",
      "inDis" : "60",
      "routeId" : "66",
      "seqNo" : "31"
   },
   {
      "GoBack" : "2",
      "longitude" : "120.78568",
      "outDis" : "75",
      "Id" : "1012",
      "oid" : "38A00B2C84A64892AC2BD14A52AE84E3",
      "districtId" : "1",
      "nameZh" : "二號登山步道口",
      "pgp" : "0",
      "terminal" : "0",
      "latitude" : "24.18435",
      "inDis" : "60",
      "routeId" : "66",
      "seqNo" : "32"
   },
   {
      "GoBack" : "2",
      "longitude" : "120.7841",
      "outDis" : "75",
      "Id" : "0979",
      "oid" : "243E825AB38546CAAEF2098B35DC8CB8",
      "districtId" : "1",
      "nameZh" : "一號登山步道口(體訓場)",
      "pgp" : "0",
      "terminal" : "0",
      "latitude" : "24.19046",
      "inDis" : "60",
      "routeId" : "66",
      "seqNo" : "33"
   },
   {
      "GoBack" : "2",
      "longitude" : "120.77813",
      "outDis" : "75",
      "Id" : "5614",
      "oid" : "EE069E0C0F874B39922EBE99DAD5393F",
      "districtId" : "1",
      "nameZh" : "雙連坪",
      "pgp" : "0",
      "terminal" : "0",
      "latitude" : "24.199",
      "inDis" : "60",
      "routeId" : "66",
      "seqNo" : "36"
   },
   {
      "GoBack" : "2",
      "longitude" : "120.77575",
      "outDis" : "70",
      "Id" : "0560",
      "oid" : "7E60B8961A3E4130B5B9184C2A97F2FA",
      "districtId" : "1",
      "nameZh" : "民德橋",
      "pgp" : "0",
      "terminal" : "0",
      "latitude" : "24.19865",
      "inDis" : "60",
      "routeId" : "66",
      "seqNo" : "37"
   },
   {
      "GoBack" : "2",
      "longitude" : "120.76693",
      "outDis" : "75",
      "Id" : "0323",
      "oid" : "1256C5BD93BD44E8AC544E1DAEDED5A4",
      "districtId" : "1",
      "nameZh" : "三角埔",
      "pgp" : "0",
      "terminal" : "0",
      "latitude" : "24.19834",
      "inDis" : "60",
      "routeId" : "66",
      "seqNo" : "38"
   },
   {
      "GoBack" : "2",
      "longitude" : "120.76677",
      "outDis" : "50",
      "Id" : "5510",
      "oid" : "35289C8EC55E4B88A84E0DE08C0C680C",
      "districtId" : "1",
      "nameZh" : "復興橋",
      "pgp" : "0",
      "terminal" : "0",
      "latitude" : "24.19851",
      "inDis" : "50",
      "routeId" : "66",
      "seqNo" : "39"
   },
   {
      "GoBack" : "2",
      "longitude" : "120.7635",
      "outDis" : "75",
      "Id" : "0651",
      "oid" : "3A0943F9700A4C54ABF70CCCFB860236",
      "districtId" : "1",
      "nameZh" : "東山樂園",
      "pgp" : "0",
      "terminal" : "0",
      "latitude" : "24.19934",
      "inDis" : "60",
      "routeId" : "66",
      "seqNo" : "40"
   },
   {
      "GoBack" : "2",
      "longitude" : "120.76057",
      "outDis" : "75",
      "Id" : "2849",
      "oid" : "1F77D0984F144A32AFB0DCEEFBBB4BE8",
      "districtId" : "1",
      "nameZh" : "荔園",
      "pgp" : "0",
      "terminal" : "0",
      "latitude" : "24.19995",
      "inDis" : "60",
      "routeId" : "66",
      "seqNo" : "41"
   },
   {
      "GoBack" : "2",
      "longitude" : "120.75587",
      "outDis" : "75",
      "Id" : "0897",
      "oid" : "F7AF33718B934E55ABC5602A87EB807C",
      "districtId" : "1",
      "nameZh" : "福慧寺",
      "pgp" : "0",
      "terminal" : "0",
      "latitude" : "24.20001",
      "inDis" : "60",
      "routeId" : "66",
      "seqNo" : "42"
   },
   {
      "GoBack" : "2",
      "longitude" : "120.75288",
      "outDis" : "75",
      "Id" : "0964",
      "oid" : "9EEC9B3C40204D948892239D4ECC101A",
      "districtId" : "1",
      "nameZh" : "觀光果園",
      "pgp" : "0",
      "terminal" : "0",
      "latitude" : "24.19925",
      "inDis" : "60",
      "routeId" : "66",
      "seqNo" : "43"
   },
   {
      "GoBack" : "2",
      "longitude" : "120.75113",
      "outDis" : "50",
      "Id" : "4526",
      "oid" : "305532001",
      "districtId" : "1",
      "nameZh" : "普陀精舍",
      "pgp" : "0",
      "terminal" : "0",
      "latitude" : "24.19857",
      "inDis" : "50",
      "routeId" : "66",
      "seqNo" : "44"
   },
   {
      "GoBack" : "2",
      "longitude" : "120.74754",
      "outDis" : "50",
      "Id" : "5085",
      "oid" : "5678",
      "districtId" : "1",
      "nameZh" : "大坑國小",
      "pgp" : "0",
      "terminal" : "0",
      "latitude" : "24.19584",
      "inDis" : "50",
      "routeId" : "66",
      "seqNo" : "45"
   },
   {
      "GoBack" : "2",
      "longitude" : "120.74749",
      "outDis" : "75",
      "Id" : "0839",
      "oid" : "BEE0DD7F87B9454BB1273C66CFA4B943",
      "districtId" : "1",
      "nameZh" : "貴城山莊",
      "pgp" : "0",
      "terminal" : "0",
      "latitude" : "24.19412",
      "inDis" : "60",
      "routeId" : "66",
      "seqNo" : "46"
   },
   {
      "GoBack" : "2",
      "longitude" : "120.74706",
      "outDis" : "75",
      "Id" : "0501",
      "oid" : "A029699B33364275919902E79C479A91",
      "districtId" : "1",
      "nameZh" : "天星大飯店",
      "pgp" : "0",
      "terminal" : "0",
      "latitude" : "24.19272",
      "inDis" : "60",
      "routeId" : "66",
      "seqNo" : "47"
   },
   {
      "GoBack" : "2",
      "longitude" : "120.74614",
      "outDis" : "75",
      "Id" : "0939",
      "oid" : "744CE1DA409346F88A6A28DCAC61239B",
      "districtId" : "1",
      "nameZh" : "龜山農場",
      "pgp" : "0",
      "terminal" : "0",
      "latitude" : "24.18998",
      "inDis" : "60",
      "routeId" : "66",
      "seqNo" : "48"
   },
   {
      "GoBack" : "2",
      "longitude" : "120.74489",
      "outDis" : "50",
      "Id" : "0688",
      "oid" : "313421900",
      "districtId" : "1",
      "nameZh" : "青山社區",
      "pgp" : "0",
      "terminal" : "0",
      "latitude" : "24.1879",
      "inDis" : "50",
      "routeId" : "66",
      "seqNo" : "49"
   },
   {
      "GoBack" : "2",
      "longitude" : "120.74426",
      "outDis" : "75",
      "Id" : "0770",
      "oid" : "F7393B86F5014B9F80C762A51BE8B6A8",
      "districtId" : "1",
      "nameZh" : "清水橋",
      "pgp" : "0",
      "terminal" : "0",
      "latitude" : "24.18673",
      "inDis" : "60",
      "routeId" : "66",
      "seqNo" : "50"
   },
   {
      "GoBack" : "2",
      "longitude" : "120.74352",
      "outDis" : "75",
      "Id" : "0871",
      "oid" : "BAD8D68D66E9496FA3E41FBD05D78AA1",
      "districtId" : "1",
      "nameZh" : "聖壽宮",
      "pgp" : "0",
      "terminal" : "1",
      "latitude" : "24.18366",
      "inDis" : "60",
      "routeId" : "66",
      "seqNo" : "51"
   },
   {
      "GoBack" : "2",
      "longitude" : "120.74021",
      "outDis" : "80",
      "Id" : "0350",
      "oid" : "51210842",
      "districtId" : "1",
      "nameZh" : "大坑圓環",
      "pgp" : "0",
      "terminal" : "0",
      "latitude" : "24.17917",
      "inDis" : "30",
      "routeId" : "66",
      "seqNo" : "52"
   },
   {
      "GoBack" : "2",
      "longitude" : "120.73723",
      "outDis" : "80",
      "Id" : "0784",
      "oid" : "51210840",
      "districtId" : "1",
      "nameZh" : "逢甲橋",
      "pgp" : "0",
      "terminal" : "0",
      "latitude" : "24.17842",
      "inDis" : "30",
      "routeId" : "66",
      "seqNo" : "53"
   },
   {
      "GoBack" : "2",
      "longitude" : "120.73573",
      "outDis" : "80",
      "Id" : "0768",
      "oid" : "51210836",
      "districtId" : "1",
      "nameZh" : "梨仔園",
      "pgp" : "0",
      "terminal" : "0",
      "latitude" : "24.17774",
      "inDis" : "30",
      "routeId" : "66",
      "seqNo" : "54"
   },
   {
      "GoBack" : "2",
      "longitude" : "120.73471",
      "outDis" : "80",
      "Id" : "0534",
      "oid" : "51210838",
      "districtId" : "1",
      "nameZh" : "台電東山所",
      "pgp" : "0",
      "terminal" : "0",
      "latitude" : "24.17719",
      "inDis" : "30",
      "routeId" : "66",
      "seqNo" : "55"
   },
   {
      "GoBack" : "2",
      "longitude" : "120.73201",
      "outDis" : "80",
      "Id" : "0854",
      "oid" : "53481E6C23574AC3B22120E846E4859F",
      "districtId" : "1",
      "nameZh" : "圓山新村",
      "pgp" : "0",
      "terminal" : "0",
      "latitude" : "24.17702",
      "inDis" : "30",
      "routeId" : "66",
      "seqNo" : "56"
   },
   {
      "GoBack" : "2",
      "longitude" : "120.72737",
      "outDis" : "80",
      "Id" : "0555",
      "oid" : "DC88850022F444628FC35A67DA65D2AB",
      "districtId" : "1",
      "nameZh" : "正覺寺",
      "pgp" : "0",
      "terminal" : "0",
      "latitude" : "24.17651",
      "inDis" : "30",
      "routeId" : "66",
      "seqNo" : "57"
   },
   {
      "GoBack" : "2",
      "longitude" : "120.72452",
      "outDis" : "80",
      "Id" : "0687",
      "oid" : "00FEC32B10604E8F941D034EA82678EA",
      "districtId" : "1",
      "nameZh" : "長興塑膠",
      "pgp" : "0",
      "terminal" : "0",
      "latitude" : "24.17614",
      "inDis" : "30",
      "routeId" : "66",
      "seqNo" : "58"
   },
   {
      "GoBack" : "2",
      "longitude" : "120.72222",
      "outDis" : "80",
      "Id" : "4592",
      "oid" : "0925361A842C4B0A823EC81894D4CFD3",
      "districtId" : "1",
      "nameZh" : "和平里(東山路)",
      "pgp" : "0",
      "terminal" : "0",
      "latitude" : "24.17606",
      "inDis" : "30",
      "routeId" : "66",
      "seqNo" : "59"
   },
   {
      "GoBack" : "2",
      "longitude" : "120.71995",
      "outDis" : "80",
      "Id" : "0727",
      "oid" : "F46C4AEAD9F0457DAB6BA0CC3D541DE2",
      "districtId" : "1",
      "nameZh" : "軍功里",
      "pgp" : "0",
      "terminal" : "0",
      "latitude" : "24.17594",
      "inDis" : "30",
      "routeId" : "66",
      "seqNo" : "60"
   },
   {
      "GoBack" : "2",
      "longitude" : "120.71928",
      "outDis" : "80",
      "Id" : "2723",
      "oid" : "BC3C7B07E292463993C35CBDF729D902",
      "districtId" : "1",
      "nameZh" : "軍功農會",
      "pgp" : "0",
      "terminal" : "0",
      "latitude" : "24.17713",
      "inDis" : "30",
      "routeId" : "66",
      "seqNo" : "61"
   },
   {
      "GoBack" : "2",
      "longitude" : "120.71959",
      "outDis" : "80",
      "Id" : "2631",
      "oid" : "7828906847C74D6E9010751716E43189",
      "districtId" : "1",
      "nameZh" : "建功橋頭",
      "pgp" : "0",
      "terminal" : "0",
      "latitude" : "24.17975",
      "inDis" : "30",
      "routeId" : "66",
      "seqNo" : "62"
   },
   {
      "GoBack" : "2",
      "longitude" : "120.71934",
      "outDis" : "80",
      "Id" : "0729",
      "oid" : "18383732",
      "districtId" : "1",
      "nameZh" : "軍功松竹路口",
      "pgp" : "0",
      "terminal" : "0",
      "latitude" : "24.18293",
      "inDis" : "30",
      "routeId" : "66",
      "seqNo" : "63"
   },
   {
      "GoBack" : "2",
      "longitude" : "120.71879",
      "outDis" : "80",
      "Id" : "1552",
      "oid" : "18383733",
      "districtId" : "1",
      "nameZh" : "仁愛之家",
      "pgp" : "0",
      "terminal" : "0",
      "latitude" : "24.18571",
      "inDis" : "30",
      "routeId" : "66",
      "seqNo" : "64"
   },
   {
      "GoBack" : "2",
      "longitude" : "120.7184",
      "outDis" : "80",
      "Id" : "2078",
      "oid" : "18383734",
      "districtId" : "1",
      "nameZh" : "名人球場",
      "pgp" : "0",
      "terminal" : "0",
      "latitude" : "24.18816",
      "inDis" : "30",
      "routeId" : "66",
      "seqNo" : "65"
   },
   {
      "GoBack" : "2",
      "longitude" : "120.71811",
      "outDis" : "80",
      "Id" : "3513",
      "oid" : "18383738",
      "districtId" : "1",
      "nameZh" : "聖興站",
      "pgp" : "0",
      "terminal" : "0",
      "latitude" : "24.19143",
      "inDis" : "30",
      "routeId" : "66",
      "seqNo" : "66"
   },
   {
      "GoBack" : "2",
      "longitude" : "120.71929",
      "outDis" : "50",
      "Id" : "4976",
      "oid" : "311497496",
      "districtId" : "1",
      "nameZh" : "慈濟中醫院",
      "pgp" : "0",
      "terminal" : "0",
      "latitude" : "24.19285",
      "inDis" : "30",
      "routeId" : "66",
      "seqNo" : "67"
   },
   {
      "GoBack" : "2",
      "longitude" : "120.72097",
      "outDis" : "60",
      "Id" : "3359",
      "oid" : "309256355",
      "districtId" : "1",
      "nameZh" : "慈濟醫院",
      "pgp" : "0",
      "terminal" : "0",
      "latitude" : "24.19567",
      "inDis" : "20",
      "routeId" : "66",
      "seqNo" : "68"
   }
]
