[
   {
      "GoBack" : "1",
      "longitude" : "120.68881",
      "outDis" : "50",
      "Id" : "0362",
      "oid" : "24A5E084E6EB4810AECBD6771484C4FB",
      "districtId" : "1",
      "nameZh" : "大智公園",
      "pgp" : "0",
      "terminal" : "0",
      "latitude" : "24.12609",
      "inDis" : "50",
      "routeId" : "60",
      "seqNo" : "1"
   },
   {
      "GoBack" : "1",
      "longitude" : "120.68978",
      "outDis" : "50",
      "Id" : "0447",
      "oid" : "6156B9EEC3C84D00BCB9BAC6B4AB16EC",
      "districtId" : "1",
      "nameZh" : "仁和大智路口",
      "pgp" : "0",
      "terminal" : "0",
      "latitude" : "24.12636",
      "inDis" : "50",
      "routeId" : "60",
      "seqNo" : "2"
   },
   {
      "GoBack" : "1",
      "longitude" : "120.69033",
      "outDis" : "50",
      "Id" : "0363",
      "oid" : "66B618DD7AAF4408A40C2F71AE3097D7",
      "districtId" : "1",
      "nameZh" : "大智國小",
      "pgp" : "0",
      "terminal" : "0",
      "latitude" : "24.12903",
      "inDis" : "50",
      "routeId" : "60",
      "seqNo" : "3"
   },
   {
      "GoBack" : "1",
      "longitude" : "120.69031",
      "outDis" : "50",
      "Id" : "0249",
      "oid" : "D987A77667D24D7A8BF4DBF31CF80B3D",
      "districtId" : "1",
      "nameZh" : "大智建成路口",
      "pgp" : "0",
      "terminal" : "0",
      "latitude" : "24.13056",
      "inDis" : "50",
      "routeId" : "60",
      "seqNo" : "4"
   },
   {
      "GoBack" : "1",
      "longitude" : "120.68993",
      "outDis" : "50",
      "Id" : "0186",
      "oid" : "2D1C49C364464B8B98BD703932894C37",
      "districtId" : "1",
      "nameZh" : "大智忠孝路口",
      "pgp" : "0",
      "terminal" : "0",
      "latitude" : "24.13237",
      "inDis" : "50",
      "routeId" : "60",
      "seqNo" : "5"
   },
   {
      "GoBack" : "1",
      "longitude" : "120.688",
      "outDis" : "50",
      "Id" : "0185",
      "oid" : "B3A9698F3F78473684579D9E904774B7",
      "districtId" : "1",
      "nameZh" : "新時代購物中心",
      "pgp" : "0",
      "terminal" : "0",
      "latitude" : "24.13606",
      "inDis" : "50",
      "routeId" : "60",
      "seqNo" : "6"
   },
   {
      "GoBack" : "1",
      "longitude" : "120.68642",
      "outDis" : "50",
      "Id" : "0184",
      "oid" : "8B00A6646BB24DE18C252F86B7A358CC",
      "districtId" : "1",
      "nameZh" : "後火車站",
      "pgp" : "0",
      "terminal" : "0",
      "latitude" : "24.13597",
      "inDis" : "50",
      "routeId" : "60",
      "seqNo" : "7"
   },
   {
      "GoBack" : "1",
      "longitude" : "120.68383",
      "outDis" : "50",
      "Id" : "0183",
      "oid" : "79A64DB8528C4F048435ABAAED14E761",
      "districtId" : "1",
      "nameZh" : "臺中家商",
      "pgp" : "0",
      "terminal" : "0",
      "latitude" : "24.13489",
      "inDis" : "50",
      "routeId" : "60",
      "seqNo" : "8"
   },
   {
      "GoBack" : "1",
      "longitude" : "120.68206",
      "outDis" : "50",
      "Id" : "0518",
      "oid" : "16668F90D13A4970A721B028C66DD04E",
      "districtId" : "1",
      "nameZh" : "臺中酒廠(復興路)",
      "pgp" : "0",
      "terminal" : "0",
      "latitude" : "24.13417",
      "inDis" : "50",
      "routeId" : "60",
      "seqNo" : "9"
   },
   {
      "GoBack" : "1",
      "longitude" : "120.67994",
      "outDis" : "50",
      "Id" : "1659",
      "oid" : "BE893BCAABC6463E8F9415C79E4B55E5",
      "districtId" : "1",
      "nameZh" : "文化創意園區",
      "pgp" : "0",
      "terminal" : "0",
      "latitude" : "24.13317",
      "inDis" : "50",
      "routeId" : "60",
      "seqNo" : "10"
   },
   {
      "GoBack" : "1",
      "longitude" : "120.67852",
      "outDis" : "50",
      "Id" : "0180",
      "oid" : "31740A13E9D546CCBAFF3369EBDF3A4F",
      "districtId" : "1",
      "nameZh" : "林祖厝",
      "pgp" : "0",
      "terminal" : "0",
      "latitude" : "24.13253",
      "inDis" : "50",
      "routeId" : "60",
      "seqNo" : "11"
   },
   {
      "GoBack" : "1",
      "longitude" : "120.6759",
      "outDis" : "50",
      "Id" : "4604",
      "oid" : "C8DD938545D94BBF90308EA152A45100",
      "districtId" : "1",
      "nameZh" : "復興有恆街口",
      "pgp" : "0",
      "terminal" : "0",
      "latitude" : "24.13155",
      "inDis" : "50",
      "routeId" : "60",
      "seqNo" : "12"
   },
   {
      "GoBack" : "1",
      "longitude" : "120.67402",
      "outDis" : "50",
      "Id" : "0178",
      "oid" : "4BEC5A00BDA54FF0BFD49C4C4412312E",
      "districtId" : "1",
      "nameZh" : "第三分局",
      "pgp" : "0",
      "terminal" : "0",
      "latitude" : "24.13078",
      "inDis" : "50",
      "routeId" : "60",
      "seqNo" : "13"
   },
   {
      "GoBack" : "1",
      "longitude" : "120.67021",
      "outDis" : "50",
      "Id" : "5393",
      "oid" : "319430803",
      "districtId" : "1",
      "nameZh" : "公共資訊圖書館(復興路)",
      "pgp" : "0",
      "terminal" : "0",
      "latitude" : "24.12928",
      "inDis" : "50",
      "routeId" : "60",
      "seqNo" : "14"
   },
   {
      "GoBack" : "1",
      "longitude" : "120.66837",
      "outDis" : "50",
      "Id" : "5478",
      "oid" : "319311008",
      "districtId" : "1",
      "nameZh" : "高等法院臺中分院",
      "pgp" : "0",
      "terminal" : "0",
      "latitude" : "24.12838",
      "inDis" : "50",
      "routeId" : "60",
      "seqNo" : "15"
   },
   {
      "GoBack" : "1",
      "longitude" : "120.66534",
      "outDis" : "50",
      "Id" : "0543",
      "oid" : "0F71789A2A0B43F990AB151B78427F13",
      "districtId" : "1",
      "nameZh" : "四育國中",
      "pgp" : "0",
      "terminal" : "0",
      "latitude" : "24.1268",
      "inDis" : "50",
      "routeId" : "60",
      "seqNo" : "16"
   },
   {
      "GoBack" : "1",
      "longitude" : "120.66197",
      "outDis" : "50",
      "Id" : "0500",
      "oid" : "1090AECAEC9D40B2A48EFCB79F817AC3",
      "districtId" : "1",
      "nameZh" : "半平厝",
      "pgp" : "0",
      "terminal" : "0",
      "latitude" : "24.12922",
      "inDis" : "50",
      "routeId" : "60",
      "seqNo" : "17"
   },
   {
      "GoBack" : "1",
      "longitude" : "120.66124",
      "outDis" : "50",
      "Id" : "4637",
      "oid" : "EFE7125D280B432BB93FB27FAC15A4F3",
      "districtId" : "1",
      "nameZh" : "南屯美村路口",
      "pgp" : "0",
      "terminal" : "0",
      "latitude" : "24.1325",
      "inDis" : "50",
      "routeId" : "60",
      "seqNo" : "18"
   },
   {
      "GoBack" : "1",
      "longitude" : "120.65974",
      "outDis" : "50",
      "Id" : "0935",
      "oid" : "09FEB03FD4BE4D098F1A9BF152560403",
      "districtId" : "1",
      "nameZh" : "靜和醫院",
      "pgp" : "0",
      "terminal" : "0",
      "latitude" : "24.13328",
      "inDis" : "50",
      "routeId" : "60",
      "seqNo" : "19"
   },
   {
      "GoBack" : "1",
      "longitude" : "120.65797",
      "outDis" : "50",
      "Id" : "0126",
      "oid" : "FB262126B3184854B7D6AB9D9D9A64F0",
      "districtId" : "1",
      "nameZh" : "崇倫國中(南屯路)",
      "pgp" : "0",
      "terminal" : "0",
      "latitude" : "24.13379",
      "inDis" : "50",
      "routeId" : "60",
      "seqNo" : "20"
   },
   {
      "GoBack" : "1",
      "longitude" : "120.65592",
      "outDis" : "50",
      "Id" : "0348",
      "oid" : "10375",
      "districtId" : "1",
      "nameZh" : "土庫",
      "pgp" : "0",
      "terminal" : "0",
      "latitude" : "24.13458",
      "inDis" : "50",
      "routeId" : "60",
      "seqNo" : "21"
   },
   {
      "GoBack" : "1",
      "longitude" : "120.65339",
      "outDis" : "50",
      "Id" : "0569",
      "oid" : "13DF42A6879B4CA6BC220E4F0B759FA7",
      "districtId" : "1",
      "nameZh" : "永春東東興路口",
      "pgp" : "0",
      "terminal" : "0",
      "latitude" : "24.13502",
      "inDis" : "50",
      "routeId" : "60",
      "seqNo" : "22"
   },
   {
      "GoBack" : "1",
      "longitude" : "120.65065",
      "outDis" : "50",
      "Id" : "5104",
      "oid" : "CB980CB8753F41FC87BDC57FD631475D",
      "districtId" : "1",
      "nameZh" : "永春東大墩路口",
      "pgp" : "0",
      "terminal" : "0",
      "latitude" : "24.13498",
      "inDis" : "50",
      "routeId" : "60",
      "seqNo" : "23"
   },
   {
      "GoBack" : "1",
      "longitude" : "120.65",
      "outDis" : "50",
      "Id" : "5133",
      "oid" : "761B25C0B52F4D52BB87BE7530BDC316",
      "districtId" : "1",
      "nameZh" : "清真寺(大墩南路)",
      "pgp" : "0",
      "terminal" : "0",
      "latitude" : "24.13608",
      "inDis" : "50",
      "routeId" : "60",
      "seqNo" : "24"
   },
   {
      "GoBack" : "1",
      "longitude" : "120.64996",
      "outDis" : "50",
      "Id" : "1888",
      "oid" : "309872878",
      "districtId" : "1",
      "nameZh" : "大墩五權路口",
      "pgp" : "0",
      "terminal" : "0",
      "latitude" : "24.13892",
      "inDis" : "50",
      "routeId" : "60",
      "seqNo" : "25"
   },
   {
      "GoBack" : "1",
      "longitude" : "120.64991",
      "outDis" : "50",
      "Id" : "0366",
      "oid" : "EB6FBB88612A44F59CC88C0A0D206656",
      "districtId" : "1",
      "nameZh" : "大進市場",
      "pgp" : "0",
      "terminal" : "0",
      "latitude" : "24.14202",
      "inDis" : "50",
      "routeId" : "60",
      "seqNo" : "26"
   },
   {
      "GoBack" : "1",
      "longitude" : "120.64989",
      "outDis" : "50",
      "Id" : "0597",
      "oid" : "9FBFCA1778C14DFC8BA964838F8E06D2",
      "districtId" : "1",
      "nameZh" : "大墩向上南路口",
      "pgp" : "0",
      "terminal" : "0",
      "latitude" : "24.14537",
      "inDis" : "50",
      "routeId" : "60",
      "seqNo" : "27"
   },
   {
      "GoBack" : "1",
      "longitude" : "120.64972",
      "outDis" : "50",
      "Id" : "5165",
      "oid" : "7032FC3BFA8B4D06955F0ABAF14ACBCF",
      "districtId" : "1",
      "nameZh" : "萬壽棒球場(大墩路)",
      "pgp" : "0",
      "terminal" : "0",
      "latitude" : "24.14721",
      "inDis" : "50",
      "routeId" : "60",
      "seqNo" : "28"
   },
   {
      "GoBack" : "1",
      "longitude" : "120.64977",
      "outDis" : "50",
      "Id" : "0381",
      "oid" : "1CEDABC5A3DB40BDBBDB6C9ADC85ACA4",
      "districtId" : "1",
      "nameZh" : "大墩十二街口",
      "pgp" : "0",
      "terminal" : "0",
      "latitude" : "24.1493",
      "inDis" : "50",
      "routeId" : "60",
      "seqNo" : "29"
   },
   {
      "GoBack" : "1",
      "longitude" : "120.6498",
      "outDis" : "50",
      "Id" : "5383",
      "oid" : "312196976",
      "districtId" : "1",
      "nameZh" : "大墩公益路口",
      "pgp" : "0",
      "terminal" : "0",
      "latitude" : "24.15168",
      "inDis" : "50",
      "routeId" : "60",
      "seqNo" : "30"
   },
   {
      "GoBack" : "1",
      "longitude" : "120.64947",
      "outDis" : "50",
      "Id" : "0374",
      "oid" : "7D1CC8EC310D46BCB3DA96BE5FDF4CBC",
      "districtId" : "1",
      "nameZh" : "大業大墩路口",
      "pgp" : "0",
      "terminal" : "0",
      "latitude" : "24.15379",
      "inDis" : "50",
      "routeId" : "60",
      "seqNo" : "31"
   },
   {
      "GoBack" : "1",
      "longitude" : "120.64631",
      "outDis" : "50",
      "Id" : "0375",
      "oid" : "0D232A7F108C4FF8A592A2B1D6E22E0F",
      "districtId" : "1",
      "nameZh" : "大業文心路口",
      "pgp" : "0",
      "terminal" : "0",
      "latitude" : "24.15366",
      "inDis" : "50",
      "routeId" : "60",
      "seqNo" : "32"
   },
   {
      "GoBack" : "1",
      "longitude" : "120.64308",
      "outDis" : "50",
      "Id" : "0377",
      "oid" : "B72E8DC44FB643348308AF3475687437",
      "districtId" : "1",
      "nameZh" : "大業惠文路口",
      "pgp" : "0",
      "terminal" : "0",
      "latitude" : "24.15376",
      "inDis" : "50",
      "routeId" : "60",
      "seqNo" : "33"
   },
   {
      "GoBack" : "1",
      "longitude" : "120.64118",
      "outDis" : "50",
      "Id" : "0376",
      "oid" : "56E3A5D98E07486DA24808EB28BAF04B",
      "districtId" : "1",
      "nameZh" : "大業惠中路口",
      "pgp" : "0",
      "terminal" : "0",
      "latitude" : "24.15379",
      "inDis" : "50",
      "routeId" : "60",
      "seqNo" : "34"
   },
   {
      "GoBack" : "1",
      "longitude" : "120.63912",
      "outDis" : "50",
      "Id" : "5342",
      "oid" : "314009842",
      "districtId" : "1",
      "nameZh" : "惠文高中(大業路)",
      "pgp" : "0",
      "terminal" : "0",
      "latitude" : "24.15371",
      "inDis" : "50",
      "routeId" : "60",
      "seqNo" : "35"
   },
   {
      "GoBack" : "1",
      "longitude" : "120.63844",
      "outDis" : "50",
      "Id" : "0817",
      "oid" : "B05B909FE0F2467E82CC2919A132910A",
      "districtId" : "1",
      "nameZh" : "惠來公園",
      "pgp" : "0",
      "terminal" : "0",
      "latitude" : "24.15515",
      "inDis" : "50",
      "routeId" : "60",
      "seqNo" : "36"
   },
   {
      "GoBack" : "1",
      "longitude" : "120.63949",
      "outDis" : "50",
      "Id" : "0055",
      "oid" : "931A570866B540318316295EE4101AD9",
      "districtId" : "1",
      "nameZh" : "第六分局",
      "pgp" : "0",
      "terminal" : "0",
      "latitude" : "24.15953",
      "inDis" : "50",
      "routeId" : "60",
      "seqNo" : "37"
   },
   {
      "GoBack" : "1",
      "longitude" : "120.64147",
      "outDis" : "50",
      "Id" : "5726",
      "oid" : "4F922A132ED04E7691470FCBC406F49C",
      "districtId" : "1",
      "nameZh" : "臺中國家歌劇院",
      "pgp" : "0",
      "terminal" : "0",
      "latitude" : "24.16249",
      "inDis" : "50",
      "routeId" : "60",
      "seqNo" : "38"
   },
   {
      "GoBack" : "1",
      "longitude" : "120.63957",
      "outDis" : "50",
      "Id" : "2161",
      "oid" : "BB8075332DEC4C16ABD105CB30E7D566",
      "districtId" : "1",
      "nameZh" : "老虎城",
      "pgp" : "0",
      "terminal" : "0",
      "latitude" : "24.16464",
      "inDis" : "50",
      "routeId" : "60",
      "seqNo" : "39"
   },
   {
      "GoBack" : "1",
      "longitude" : "120.63968",
      "outDis" : "50",
      "Id" : "0826",
      "oid" : "03CA4F73B9E04875BB748A72CBCC68FB",
      "districtId" : "1",
      "nameZh" : "秋紅谷(朝陽橋)",
      "pgp" : "0",
      "terminal" : "0",
      "latitude" : "24.16904",
      "inDis" : "50",
      "routeId" : "60",
      "seqNo" : "40"
   },
   {
      "GoBack" : "1",
      "longitude" : "120.63717",
      "outDis" : "50",
      "Id" : "0054",
      "oid" : "313524993",
      "districtId" : "1",
      "nameZh" : "朝馬(臺灣大道)",
      "pgp" : "0",
      "terminal" : "0",
      "latitude" : "24.17059",
      "inDis" : "50",
      "routeId" : "60",
      "seqNo" : "41"
   },
   {
      "GoBack" : "1",
      "longitude" : "120.62485",
      "outDis" : "50",
      "Id" : "5149",
      "oid" : "12822",
      "districtId" : "1",
      "nameZh" : "福安里(臺灣大道)",
      "pgp" : "0",
      "terminal" : "0",
      "latitude" : "24.17849",
      "inDis" : "50",
      "routeId" : "60",
      "seqNo" : "42"
   },
   {
      "GoBack" : "1",
      "longitude" : "120.62067",
      "outDis" : "50",
      "Id" : "3060",
      "oid" : "0FAC9CB4208D4C3D832BB108B18EA4A1",
      "districtId" : "1",
      "nameZh" : "統聯轉運站",
      "pgp" : "0",
      "terminal" : "0",
      "latitude" : "24.18029",
      "inDis" : "50",
      "routeId" : "60",
      "seqNo" : "43"
   },
   {
      "GoBack" : "1",
      "longitude" : "120.6198",
      "outDis" : "50",
      "Id" : "0008",
      "oid" : "D9560F2E08734C658135E70A2AC4C1A8",
      "districtId" : "1",
      "nameZh" : "中港新城",
      "pgp" : "0",
      "terminal" : "0",
      "latitude" : "24.18096",
      "inDis" : "50",
      "routeId" : "60",
      "seqNo" : "44"
   },
   {
      "GoBack" : "1",
      "longitude" : "120.616",
      "outDis" : "50",
      "Id" : "0430",
      "oid" : "1EA20A37C1FE4164A4BD08770350D078",
      "districtId" : "1",
      "nameZh" : "中港澄清醫院",
      "pgp" : "0",
      "terminal" : "0",
      "latitude" : "24.18292",
      "inDis" : "50",
      "routeId" : "60",
      "seqNo" : "45"
   },
   {
      "GoBack" : "1",
      "longitude" : "120.61287",
      "outDis" : "50",
      "Id" : "0006",
      "oid" : "087690188EAE47B9A0E48E1E05C314F3",
      "districtId" : "1",
      "nameZh" : "臺中捐血中心",
      "pgp" : "0",
      "terminal" : "0",
      "latitude" : "24.1844",
      "inDis" : "50",
      "routeId" : "60",
      "seqNo" : "46"
   },
   {
      "GoBack" : "1",
      "longitude" : "120.6106",
      "outDis" : "50",
      "Id" : "4335",
      "oid" : "D2FC4183F9944519A36C3383CB2FA84D",
      "districtId" : "1",
      "nameZh" : "臺灣大道玉門路口",
      "pgp" : "0",
      "terminal" : "0",
      "latitude" : "24.18471",
      "inDis" : "50",
      "routeId" : "60",
      "seqNo" : "47"
   },
   {
      "GoBack" : "1",
      "longitude" : "120.60837",
      "outDis" : "50",
      "Id" : "0004",
      "oid" : "1B027123B78B49A18B5DF5DA0EC50115",
      "districtId" : "1",
      "nameZh" : "普濟寺",
      "pgp" : "0",
      "terminal" : "0",
      "latitude" : "24.1843",
      "inDis" : "50",
      "routeId" : "60",
      "seqNo" : "48"
   },
   {
      "GoBack" : "1",
      "longitude" : "120.60646",
      "outDis" : "50",
      "Id" : "2378",
      "oid" : "FD03B1155F8440E6B0841EDD2706CDE6",
      "districtId" : "1",
      "nameZh" : "東大附中",
      "pgp" : "0",
      "terminal" : "0",
      "latitude" : "24.18385",
      "inDis" : "50",
      "routeId" : "60",
      "seqNo" : "49"
   },
   {
      "GoBack" : "1",
      "longitude" : "120.60491",
      "outDis" : "50",
      "Id" : "5386",
      "oid" : "313588801",
      "districtId" : "1",
      "nameZh" : "臺中榮總(臺灣大道)",
      "pgp" : "0",
      "terminal" : "1",
      "latitude" : "24.18349",
      "inDis" : "50",
      "routeId" : "60",
      "seqNo" : "50"
   },
   {
      "GoBack" : "1",
      "longitude" : "120.5973",
      "outDis" : "50",
      "Id" : "0526",
      "oid" : "13469",
      "districtId" : "1",
      "nameZh" : "台中精機",
      "pgp" : "0",
      "terminal" : "0",
      "latitude" : "24.18208",
      "inDis" : "50",
      "routeId" : "60",
      "seqNo" : "51"
   },
   {
      "GoBack" : "1",
      "longitude" : "120.59354",
      "outDis" : "50",
      "Id" : "0240",
      "oid" : "13505",
      "districtId" : "1",
      "nameZh" : "東海別墅",
      "pgp" : "0",
      "terminal" : "0",
      "latitude" : "24.18278",
      "inDis" : "50",
      "routeId" : "60",
      "seqNo" : "52"
   },
   {
      "GoBack" : "1",
      "longitude" : "120.59128",
      "outDis" : "50",
      "Id" : "4383",
      "oid" : "13470",
      "districtId" : "1",
      "nameZh" : "臺糖公營學苑",
      "pgp" : "0",
      "terminal" : "0",
      "latitude" : "24.1838",
      "inDis" : "50",
      "routeId" : "60",
      "seqNo" : "53"
   },
   {
      "GoBack" : "1",
      "longitude" : "120.58844",
      "outDis" : "50",
      "Id" : "5304",
      "oid" : "2213",
      "districtId" : "1",
      "nameZh" : "東海街口",
      "pgp" : "0",
      "terminal" : "0",
      "latitude" : "24.1848",
      "inDis" : "50",
      "routeId" : "60",
      "seqNo" : "54"
   },
   {
      "GoBack" : "1",
      "longitude" : "120.5861",
      "outDis" : "50",
      "Id" : "2325",
      "oid" : "13495",
      "districtId" : "1",
      "nameZh" : "坪頂",
      "pgp" : "0",
      "terminal" : "0",
      "latitude" : "24.18577",
      "inDis" : "50",
      "routeId" : "60",
      "seqNo" : "55"
   },
   {
      "GoBack" : "2",
      "longitude" : "120.5861",
      "outDis" : "50",
      "Id" : "2325",
      "oid" : "13495",
      "districtId" : "1",
      "nameZh" : "坪頂",
      "pgp" : "0",
      "terminal" : "0",
      "latitude" : "24.18577",
      "inDis" : "50",
      "routeId" : "60",
      "seqNo" : "1"
   },
   {
      "GoBack" : "2",
      "longitude" : "120.58844",
      "outDis" : "50",
      "Id" : "5304",
      "oid" : "2213",
      "districtId" : "1",
      "nameZh" : "東海街口",
      "pgp" : "0",
      "terminal" : "0",
      "latitude" : "24.1848",
      "inDis" : "50",
      "routeId" : "60",
      "seqNo" : "2"
   },
   {
      "GoBack" : "2",
      "longitude" : "120.59128",
      "outDis" : "50",
      "Id" : "4383",
      "oid" : "13470",
      "districtId" : "1",
      "nameZh" : "臺糖公營學苑",
      "pgp" : "0",
      "terminal" : "0",
      "latitude" : "24.1838",
      "inDis" : "50",
      "routeId" : "60",
      "seqNo" : "3"
   },
   {
      "GoBack" : "2",
      "longitude" : "120.59354",
      "outDis" : "50",
      "Id" : "0240",
      "oid" : "13505",
      "districtId" : "1",
      "nameZh" : "東海別墅",
      "pgp" : "0",
      "terminal" : "0",
      "latitude" : "24.18278",
      "inDis" : "50",
      "routeId" : "60",
      "seqNo" : "4"
   },
   {
      "GoBack" : "2",
      "longitude" : "120.5973",
      "outDis" : "50",
      "Id" : "0526",
      "oid" : "13469",
      "districtId" : "1",
      "nameZh" : "台中精機",
      "pgp" : "0",
      "terminal" : "0",
      "latitude" : "24.18208",
      "inDis" : "50",
      "routeId" : "60",
      "seqNo" : "5"
   },
   {
      "GoBack" : "2",
      "longitude" : "120.60491",
      "outDis" : "50",
      "Id" : "5386",
      "oid" : "318F14FEFA4B45D8B613E70432A4C47C",
      "districtId" : "1",
      "nameZh" : "臺中榮總(臺灣大道)",
      "pgp" : "0",
      "terminal" : "0",
      "latitude" : "24.18349",
      "inDis" : "50",
      "routeId" : "60",
      "seqNo" : "6"
   },
   {
      "GoBack" : "2",
      "longitude" : "120.60658",
      "outDis" : "50",
      "Id" : "2378",
      "oid" : "42B30A50464B4A2F821BAD4709E54787",
      "districtId" : "1",
      "nameZh" : "東大附中",
      "pgp" : "0",
      "terminal" : "0",
      "latitude" : "24.18357",
      "inDis" : "50",
      "routeId" : "60",
      "seqNo" : "7"
   },
   {
      "GoBack" : "2",
      "longitude" : "120.60833",
      "outDis" : "50",
      "Id" : "0004",
      "oid" : "5C5C69B3D0284FBBB841D595E19AC439",
      "districtId" : "1",
      "nameZh" : "普濟寺",
      "pgp" : "0",
      "terminal" : "0",
      "latitude" : "24.18398",
      "inDis" : "50",
      "routeId" : "60",
      "seqNo" : "8"
   },
   {
      "GoBack" : "2",
      "longitude" : "120.61001",
      "outDis" : "50",
      "Id" : "4335",
      "oid" : "12826",
      "districtId" : "1",
      "nameZh" : "臺灣大道玉門路口",
      "pgp" : "0",
      "terminal" : "0",
      "latitude" : "24.18436",
      "inDis" : "50",
      "routeId" : "60",
      "seqNo" : "9"
   },
   {
      "GoBack" : "2",
      "longitude" : "120.61256",
      "outDis" : "50",
      "Id" : "0006",
      "oid" : "5BCBC530DD7F4AB099C953737E63FC96",
      "districtId" : "1",
      "nameZh" : "臺中捐血中心",
      "pgp" : "0",
      "terminal" : "0",
      "latitude" : "24.18421",
      "inDis" : "50",
      "routeId" : "60",
      "seqNo" : "10"
   },
   {
      "GoBack" : "2",
      "longitude" : "120.61577",
      "outDis" : "50",
      "Id" : "0430",
      "oid" : "CFF8FB90922349A3934B15EC4A6842E3",
      "districtId" : "1",
      "nameZh" : "中港澄清醫院",
      "pgp" : "0",
      "terminal" : "0",
      "latitude" : "24.18273",
      "inDis" : "50",
      "routeId" : "60",
      "seqNo" : "11"
   },
   {
      "GoBack" : "2",
      "longitude" : "120.6183",
      "outDis" : "50",
      "Id" : "0008",
      "oid" : "320062561",
      "districtId" : "1",
      "nameZh" : "中港新城",
      "pgp" : "0",
      "terminal" : "0",
      "latitude" : "24.18145",
      "inDis" : "50",
      "routeId" : "60",
      "seqNo" : "12"
   },
   {
      "GoBack" : "2",
      "longitude" : "120.62109",
      "outDis" : "50",
      "Id" : "3060",
      "oid" : "E17E391A79594B1FA322B3C54BCF955D",
      "districtId" : "1",
      "nameZh" : "統聯轉運站",
      "pgp" : "0",
      "terminal" : "0",
      "latitude" : "24.18024",
      "inDis" : "50",
      "routeId" : "60",
      "seqNo" : "13"
   },
   {
      "GoBack" : "2",
      "longitude" : "120.62374",
      "outDis" : "50",
      "Id" : "5149",
      "oid" : "319908747",
      "districtId" : "1",
      "nameZh" : "福安里(臺灣大道)",
      "pgp" : "0",
      "terminal" : "0",
      "latitude" : "24.1787",
      "inDis" : "50",
      "routeId" : "60",
      "seqNo" : "14"
   },
   {
      "GoBack" : "2",
      "longitude" : "120.63717",
      "outDis" : "50",
      "Id" : "0054",
      "oid" : "313524993",
      "districtId" : "1",
      "nameZh" : "朝馬(臺灣大道)",
      "pgp" : "0",
      "terminal" : "0",
      "latitude" : "24.17059",
      "inDis" : "50",
      "routeId" : "60",
      "seqNo" : "15"
   },
   {
      "GoBack" : "2",
      "longitude" : "120.63976",
      "outDis" : "50",
      "Id" : "0826",
      "oid" : "A6B035947F894875B8B2DB5AE077AB2E",
      "districtId" : "1",
      "nameZh" : "秋紅谷(朝陽橋)",
      "pgp" : "0",
      "terminal" : "0",
      "latitude" : "24.16849",
      "inDis" : "50",
      "routeId" : "60",
      "seqNo" : "16"
   },
   {
      "GoBack" : "2",
      "longitude" : "120.64049",
      "outDis" : "50",
      "Id" : "4530",
      "oid" : "5207E1CA0C5548B59073BF4D1BC5C04A",
      "districtId" : "1",
      "nameZh" : "河南臺灣大道口",
      "pgp" : "0",
      "terminal" : "0",
      "latitude" : "24.16724",
      "inDis" : "50",
      "routeId" : "60",
      "seqNo" : "17"
   },
   {
      "GoBack" : "2",
      "longitude" : "120.63957",
      "outDis" : "50",
      "Id" : "2161",
      "oid" : "9D0928C2EB7D48538099EC0021DD232B",
      "districtId" : "1",
      "nameZh" : "老虎城",
      "pgp" : "0",
      "terminal" : "0",
      "latitude" : "24.16468",
      "inDis" : "50",
      "routeId" : "60",
      "seqNo" : "18"
   },
   {
      "GoBack" : "2",
      "longitude" : "120.6414",
      "outDis" : "50",
      "Id" : "5726",
      "oid" : "2E3B16F75BB74DEA9D9ADB98426FB1B3",
      "districtId" : "1",
      "nameZh" : "臺中國家歌劇院",
      "pgp" : "0",
      "terminal" : "0",
      "latitude" : "24.16257",
      "inDis" : "50",
      "routeId" : "60",
      "seqNo" : "19"
   },
   {
      "GoBack" : "2",
      "longitude" : "120.63936",
      "outDis" : "50",
      "Id" : "0055",
      "oid" : "D6593EEA511844EDAD8FF2273BE2CFE8",
      "districtId" : "1",
      "nameZh" : "第六分局",
      "pgp" : "0",
      "terminal" : "0",
      "latitude" : "24.15948",
      "inDis" : "50",
      "routeId" : "60",
      "seqNo" : "20"
   },
   {
      "GoBack" : "2",
      "longitude" : "120.63844",
      "outDis" : "50",
      "Id" : "0817",
      "oid" : "B05B909FE0F2467E82CC2919A132910A",
      "districtId" : "1",
      "nameZh" : "惠來公園",
      "pgp" : "0",
      "terminal" : "0",
      "latitude" : "24.15515",
      "inDis" : "50",
      "routeId" : "60",
      "seqNo" : "21"
   },
   {
      "GoBack" : "2",
      "longitude" : "120.63912",
      "outDis" : "50",
      "Id" : "5342",
      "oid" : "314009842",
      "districtId" : "1",
      "nameZh" : "惠文高中(大業路)",
      "pgp" : "0",
      "terminal" : "0",
      "latitude" : "24.15371",
      "inDis" : "50",
      "routeId" : "60",
      "seqNo" : "22"
   },
   {
      "GoBack" : "2",
      "longitude" : "120.64223",
      "outDis" : "50",
      "Id" : "0376",
      "oid" : "857A05227D66473EABF8D432FF94EC35",
      "districtId" : "1",
      "nameZh" : "大業惠中路口",
      "pgp" : "0",
      "terminal" : "0",
      "latitude" : "24.15364",
      "inDis" : "50",
      "routeId" : "60",
      "seqNo" : "23"
   },
   {
      "GoBack" : "2",
      "longitude" : "120.64363",
      "outDis" : "50",
      "Id" : "0377",
      "oid" : "F939A30447724B86B0A6D562DD90B441",
      "districtId" : "1",
      "nameZh" : "大業惠文路口",
      "pgp" : "0",
      "terminal" : "0",
      "latitude" : "24.15376",
      "inDis" : "50",
      "routeId" : "60",
      "seqNo" : "24"
   },
   {
      "GoBack" : "2",
      "longitude" : "120.64629",
      "outDis" : "50",
      "Id" : "0375",
      "oid" : "A8EB164B901946FFA0B20228F31C17FD",
      "districtId" : "1",
      "nameZh" : "大業文心路口",
      "pgp" : "0",
      "terminal" : "0",
      "latitude" : "24.15366",
      "inDis" : "50",
      "routeId" : "60",
      "seqNo" : "25"
   },
   {
      "GoBack" : "2",
      "longitude" : "120.64926",
      "outDis" : "50",
      "Id" : "0374",
      "oid" : "F6031FBD8DC04F79AB18056ACBE61A77",
      "districtId" : "1",
      "nameZh" : "大業大墩路口",
      "pgp" : "0",
      "terminal" : "0",
      "latitude" : "24.15359",
      "inDis" : "50",
      "routeId" : "60",
      "seqNo" : "26"
   },
   {
      "GoBack" : "2",
      "longitude" : "120.6498",
      "outDis" : "50",
      "Id" : "5383",
      "oid" : "312196976",
      "districtId" : "1",
      "nameZh" : "大墩公益路口",
      "pgp" : "0",
      "terminal" : "0",
      "latitude" : "24.15168",
      "inDis" : "50",
      "routeId" : "60",
      "seqNo" : "27"
   },
   {
      "GoBack" : "2",
      "longitude" : "120.64984",
      "outDis" : "50",
      "Id" : "0381",
      "oid" : "D4064BEBF7A645428C613870F0A76A65",
      "districtId" : "1",
      "nameZh" : "大墩十二街口",
      "pgp" : "0",
      "terminal" : "0",
      "latitude" : "24.14969",
      "inDis" : "50",
      "routeId" : "60",
      "seqNo" : "28"
   },
   {
      "GoBack" : "2",
      "longitude" : "120.64986",
      "outDis" : "50",
      "Id" : "5165",
      "oid" : "B9FDCE95B6134734A02C7BD6CB654009",
      "districtId" : "1",
      "nameZh" : "萬壽棒球場(大墩路)",
      "pgp" : "0",
      "terminal" : "0",
      "latitude" : "24.14733",
      "inDis" : "50",
      "routeId" : "60",
      "seqNo" : "29"
   },
   {
      "GoBack" : "2",
      "longitude" : "120.64987",
      "outDis" : "50",
      "Id" : "0597",
      "oid" : "05237069BE65473188CF33962F2E8D74",
      "districtId" : "1",
      "nameZh" : "大墩向上南路口",
      "pgp" : "0",
      "terminal" : "0",
      "latitude" : "24.14541",
      "inDis" : "50",
      "routeId" : "60",
      "seqNo" : "30"
   },
   {
      "GoBack" : "2",
      "longitude" : "120.64989",
      "outDis" : "50",
      "Id" : "0366",
      "oid" : "A0BE0EC3BCE3440C867936E588AFD5AA",
      "districtId" : "1",
      "nameZh" : "大進市場",
      "pgp" : "0",
      "terminal" : "0",
      "latitude" : "24.14223",
      "inDis" : "50",
      "routeId" : "60",
      "seqNo" : "31"
   },
   {
      "GoBack" : "2",
      "longitude" : "120.64996",
      "outDis" : "50",
      "Id" : "1888",
      "oid" : "309872878",
      "districtId" : "1",
      "nameZh" : "大墩五權路口",
      "pgp" : "0",
      "terminal" : "0",
      "latitude" : "24.13892",
      "inDis" : "50",
      "routeId" : "60",
      "seqNo" : "32"
   },
   {
      "GoBack" : "2",
      "longitude" : "120.64989",
      "outDis" : "50",
      "Id" : "5133",
      "oid" : "32D86EBBBF7F4EE681835703190FA796",
      "districtId" : "1",
      "nameZh" : "清真寺(大墩南路)",
      "pgp" : "0",
      "terminal" : "0",
      "latitude" : "24.13611",
      "inDis" : "50",
      "routeId" : "60",
      "seqNo" : "33"
   },
   {
      "GoBack" : "2",
      "longitude" : "120.65097",
      "outDis" : "50",
      "Id" : "5104",
      "oid" : "C9FD1847EE7C426F995B348C114D5567",
      "districtId" : "1",
      "nameZh" : "永春東大墩路口",
      "pgp" : "0",
      "terminal" : "0",
      "latitude" : "24.1349",
      "inDis" : "50",
      "routeId" : "60",
      "seqNo" : "34"
   },
   {
      "GoBack" : "2",
      "longitude" : "120.65335",
      "outDis" : "50",
      "Id" : "0569",
      "oid" : "EFF74E08109A4E12AB997D706596D4F4",
      "districtId" : "1",
      "nameZh" : "永春東東興路口",
      "pgp" : "0",
      "terminal" : "0",
      "latitude" : "24.13492",
      "inDis" : "50",
      "routeId" : "60",
      "seqNo" : "35"
   },
   {
      "GoBack" : "2",
      "longitude" : "120.65603",
      "outDis" : "50",
      "Id" : "0348",
      "oid" : "306250855",
      "districtId" : "1",
      "nameZh" : "土庫",
      "pgp" : "0",
      "terminal" : "0",
      "latitude" : "24.13453",
      "inDis" : "50",
      "routeId" : "60",
      "seqNo" : "36"
   },
   {
      "GoBack" : "2",
      "longitude" : "120.65781",
      "outDis" : "50",
      "Id" : "0126",
      "oid" : "DEE77A2C4CC64C72883F97B110F3D9D2",
      "districtId" : "1",
      "nameZh" : "崇倫國中(南屯路)",
      "pgp" : "0",
      "terminal" : "0",
      "latitude" : "24.1337",
      "inDis" : "50",
      "routeId" : "60",
      "seqNo" : "37"
   },
   {
      "GoBack" : "2",
      "longitude" : "120.65965",
      "outDis" : "50",
      "Id" : "0935",
      "oid" : "B22A105B5BCF470FAE83759AA03A391B",
      "districtId" : "1",
      "nameZh" : "靜和醫院",
      "pgp" : "0",
      "terminal" : "0",
      "latitude" : "24.13325",
      "inDis" : "50",
      "routeId" : "60",
      "seqNo" : "38"
   },
   {
      "GoBack" : "2",
      "longitude" : "120.66125",
      "outDis" : "50",
      "Id" : "4637",
      "oid" : "E64378B5E34A410BA0B14687926FB6EE",
      "districtId" : "1",
      "nameZh" : "南屯美村路口",
      "pgp" : "0",
      "terminal" : "0",
      "latitude" : "24.13234",
      "inDis" : "50",
      "routeId" : "60",
      "seqNo" : "39"
   },
   {
      "GoBack" : "2",
      "longitude" : "120.66203",
      "outDis" : "50",
      "Id" : "0500",
      "oid" : "D8710825896E4A30ADAFCAE5E4A9746E",
      "districtId" : "1",
      "nameZh" : "半平厝",
      "pgp" : "0",
      "terminal" : "0",
      "latitude" : "24.12928",
      "inDis" : "50",
      "routeId" : "60",
      "seqNo" : "40"
   },
   {
      "GoBack" : "2",
      "longitude" : "120.66525",
      "outDis" : "50",
      "Id" : "0543",
      "oid" : "8C433AAB3FCB424A90F98551E17E2658",
      "districtId" : "1",
      "nameZh" : "四育國中",
      "pgp" : "0",
      "terminal" : "0",
      "latitude" : "24.12647",
      "inDis" : "50",
      "routeId" : "60",
      "seqNo" : "41"
   },
   {
      "GoBack" : "2",
      "longitude" : "120.66837",
      "outDis" : "50",
      "Id" : "5478",
      "oid" : "319311008",
      "districtId" : "1",
      "nameZh" : "高等法院臺中分院",
      "pgp" : "0",
      "terminal" : "0",
      "latitude" : "24.12838",
      "inDis" : "50",
      "routeId" : "60",
      "seqNo" : "42"
   },
   {
      "GoBack" : "2",
      "longitude" : "120.67196",
      "outDis" : "50",
      "Id" : "5393",
      "oid" : "312954998",
      "districtId" : "1",
      "nameZh" : "公共資訊圖書館(復興路)",
      "pgp" : "0",
      "terminal" : "0",
      "latitude" : "24.12985",
      "inDis" : "50",
      "routeId" : "60",
      "seqNo" : "43"
   },
   {
      "GoBack" : "2",
      "longitude" : "120.67364",
      "outDis" : "50",
      "Id" : "0178",
      "oid" : "313E1EE73CDE45C598CDCA5E215AD557",
      "districtId" : "1",
      "nameZh" : "第三分局",
      "pgp" : "0",
      "terminal" : "0",
      "latitude" : "24.13047",
      "inDis" : "50",
      "routeId" : "60",
      "seqNo" : "44"
   },
   {
      "GoBack" : "2",
      "longitude" : "120.67584",
      "outDis" : "50",
      "Id" : "4604",
      "oid" : "A73488A491C64B5B8F2919E5C3685A96",
      "districtId" : "1",
      "nameZh" : "復興有恆街口",
      "pgp" : "0",
      "terminal" : "0",
      "latitude" : "24.13138",
      "inDis" : "50",
      "routeId" : "60",
      "seqNo" : "45"
   },
   {
      "GoBack" : "2",
      "longitude" : "120.67704",
      "outDis" : "50",
      "Id" : "0180",
      "oid" : "BD3CF10D96014276BC5FA6CFEF481AFB",
      "districtId" : "1",
      "nameZh" : "林祖厝",
      "pgp" : "0",
      "terminal" : "0",
      "latitude" : "24.13187",
      "inDis" : "50",
      "routeId" : "60",
      "seqNo" : "46"
   },
   {
      "GoBack" : "2",
      "longitude" : "120.67994",
      "outDis" : "50",
      "Id" : "1659",
      "oid" : "4707B6AB11D748FAA90218F98FA7F773",
      "districtId" : "1",
      "nameZh" : "文化創意園區",
      "pgp" : "0",
      "terminal" : "0",
      "latitude" : "24.13317",
      "inDis" : "50",
      "routeId" : "60",
      "seqNo" : "47"
   },
   {
      "GoBack" : "2",
      "longitude" : "120.68154",
      "outDis" : "50",
      "Id" : "0518",
      "oid" : "99DDB9E7E5D74644A776349363113C49",
      "districtId" : "1",
      "nameZh" : "臺中酒廠(復興路)",
      "pgp" : "0",
      "terminal" : "0",
      "latitude" : "24.1338",
      "inDis" : "50",
      "routeId" : "60",
      "seqNo" : "48"
   },
   {
      "GoBack" : "2",
      "longitude" : "120.68365",
      "outDis" : "50",
      "Id" : "0183",
      "oid" : "130B1DA8504D4B2A9F8A334D3FBF2BC9",
      "districtId" : "1",
      "nameZh" : "臺中家商",
      "pgp" : "0",
      "terminal" : "0",
      "latitude" : "24.13476",
      "inDis" : "50",
      "routeId" : "60",
      "seqNo" : "49"
   },
   {
      "GoBack" : "2",
      "longitude" : "120.6863",
      "outDis" : "50",
      "Id" : "0184",
      "oid" : "8435678D12D147ECA0782190F91D6123",
      "districtId" : "1",
      "nameZh" : "後火車站",
      "pgp" : "0",
      "terminal" : "0",
      "latitude" : "24.13575",
      "inDis" : "50",
      "routeId" : "60",
      "seqNo" : "50"
   },
   {
      "GoBack" : "2",
      "longitude" : "120.68802",
      "outDis" : "50",
      "Id" : "0185",
      "oid" : "4ACCAA534F5148389D4EE5BB59D314C1",
      "districtId" : "1",
      "nameZh" : "新時代購物中心",
      "pgp" : "0",
      "terminal" : "0",
      "latitude" : "24.13596",
      "inDis" : "50",
      "routeId" : "60",
      "seqNo" : "51"
   },
   {
      "GoBack" : "2",
      "longitude" : "120.68985",
      "outDis" : "50",
      "Id" : "0186",
      "oid" : "35B44A3241734F848C1412700167470D",
      "districtId" : "1",
      "nameZh" : "大智忠孝路口",
      "pgp" : "0",
      "terminal" : "0",
      "latitude" : "24.13249",
      "inDis" : "50",
      "routeId" : "60",
      "seqNo" : "52"
   },
   {
      "GoBack" : "2",
      "longitude" : "120.69018",
      "outDis" : "50",
      "Id" : "0249",
      "oid" : "D7A399DCF2D74A65BA260D04BD51A6BB",
      "districtId" : "1",
      "nameZh" : "大智建成路口",
      "pgp" : "0",
      "terminal" : "0",
      "latitude" : "24.13126",
      "inDis" : "50",
      "routeId" : "60",
      "seqNo" : "53"
   },
   {
      "GoBack" : "2",
      "longitude" : "120.69021",
      "outDis" : "50",
      "Id" : "0363",
      "oid" : "D410F8C86E544D8EB3E852AD9587CCEE",
      "districtId" : "1",
      "nameZh" : "大智國小",
      "pgp" : "0",
      "terminal" : "0",
      "latitude" : "24.12913",
      "inDis" : "50",
      "routeId" : "60",
      "seqNo" : "54"
   },
   {
      "GoBack" : "2",
      "longitude" : "120.68861",
      "outDis" : "50",
      "Id" : "0362",
      "oid" : "D77C356E25B9485CA40DA101AC6F351E",
      "districtId" : "1",
      "nameZh" : "大智公園",
      "pgp" : "0",
      "terminal" : "0",
      "latitude" : "24.12585",
      "inDis" : "50",
      "routeId" : "60",
      "seqNo" : "55"
   }
]
