[
   {
      "GoBack" : "1",
      "longitude" : "120.68454",
      "outDis" : "50",
      "Id" : "0041",
      "oid" : "314645FDF60940078BE986CB3FD319BB",
      "districtId" : "1",
      "nameZh" : "臺中火車站",
      "pgp" : "0",
      "terminal" : "0",
      "latitude" : "24.13753",
      "inDis" : "50",
      "routeId" : "115",
      "seqNo" : "1"
   },
   {
      "GoBack" : "1",
      "longitude" : "120.67981",
      "outDis" : "50",
      "Id" : "4395",
      "oid" : "8240",
      "districtId" : "1",
      "nameZh" : "第二市場(臺灣大道)",
      "pgp" : "0",
      "terminal" : "0",
      "latitude" : "24.14266",
      "inDis" : "50",
      "routeId" : "115",
      "seqNo" : "2"
   },
   {
      "GoBack" : "1",
      "longitude" : "120.68212",
      "outDis" : "50",
      "Id" : "4543",
      "oid" : "7313",
      "districtId" : "1",
      "nameZh" : "臺中公園(三民路)",
      "pgp" : "0",
      "terminal" : "0",
      "latitude" : "24.14507",
      "inDis" : "50",
      "routeId" : "115",
      "seqNo" : "3"
   },
   {
      "GoBack" : "1",
      "longitude" : "120.68409",
      "outDis" : "50",
      "Id" : "0045",
      "oid" : "7355",
      "districtId" : "1",
      "nameZh" : "國立臺中科技大學",
      "pgp" : "0",
      "terminal" : "0",
      "latitude" : "24.14973",
      "inDis" : "50",
      "routeId" : "115",
      "seqNo" : "4"
   },
   {
      "GoBack" : "1",
      "longitude" : "120.68502",
      "outDis" : "50",
      "Id" : "0046",
      "oid" : "7252",
      "districtId" : "1",
      "nameZh" : "中友百貨",
      "pgp" : "0",
      "terminal" : "0",
      "latitude" : "24.15198",
      "inDis" : "50",
      "routeId" : "115",
      "seqNo" : "5"
   },
   {
      "GoBack" : "1",
      "longitude" : "120.68388",
      "outDis" : "50",
      "Id" : "3772",
      "oid" : "FDF35AF7F60C4B21BAA26E1BABE27665",
      "districtId" : "1",
      "nameZh" : "五權學士路口",
      "pgp" : "0",
      "terminal" : "0",
      "latitude" : "24.1538",
      "inDis" : "50",
      "routeId" : "115",
      "seqNo" : "6"
   },
   {
      "GoBack" : "1",
      "longitude" : "120.68025",
      "outDis" : "50",
      "Id" : "0146",
      "oid" : "775A69C7576A434FA592848C3CF817C3",
      "districtId" : "1",
      "nameZh" : "五常里",
      "pgp" : "0",
      "terminal" : "0",
      "latitude" : "24.15236",
      "inDis" : "50",
      "routeId" : "115",
      "seqNo" : "7"
   },
   {
      "GoBack" : "1",
      "longitude" : "120.67733",
      "outDis" : "50",
      "Id" : "0503",
      "oid" : "4BF41FD8F19248D1B76E3E931E9CD31C",
      "districtId" : "1",
      "nameZh" : "臺中二中",
      "pgp" : "0",
      "terminal" : "0",
      "latitude" : "24.15247",
      "inDis" : "50",
      "routeId" : "115",
      "seqNo" : "8"
   },
   {
      "GoBack" : "1",
      "longitude" : "120.67292",
      "outDis" : "50",
      "Id" : "5737",
      "oid" : "E99A845B157C499293492F1879F0D1B0",
      "districtId" : "1",
      "nameZh" : "曉明女中(中清路)",
      "pgp" : "0",
      "terminal" : "0",
      "latitude" : "24.16835",
      "inDis" : "50",
      "routeId" : "115",
      "seqNo" : "11"
   },
   {
      "GoBack" : "1",
      "longitude" : "120.67218",
      "outDis" : "50",
      "Id" : "1629",
      "oid" : "CFDB0D0FFB664D12983DAF2181610824",
      "districtId" : "1",
      "nameZh" : "天津路商圈",
      "pgp" : "0",
      "terminal" : "0",
      "latitude" : "24.17062",
      "inDis" : "50",
      "routeId" : "115",
      "seqNo" : "12"
   },
   {
      "GoBack" : "1",
      "longitude" : "120.67197",
      "outDis" : "50",
      "Id" : "0805",
      "oid" : "3629",
      "districtId" : "1",
      "nameZh" : "頂賴厝",
      "pgp" : "0",
      "terminal" : "0",
      "latitude" : "24.17206",
      "inDis" : "50",
      "routeId" : "115",
      "seqNo" : "13"
   },
   {
      "GoBack" : "1",
      "longitude" : "120.67094",
      "outDis" : "50",
      "Id" : "0334",
      "oid" : "3630",
      "districtId" : "1",
      "nameZh" : "下水湳",
      "pgp" : "0",
      "terminal" : "0",
      "latitude" : "24.1754",
      "inDis" : "50",
      "routeId" : "115",
      "seqNo" : "15"
   },
   {
      "GoBack" : "1",
      "longitude" : "120.66924",
      "outDis" : "50",
      "Id" : "5100",
      "oid" : "F5EB53C1EF5B4DCAA43053FB83D23951",
      "districtId" : "1",
      "nameZh" : "水湳市場(中清路)",
      "pgp" : "0",
      "terminal" : "0",
      "latitude" : "24.17752",
      "inDis" : "50",
      "routeId" : "115",
      "seqNo" : "16"
   },
   {
      "GoBack" : "1",
      "longitude" : "120.66845",
      "outDis" : "50",
      "Id" : "0385",
      "oid" : "3633",
      "districtId" : "1",
      "nameZh" : "大德國中",
      "pgp" : "0",
      "terminal" : "0",
      "latitude" : "24.17865",
      "inDis" : "50",
      "routeId" : "115",
      "seqNo" : "17"
   },
   {
      "GoBack" : "1",
      "longitude" : "120.66053",
      "outDis" : "50",
      "Id" : "3293",
      "oid" : "3640",
      "districtId" : "1",
      "nameZh" : "貿易三村",
      "pgp" : "0",
      "terminal" : "0",
      "latitude" : "24.1922",
      "inDis" : "50",
      "routeId" : "115",
      "seqNo" : "21"
   },
   {
      "GoBack" : "1",
      "longitude" : "120.65632",
      "outDis" : "40",
      "Id" : "1475",
      "oid" : "3644",
      "districtId" : "1",
      "nameZh" : "中清環中路口",
      "pgp" : "0",
      "terminal" : "0",
      "latitude" : "24.19867",
      "inDis" : "40",
      "routeId" : "115",
      "seqNo" : "22"
   },
   {
      "GoBack" : "1",
      "longitude" : "120.65529",
      "outDis" : "40",
      "Id" : "0827",
      "oid" : "3643",
      "districtId" : "1",
      "nameZh" : "港尾",
      "pgp" : "0",
      "terminal" : "0",
      "latitude" : "24.20082",
      "inDis" : "40",
      "routeId" : "115",
      "seqNo" : "23"
   },
   {
      "GoBack" : "1",
      "longitude" : "120.65253",
      "outDis" : "50",
      "Id" : "0936",
      "oid" : "3646",
      "districtId" : "1",
      "nameZh" : "頭張(中清路)",
      "pgp" : "0",
      "terminal" : "0",
      "latitude" : "24.20585",
      "inDis" : "50",
      "routeId" : "115",
      "seqNo" : "25"
   },
   {
      "GoBack" : "1",
      "longitude" : "120.64975",
      "outDis" : "50",
      "Id" : "1345",
      "oid" : "3650",
      "districtId" : "1",
      "nameZh" : "大華國中",
      "pgp" : "0",
      "terminal" : "0",
      "latitude" : "24.21445",
      "inDis" : "50",
      "routeId" : "115",
      "seqNo" : "27"
   },
   {
      "GoBack" : "1",
      "longitude" : "120.64843",
      "outDis" : "50",
      "Id" : "4306",
      "oid" : "51754502",
      "districtId" : "1",
      "nameZh" : "中清雅潭路口",
      "pgp" : "0",
      "terminal" : "0",
      "latitude" : "24.21925",
      "inDis" : "50",
      "routeId" : "115",
      "seqNo" : "29"
   },
   {
      "GoBack" : "1",
      "longitude" : "120.64789",
      "outDis" : "50",
      "Id" : "1346",
      "oid" : "7231",
      "districtId" : "1",
      "nameZh" : "大雅",
      "pgp" : "0",
      "terminal" : "0",
      "latitude" : "24.22364",
      "inDis" : "50",
      "routeId" : "115",
      "seqNo" : "30"
   },
   {
      "GoBack" : "1",
      "longitude" : "120.64715",
      "outDis" : "50",
      "Id" : "1620",
      "oid" : "51754506",
      "districtId" : "1",
      "nameZh" : "大雅分駐所",
      "pgp" : "0",
      "terminal" : "0",
      "latitude" : "24.22458",
      "inDis" : "50",
      "routeId" : "115",
      "seqNo" : "31"
   },
   {
      "GoBack" : "1",
      "longitude" : "120.63124",
      "outDis" : "50",
      "Id" : "1591",
      "oid" : "EBFADEDA761C48B5A70E45E3540BABF4",
      "districtId" : "1",
      "nameZh" : "六張犁",
      "pgp" : "0",
      "terminal" : "0",
      "latitude" : "24.24015",
      "inDis" : "50",
      "routeId" : "115",
      "seqNo" : "35"
   },
   {
      "GoBack" : "1",
      "longitude" : "120.61754",
      "outDis" : "50",
      "Id" : "4960",
      "oid" : "307906617",
      "districtId" : "1",
      "nameZh" : "中清清泉路口",
      "pgp" : "0",
      "terminal" : "0",
      "latitude" : "24.24333",
      "inDis" : "50",
      "routeId" : "115",
      "seqNo" : "38"
   },
   {
      "GoBack" : "1",
      "longitude" : "120.61246",
      "outDis" : "50",
      "Id" : "3023",
      "oid" : "8C84B47347CD45B38DCE2D3DC6646723",
      "districtId" : "1",
      "nameZh" : "清泉里",
      "pgp" : "0",
      "terminal" : "0",
      "latitude" : "24.24501",
      "inDis" : "50",
      "routeId" : "115",
      "seqNo" : "40"
   },
   {
      "GoBack" : "1",
      "longitude" : "120.60824",
      "outDis" : "50",
      "Id" : "1604",
      "oid" : "3E8D6863D7C6417AB4B68003C95F12DE",
      "districtId" : "1",
      "nameZh" : "公明里",
      "pgp" : "0",
      "terminal" : "0",
      "latitude" : "24.24655",
      "inDis" : "50",
      "routeId" : "115",
      "seqNo" : "42"
   },
   {
      "GoBack" : "1",
      "longitude" : "120.59899",
      "outDis" : "50",
      "Id" : "0135",
      "oid" : "312174380",
      "districtId" : "1",
      "nameZh" : "臺中航空站",
      "pgp" : "0",
      "terminal" : "0",
      "latitude" : "24.25348",
      "inDis" : "50",
      "routeId" : "115",
      "seqNo" : "47"
   },
   {
      "GoBack" : "2",
      "longitude" : "120.59899",
      "outDis" : "50",
      "Id" : "0135",
      "oid" : "312174380",
      "districtId" : "1",
      "nameZh" : "臺中航空站",
      "pgp" : "0",
      "terminal" : "0",
      "latitude" : "24.25348",
      "inDis" : "50",
      "routeId" : "115",
      "seqNo" : "1"
   },
   {
      "GoBack" : "2",
      "longitude" : "120.60785",
      "outDis" : "50",
      "Id" : "1604",
      "oid" : "AE4C3140184F49D6B88FC8667073D6B7",
      "districtId" : "1",
      "nameZh" : "公明里",
      "pgp" : "0",
      "terminal" : "0",
      "latitude" : "24.24656",
      "inDis" : "50",
      "routeId" : "115",
      "seqNo" : "6"
   },
   {
      "GoBack" : "2",
      "longitude" : "120.61255",
      "outDis" : "50",
      "Id" : "3023",
      "oid" : "C4AB882CAECF4C7A9F845BDD22F7A36F",
      "districtId" : "1",
      "nameZh" : "清泉里",
      "pgp" : "0",
      "terminal" : "0",
      "latitude" : "24.24485",
      "inDis" : "50",
      "routeId" : "115",
      "seqNo" : "8"
   },
   {
      "GoBack" : "2",
      "longitude" : "120.61757",
      "outDis" : "50",
      "Id" : "4960",
      "oid" : "307906618",
      "districtId" : "1",
      "nameZh" : "中清清泉路口",
      "pgp" : "0",
      "terminal" : "0",
      "latitude" : "24.24336",
      "inDis" : "50",
      "routeId" : "115",
      "seqNo" : "9"
   },
   {
      "GoBack" : "2",
      "longitude" : "120.63098",
      "outDis" : "50",
      "Id" : "1591",
      "oid" : "31AFE6DBC2714D539196C066CBC20B32",
      "districtId" : "1",
      "nameZh" : "六張犁",
      "pgp" : "0",
      "terminal" : "0",
      "latitude" : "24.24016",
      "inDis" : "50",
      "routeId" : "115",
      "seqNo" : "12"
   },
   {
      "GoBack" : "2",
      "longitude" : "120.64612",
      "outDis" : "50",
      "Id" : "1620",
      "oid" : "51754537",
      "districtId" : "1",
      "nameZh" : "大雅分駐所",
      "pgp" : "0",
      "terminal" : "0",
      "latitude" : "24.22538",
      "inDis" : "50",
      "routeId" : "115",
      "seqNo" : "16"
   },
   {
      "GoBack" : "2",
      "longitude" : "120.64799",
      "outDis" : "50",
      "Id" : "1346",
      "oid" : "7232",
      "districtId" : "1",
      "nameZh" : "大雅",
      "pgp" : "0",
      "terminal" : "0",
      "latitude" : "24.22326",
      "inDis" : "50",
      "routeId" : "115",
      "seqNo" : "17"
   },
   {
      "GoBack" : "2",
      "longitude" : "120.64747",
      "outDis" : "50",
      "Id" : "4306",
      "oid" : "51754541",
      "districtId" : "1",
      "nameZh" : "中清雅潭路口",
      "pgp" : "0",
      "terminal" : "0",
      "latitude" : "24.22107",
      "inDis" : "50",
      "routeId" : "115",
      "seqNo" : "18"
   },
   {
      "GoBack" : "2",
      "longitude" : "120.64923",
      "outDis" : "50",
      "Id" : "1345",
      "oid" : "3567",
      "districtId" : "1",
      "nameZh" : "大華國中",
      "pgp" : "0",
      "terminal" : "0",
      "latitude" : "24.21552",
      "inDis" : "50",
      "routeId" : "115",
      "seqNo" : "20"
   },
   {
      "GoBack" : "2",
      "longitude" : "120.65228",
      "outDis" : "50",
      "Id" : "0936",
      "oid" : "3571",
      "districtId" : "1",
      "nameZh" : "頭張(中清路)",
      "pgp" : "0",
      "terminal" : "0",
      "latitude" : "24.20578",
      "inDis" : "50",
      "routeId" : "115",
      "seqNo" : "22"
   },
   {
      "GoBack" : "2",
      "longitude" : "120.65531",
      "outDis" : "40",
      "Id" : "0827",
      "oid" : "3574",
      "districtId" : "1",
      "nameZh" : "港尾",
      "pgp" : "0",
      "terminal" : "0",
      "latitude" : "24.20047",
      "inDis" : "40",
      "routeId" : "115",
      "seqNo" : "24"
   },
   {
      "GoBack" : "2",
      "longitude" : "120.65632",
      "outDis" : "40",
      "Id" : "1475",
      "oid" : "3644",
      "districtId" : "1",
      "nameZh" : "中清環中路口",
      "pgp" : "0",
      "terminal" : "0",
      "latitude" : "24.19867",
      "inDis" : "40",
      "routeId" : "115",
      "seqNo" : "25"
   },
   {
      "GoBack" : "2",
      "longitude" : "120.6603",
      "outDis" : "50",
      "Id" : "3293",
      "oid" : "3577",
      "districtId" : "1",
      "nameZh" : "貿易三村",
      "pgp" : "0",
      "terminal" : "0",
      "latitude" : "24.19189",
      "inDis" : "50",
      "routeId" : "115",
      "seqNo" : "27"
   },
   {
      "GoBack" : "2",
      "longitude" : "120.66795",
      "outDis" : "50",
      "Id" : "0385",
      "oid" : "3584",
      "districtId" : "1",
      "nameZh" : "大德國中",
      "pgp" : "0",
      "terminal" : "0",
      "latitude" : "24.17882",
      "inDis" : "50",
      "routeId" : "115",
      "seqNo" : "30"
   },
   {
      "GoBack" : "2",
      "longitude" : "120.66913",
      "outDis" : "50",
      "Id" : "5100",
      "oid" : "4F52D835029449C8BD22F20FA8117303",
      "districtId" : "1",
      "nameZh" : "水湳市場(中清路)",
      "pgp" : "0",
      "terminal" : "0",
      "latitude" : "24.17745",
      "inDis" : "50",
      "routeId" : "115",
      "seqNo" : "31"
   },
   {
      "GoBack" : "2",
      "longitude" : "120.67094",
      "outDis" : "50",
      "Id" : "0334",
      "oid" : "3630",
      "districtId" : "1",
      "nameZh" : "下水湳",
      "pgp" : "0",
      "terminal" : "0",
      "latitude" : "24.1754",
      "inDis" : "50",
      "routeId" : "115",
      "seqNo" : "32"
   },
   {
      "GoBack" : "2",
      "longitude" : "120.67197",
      "outDis" : "50",
      "Id" : "0805",
      "oid" : "3588",
      "districtId" : "1",
      "nameZh" : "頂賴厝",
      "pgp" : "0",
      "terminal" : "0",
      "latitude" : "24.17206",
      "inDis" : "50",
      "routeId" : "115",
      "seqNo" : "33"
   },
   {
      "GoBack" : "2",
      "longitude" : "120.6722",
      "outDis" : "50",
      "Id" : "1629",
      "oid" : "22DFBF09B3AC420A94E90318A07C24F7",
      "districtId" : "1",
      "nameZh" : "天津路商圈",
      "pgp" : "0",
      "terminal" : "0",
      "latitude" : "24.16994",
      "inDis" : "50",
      "routeId" : "115",
      "seqNo" : "34"
   },
   {
      "GoBack" : "2",
      "longitude" : "120.67277",
      "outDis" : "50",
      "Id" : "5737",
      "oid" : "EEE57A6B18F14F22BCCD9F06A436A8C2",
      "districtId" : "1",
      "nameZh" : "曉明女中(中清路)",
      "pgp" : "0",
      "terminal" : "0",
      "latitude" : "24.16844",
      "inDis" : "50",
      "routeId" : "115",
      "seqNo" : "35"
   },
   {
      "GoBack" : "2",
      "longitude" : "120.67738",
      "outDis" : "50",
      "Id" : "0503",
      "oid" : "508C089B09C9497197A11B24888C9B23",
      "districtId" : "1",
      "nameZh" : "臺中二中",
      "pgp" : "0",
      "terminal" : "0",
      "latitude" : "24.15247",
      "inDis" : "50",
      "routeId" : "115",
      "seqNo" : "39"
   },
   {
      "GoBack" : "2",
      "longitude" : "120.68025",
      "outDis" : "50",
      "Id" : "0146",
      "oid" : "775A69C7576A434FA592848C3CF817C3",
      "districtId" : "1",
      "nameZh" : "五常里",
      "pgp" : "0",
      "terminal" : "0",
      "latitude" : "24.15236",
      "inDis" : "50",
      "routeId" : "115",
      "seqNo" : "40"
   },
   {
      "GoBack" : "2",
      "longitude" : "120.68198",
      "outDis" : "50",
      "Id" : "3772",
      "oid" : "E0FE906A836D4E138560F8385DE486B8",
      "districtId" : "1",
      "nameZh" : "五權學士路口",
      "pgp" : "0",
      "terminal" : "0",
      "latitude" : "24.15318",
      "inDis" : "50",
      "routeId" : "115",
      "seqNo" : "41"
   },
   {
      "GoBack" : "2",
      "longitude" : "120.68506",
      "outDis" : "50",
      "Id" : "0046",
      "oid" : "7253",
      "districtId" : "1",
      "nameZh" : "中友百貨",
      "pgp" : "0",
      "terminal" : "0",
      "latitude" : "24.15209",
      "inDis" : "50",
      "routeId" : "115",
      "seqNo" : "42"
   },
   {
      "GoBack" : "2",
      "longitude" : "120.68393",
      "outDis" : "50",
      "Id" : "0045",
      "oid" : "7356",
      "districtId" : "1",
      "nameZh" : "國立臺中科技大學",
      "pgp" : "0",
      "terminal" : "0",
      "latitude" : "24.14961",
      "inDis" : "50",
      "routeId" : "115",
      "seqNo" : "43"
   },
   {
      "GoBack" : "2",
      "longitude" : "120.68243",
      "outDis" : "50",
      "Id" : "4543",
      "oid" : "7315",
      "districtId" : "1",
      "nameZh" : "臺中公園(三民路)",
      "pgp" : "0",
      "terminal" : "0",
      "latitude" : "24.14584",
      "inDis" : "50",
      "routeId" : "115",
      "seqNo" : "44"
   },
   {
      "GoBack" : "2",
      "longitude" : "120.67977",
      "outDis" : "50",
      "Id" : "4609",
      "oid" : "3706",
      "districtId" : "1",
      "nameZh" : "第二市場(三民路)",
      "pgp" : "0",
      "terminal" : "0",
      "latitude" : "24.14267",
      "inDis" : "50",
      "routeId" : "115",
      "seqNo" : "45"
   },
   {
      "GoBack" : "2",
      "longitude" : "120.68469",
      "outDis" : "50",
      "Id" : "1824",
      "oid" : "475945820A884C94AC1C14ECA280A6A6",
      "districtId" : "1",
      "nameZh" : "臺中火車站",
      "pgp" : "0",
      "terminal" : "0",
      "latitude" : "24.13732",
      "inDis" : "50",
      "routeId" : "115",
      "seqNo" : "47"
   }
]
