[
   {
      "GoBack" : "1",
      "longitude" : "120.64544",
      "outDis" : "50",
      "Id" : "2818",
      "oid" : "7369E9D28C0948A08052AE1BBC27991A",
      "districtId" : "1",
      "nameZh" : "烏日停車場",
      "pgp" : "0",
      "terminal" : "0",
      "latitude" : "24.10404",
      "inDis" : "50",
      "routeId" : "69繞",
      "seqNo" : "1"
   },
   {
      "GoBack" : "1",
      "longitude" : "120.64138",
      "outDis" : "50",
      "Id" : "0994",
      "oid" : "6F8F8A7DF94A4D2E94A4C2662D22B76F",
      "districtId" : "1",
      "nameZh" : "九張犁",
      "pgp" : "0",
      "terminal" : "0",
      "latitude" : "24.10887",
      "inDis" : "50",
      "routeId" : "69繞",
      "seqNo" : "2"
   },
   {
      "GoBack" : "1",
      "longitude" : "120.6384",
      "outDis" : "50",
      "Id" : "2366",
      "oid" : "CAB262DF731B446CAFBF21C0AC89C11F",
      "districtId" : "1",
      "nameZh" : "明道花園城",
      "pgp" : "0",
      "terminal" : "0",
      "latitude" : "24.10795",
      "inDis" : "50",
      "routeId" : "69繞",
      "seqNo" : "3"
   },
   {
      "GoBack" : "1",
      "longitude" : "120.63665",
      "outDis" : "50",
      "Id" : "2365",
      "oid" : "342B228353A0458CB9C2D6C4AD2CE094",
      "districtId" : "1",
      "nameZh" : "明道中學",
      "pgp" : "0",
      "terminal" : "0",
      "latitude" : "24.10731",
      "inDis" : "50",
      "routeId" : "69繞",
      "seqNo" : "4"
   },
   {
      "GoBack" : "1",
      "longitude" : "120.63294",
      "outDis" : "50",
      "Id" : "2821",
      "oid" : "7377",
      "districtId" : "1",
      "nameZh" : "烏日橋",
      "pgp" : "0",
      "terminal" : "0",
      "latitude" : "24.10581",
      "inDis" : "50",
      "routeId" : "69繞",
      "seqNo" : "5"
   },
   {
      "GoBack" : "1",
      "longitude" : "120.62803",
      "outDis" : "50",
      "Id" : "1454",
      "oid" : "4433E21C61D946BDB0C437A532A5960C",
      "districtId" : "1",
      "nameZh" : "中和紡織",
      "pgp" : "0",
      "terminal" : "0",
      "latitude" : "24.1058",
      "inDis" : "50",
      "routeId" : "69繞",
      "seqNo" : "6"
   },
   {
      "GoBack" : "1",
      "longitude" : "120.62631",
      "outDis" : "50",
      "Id" : "4660",
      "oid" : "AAF6EB0AFD4046C9A2273E4A0C6F2E4B",
      "districtId" : "1",
      "nameZh" : "中山五光路口",
      "pgp" : "0",
      "terminal" : "0",
      "latitude" : "24.10608",
      "inDis" : "50",
      "routeId" : "69繞",
      "seqNo" : "7"
   },
   {
      "GoBack" : "1",
      "longitude" : "120.62265",
      "outDis" : "50",
      "Id" : "2816",
      "oid" : "FF9E0CF50FCF459487DCEA51624B8CD9",
      "districtId" : "1",
      "nameZh" : "烏日",
      "pgp" : "0",
      "terminal" : "0",
      "latitude" : "24.10643",
      "inDis" : "50",
      "routeId" : "69繞",
      "seqNo" : "8"
   },
   {
      "GoBack" : "1",
      "longitude" : "120.61742",
      "outDis" : "50",
      "Id" : "2820",
      "oid" : "43AE4EBA5915453A8E79716A1A633F75",
      "districtId" : "1",
      "nameZh" : "烏日國中",
      "pgp" : "0",
      "terminal" : "0",
      "latitude" : "24.10628",
      "inDis" : "50",
      "routeId" : "69繞",
      "seqNo" : "9"
   },
   {
      "GoBack" : "1",
      "longitude" : "120.61572",
      "outDis" : "50",
      "Id" : "2907",
      "oid" : "310692256",
      "districtId" : "1",
      "nameZh" : "高鐵台中站(17月台)",
      "pgp" : "0",
      "terminal" : "0",
      "latitude" : "24.1138",
      "inDis" : "50",
      "routeId" : "69繞",
      "seqNo" : "11"
   },
   {
      "GoBack" : "1",
      "longitude" : "120.61433",
      "outDis" : "50",
      "Id" : "5003",
      "oid" : "309414075",
      "districtId" : "1",
      "nameZh" : "國際會展中心",
      "pgp" : "0",
      "terminal" : "0",
      "latitude" : "24.11704",
      "inDis" : "50",
      "routeId" : "69繞",
      "seqNo" : "12"
   },
   {
      "GoBack" : "1",
      "longitude" : "120.63454",
      "outDis" : "50",
      "Id" : "4641",
      "oid" : "266EFCED1DCA46FEBE4B33A31C3525DC",
      "districtId" : "1",
      "nameZh" : "市政黎明路口",
      "pgp" : "0",
      "terminal" : "0",
      "latitude" : "24.1612",
      "inDis" : "50",
      "routeId" : "69繞",
      "seqNo" : "18"
   },
   {
      "GoBack" : "1",
      "longitude" : "120.63952",
      "outDis" : "50",
      "Id" : "0055",
      "oid" : "C4EC055D06574FD2B3326219B703A35A",
      "districtId" : "1",
      "nameZh" : "第六分局",
      "pgp" : "0",
      "terminal" : "0",
      "latitude" : "24.15948",
      "inDis" : "50",
      "routeId" : "69繞",
      "seqNo" : "19"
   },
   {
      "GoBack" : "1",
      "longitude" : "120.64146",
      "outDis" : "50",
      "Id" : "5726",
      "oid" : "DE4BD68AA3E64AD39B8F6321C9D35147",
      "districtId" : "1",
      "nameZh" : "臺中國家歌劇院",
      "pgp" : "0",
      "terminal" : "0",
      "latitude" : "24.16247",
      "inDis" : "50",
      "routeId" : "69繞",
      "seqNo" : "20"
   },
   {
      "GoBack" : "1",
      "longitude" : "120.64206",
      "outDis" : "50",
      "Id" : "0015",
      "oid" : "D5CCD6C2B3CE4F0B93975B1E59FAAE73",
      "districtId" : "1",
      "nameZh" : "教師新村",
      "pgp" : "0",
      "terminal" : "0",
      "latitude" : "24.16723",
      "inDis" : "50",
      "routeId" : "69繞",
      "seqNo" : "21"
   },
   {
      "GoBack" : "1",
      "longitude" : "120.63964",
      "outDis" : "50",
      "Id" : "0826",
      "oid" : "90FEB638BFAB47C3B4CDD85AC71DFD68",
      "districtId" : "1",
      "nameZh" : "秋紅谷(朝陽橋)",
      "pgp" : "0",
      "terminal" : "0",
      "latitude" : "24.16902",
      "inDis" : "50",
      "routeId" : "69繞",
      "seqNo" : "22"
   },
   {
      "GoBack" : "1",
      "longitude" : "120.63717",
      "outDis" : "50",
      "Id" : "0054",
      "oid" : "313524993",
      "districtId" : "1",
      "nameZh" : "朝馬(臺灣大道)",
      "pgp" : "0",
      "terminal" : "0",
      "latitude" : "24.17059",
      "inDis" : "50",
      "routeId" : "69繞",
      "seqNo" : "23"
   },
   {
      "GoBack" : "1",
      "longitude" : "120.62067",
      "outDis" : "50",
      "Id" : "3060",
      "oid" : "0FAC9CB4208D4C3D832BB108B18EA4A1",
      "districtId" : "1",
      "nameZh" : "統聯轉運站",
      "pgp" : "0",
      "terminal" : "0",
      "latitude" : "24.18029",
      "inDis" : "50",
      "routeId" : "69繞",
      "seqNo" : "24"
   },
   {
      "GoBack" : "1",
      "longitude" : "120.62018",
      "outDis" : "50",
      "Id" : "0008",
      "oid" : "B711A22EE2CB4DA298898B95623AAE80",
      "districtId" : "1",
      "nameZh" : "中港新城",
      "pgp" : "0",
      "terminal" : "0",
      "latitude" : "24.18086",
      "inDis" : "50",
      "routeId" : "69繞",
      "seqNo" : "25"
   },
   {
      "GoBack" : "1",
      "longitude" : "120.61603",
      "outDis" : "50",
      "Id" : "0430",
      "oid" : "A2F7C954F10845BEABABA02CAE613260",
      "districtId" : "1",
      "nameZh" : "中港澄清醫院",
      "pgp" : "0",
      "terminal" : "0",
      "latitude" : "24.18288",
      "inDis" : "50",
      "routeId" : "69繞",
      "seqNo" : "26"
   },
   {
      "GoBack" : "1",
      "longitude" : "120.61288",
      "outDis" : "50",
      "Id" : "0006",
      "oid" : "0E1D672CEDAB4866B2B4EB3BEB40EAB1",
      "districtId" : "1",
      "nameZh" : "臺中捐血中心",
      "pgp" : "0",
      "terminal" : "0",
      "latitude" : "24.18441",
      "inDis" : "50",
      "routeId" : "69繞",
      "seqNo" : "27"
   },
   {
      "GoBack" : "1",
      "longitude" : "120.61064",
      "outDis" : "50",
      "Id" : "4335",
      "oid" : "E68E82946C7B4F86964918B2D3F1CBE1",
      "districtId" : "1",
      "nameZh" : "臺灣大道玉門路口",
      "pgp" : "0",
      "terminal" : "0",
      "latitude" : "24.18469",
      "inDis" : "50",
      "routeId" : "69繞",
      "seqNo" : "28"
   },
   {
      "GoBack" : "1",
      "longitude" : "120.6084",
      "outDis" : "50",
      "Id" : "0004",
      "oid" : "381B767428B24AD8B508493A2FEF6901",
      "districtId" : "1",
      "nameZh" : "普濟寺",
      "pgp" : "0",
      "terminal" : "0",
      "latitude" : "24.18432",
      "inDis" : "50",
      "routeId" : "69繞",
      "seqNo" : "29"
   },
   {
      "GoBack" : "1",
      "longitude" : "120.60645",
      "outDis" : "50",
      "Id" : "2378",
      "oid" : "31948917D9F048CBAC6FFA93129CD69E",
      "districtId" : "1",
      "nameZh" : "東大附中",
      "pgp" : "0",
      "terminal" : "0",
      "latitude" : "24.18384",
      "inDis" : "50",
      "routeId" : "69繞",
      "seqNo" : "30"
   },
   {
      "GoBack" : "1",
      "longitude" : "120.60491",
      "outDis" : "50",
      "Id" : "5386",
      "oid" : "C5D833ED7FD543EE8C99B0FFD92BCF11",
      "districtId" : "1",
      "nameZh" : "臺中榮總(臺灣大道)",
      "pgp" : "0",
      "terminal" : "0",
      "latitude" : "24.18349",
      "inDis" : "50",
      "routeId" : "69繞",
      "seqNo" : "31"
   },
   {
      "GoBack" : "1",
      "longitude" : "120.60269",
      "outDis" : "50",
      "Id" : "0884",
      "oid" : "41DF02298FE54CE59504F36F00744181",
      "districtId" : "1",
      "nameZh" : "臺中榮總(東大路)",
      "pgp" : "0",
      "terminal" : "0",
      "latitude" : "24.18347",
      "inDis" : "50",
      "routeId" : "69繞",
      "seqNo" : "32"
   },
   {
      "GoBack" : "1",
      "longitude" : "120.60435",
      "outDis" : "50",
      "Id" : "0868",
      "oid" : "01E91CD5B2604033A67B44FE1C51BF6B",
      "districtId" : "1",
      "nameZh" : "瑞聯天地",
      "pgp" : "0",
      "terminal" : "0",
      "latitude" : "24.18676",
      "inDis" : "50",
      "routeId" : "69繞",
      "seqNo" : "33"
   },
   {
      "GoBack" : "1",
      "longitude" : "120.60496",
      "outDis" : "50",
      "Id" : "1544",
      "oid" : "314570243",
      "districtId" : "1",
      "nameZh" : "五龍公園",
      "pgp" : "0",
      "terminal" : "0",
      "latitude" : "24.18794",
      "inDis" : "50",
      "routeId" : "69繞",
      "seqNo" : "34"
   },
   {
      "GoBack" : "1",
      "longitude" : "120.60575",
      "outDis" : "50",
      "Id" : "0886",
      "oid" : "895E510BE19848DBA178BFBB59A9631E",
      "districtId" : "1",
      "nameZh" : "榮總北院(精神科)",
      "pgp" : "0",
      "terminal" : "0",
      "latitude" : "24.18928",
      "inDis" : "50",
      "routeId" : "69繞",
      "seqNo" : "35"
   },
   {
      "GoBack" : "1",
      "longitude" : "120.60681",
      "outDis" : "50",
      "Id" : "5129",
      "oid" : "D339574A3B1342269711089E7EE5438C",
      "districtId" : "1",
      "nameZh" : "國安社區",
      "pgp" : "0",
      "terminal" : "0",
      "latitude" : "24.19321",
      "inDis" : "50",
      "routeId" : "69繞",
      "seqNo" : "36"
   },
   {
      "GoBack" : "1",
      "longitude" : "120.60963",
      "outDis" : "80",
      "Id" : "1461",
      "oid" : "305768943",
      "districtId" : "1",
      "nameZh" : "中科站",
      "pgp" : "0",
      "terminal" : "0",
      "latitude" : "24.20042",
      "inDis" : "50",
      "routeId" : "69繞",
      "seqNo" : "37"
   },
   {
      "GoBack" : "1",
      "longitude" : "120.61095",
      "outDis" : "50",
      "Id" : "4720",
      "oid" : "306613476",
      "districtId" : "1",
      "nameZh" : "格網中心",
      "pgp" : "0",
      "terminal" : "0",
      "latitude" : "24.20384",
      "inDis" : "50",
      "routeId" : "69繞",
      "seqNo" : "38"
   },
   {
      "GoBack" : "1",
      "longitude" : "120.61182",
      "outDis" : "50",
      "Id" : "5336",
      "oid" : "311348241",
      "districtId" : "1",
      "nameZh" : "營區口",
      "pgp" : "0",
      "terminal" : "0",
      "latitude" : "24.20759",
      "inDis" : "50",
      "routeId" : "69繞",
      "seqNo" : "39"
   },
   {
      "GoBack" : "1",
      "longitude" : "120.61491",
      "outDis" : "50",
      "Id" : "5337",
      "oid" : "311348242",
      "districtId" : "1",
      "nameZh" : "清泉崗靶場",
      "pgp" : "0",
      "terminal" : "0",
      "latitude" : "24.21816",
      "inDis" : "50",
      "routeId" : "69繞",
      "seqNo" : "40"
   },
   {
      "GoBack" : "1",
      "longitude" : "120.61335",
      "outDis" : "50",
      "Id" : "5338",
      "oid" : "311348243",
      "districtId" : "1",
      "nameZh" : "大度山墓園寶塔",
      "pgp" : "0",
      "terminal" : "0",
      "latitude" : "24.22785",
      "inDis" : "50",
      "routeId" : "69繞",
      "seqNo" : "41"
   },
   {
      "GoBack" : "1",
      "longitude" : "120.6141",
      "outDis" : "50",
      "Id" : "4671",
      "oid" : "311348239",
      "districtId" : "1",
      "nameZh" : "櫻花大屯",
      "pgp" : "0",
      "terminal" : "0",
      "latitude" : "24.23565",
      "inDis" : "50",
      "routeId" : "69繞",
      "seqNo" : "42"
   },
   {
      "GoBack" : "1",
      "longitude" : "120.61474",
      "outDis" : "50",
      "Id" : "4670",
      "oid" : "81E92961CC1F4255A08E2FF807766386",
      "districtId" : "1",
      "nameZh" : "清泉里活動中心",
      "pgp" : "0",
      "terminal" : "0",
      "latitude" : "24.24091",
      "inDis" : "50",
      "routeId" : "69繞",
      "seqNo" : "43"
   },
   {
      "GoBack" : "1",
      "longitude" : "120.61246",
      "outDis" : "50",
      "Id" : "3023",
      "oid" : "8C84B47347CD45B38DCE2D3DC6646723",
      "districtId" : "1",
      "nameZh" : "清泉里",
      "pgp" : "0",
      "terminal" : "0",
      "latitude" : "24.24501",
      "inDis" : "50",
      "routeId" : "69繞",
      "seqNo" : "44"
   },
   {
      "GoBack" : "1",
      "longitude" : "120.61048",
      "outDis" : "50",
      "Id" : "0169",
      "oid" : "318241812",
      "districtId" : "1",
      "nameZh" : "清泉派出所",
      "pgp" : "0",
      "terminal" : "0",
      "latitude" : "24.24561",
      "inDis" : "50",
      "routeId" : "69繞",
      "seqNo" : "45"
   },
   {
      "GoBack" : "1",
      "longitude" : "120.60824",
      "outDis" : "50",
      "Id" : "1604",
      "oid" : "3E8D6863D7C6417AB4B68003C95F12DE",
      "districtId" : "1",
      "nameZh" : "公明里",
      "pgp" : "0",
      "terminal" : "0",
      "latitude" : "24.24655",
      "inDis" : "50",
      "routeId" : "69繞",
      "seqNo" : "46"
   },
   {
      "GoBack" : "1",
      "longitude" : "120.60567",
      "outDis" : "50",
      "Id" : "3738",
      "oid" : "5D3D303824DE44588FF28F594C522805",
      "districtId" : "1",
      "nameZh" : "樂群二村",
      "pgp" : "0",
      "terminal" : "0",
      "latitude" : "24.24772",
      "inDis" : "50",
      "routeId" : "69繞",
      "seqNo" : "47"
   },
   {
      "GoBack" : "1",
      "longitude" : "120.60087",
      "outDis" : "50",
      "Id" : "4713",
      "oid" : "306167893",
      "districtId" : "1",
      "nameZh" : "公明國中",
      "pgp" : "0",
      "terminal" : "0",
      "latitude" : "24.24963",
      "inDis" : "50",
      "routeId" : "69繞",
      "seqNo" : "48"
   },
   {
      "GoBack" : "1",
      "longitude" : "120.59843",
      "outDis" : "50",
      "Id" : "4982",
      "oid" : "306167895",
      "districtId" : "1",
      "nameZh" : "漢翔複材中心",
      "pgp" : "0",
      "terminal" : "0",
      "latitude" : "24.25229",
      "inDis" : "50",
      "routeId" : "69繞",
      "seqNo" : "49"
   },
   {
      "GoBack" : "1",
      "longitude" : "120.59881",
      "outDis" : "100",
      "Id" : "0135",
      "oid" : "0330DA750F5A4CCA97EE93A3EA284F5E",
      "districtId" : "1",
      "nameZh" : "臺中航空站",
      "pgp" : "0",
      "terminal" : "0",
      "latitude" : "24.25312",
      "inDis" : "50",
      "routeId" : "69繞",
      "seqNo" : "50"
   },
   {
      "GoBack" : "2",
      "longitude" : "120.59911",
      "outDis" : "50",
      "Id" : "0135",
      "oid" : "05E0141E5EA64A7095C8E5548AB79BA5",
      "districtId" : "1",
      "nameZh" : "臺中航空站",
      "pgp" : "0",
      "terminal" : "0",
      "latitude" : "24.25377",
      "inDis" : "50",
      "routeId" : "69繞",
      "seqNo" : "1"
   },
   {
      "GoBack" : "2",
      "longitude" : "120.5984",
      "outDis" : "50",
      "Id" : "4982",
      "oid" : "306167896",
      "districtId" : "1",
      "nameZh" : "漢翔複材中心",
      "pgp" : "0",
      "terminal" : "0",
      "latitude" : "24.25234",
      "inDis" : "50",
      "routeId" : "69繞",
      "seqNo" : "2"
   },
   {
      "GoBack" : "2",
      "longitude" : "120.60098",
      "outDis" : "50",
      "Id" : "4713",
      "oid" : "306167894",
      "districtId" : "1",
      "nameZh" : "公明國中",
      "pgp" : "0",
      "terminal" : "0",
      "latitude" : "24.24982",
      "inDis" : "50",
      "routeId" : "69繞",
      "seqNo" : "3"
   },
   {
      "GoBack" : "2",
      "longitude" : "120.60179",
      "outDis" : "50",
      "Id" : "1556",
      "oid" : "E6605DA4D9754260AF396B45C1C00DCB",
      "districtId" : "1",
      "nameZh" : "中清仁愛巷口",
      "pgp" : "0",
      "terminal" : "0",
      "latitude" : "24.24923",
      "inDis" : "50",
      "routeId" : "69繞",
      "seqNo" : "4"
   },
   {
      "GoBack" : "2",
      "longitude" : "120.60576",
      "outDis" : "50",
      "Id" : "3738",
      "oid" : "2604C4D47BD342FCB48F853984A3CD8C",
      "districtId" : "1",
      "nameZh" : "樂群二村",
      "pgp" : "0",
      "terminal" : "0",
      "latitude" : "24.24744",
      "inDis" : "50",
      "routeId" : "69繞",
      "seqNo" : "5"
   },
   {
      "GoBack" : "2",
      "longitude" : "120.60785",
      "outDis" : "50",
      "Id" : "1604",
      "oid" : "AE4C3140184F49D6B88FC8667073D6B7",
      "districtId" : "1",
      "nameZh" : "公明里",
      "pgp" : "0",
      "terminal" : "0",
      "latitude" : "24.24656",
      "inDis" : "50",
      "routeId" : "69繞",
      "seqNo" : "6"
   },
   {
      "GoBack" : "2",
      "longitude" : "120.61048",
      "outDis" : "50",
      "Id" : "0169",
      "oid" : "318241812",
      "districtId" : "1",
      "nameZh" : "清泉派出所",
      "pgp" : "0",
      "terminal" : "0",
      "latitude" : "24.24561",
      "inDis" : "50",
      "routeId" : "69繞",
      "seqNo" : "7"
   },
   {
      "GoBack" : "2",
      "longitude" : "120.61255",
      "outDis" : "50",
      "Id" : "3023",
      "oid" : "C4AB882CAECF4C7A9F845BDD22F7A36F",
      "districtId" : "1",
      "nameZh" : "清泉里",
      "pgp" : "0",
      "terminal" : "0",
      "latitude" : "24.24485",
      "inDis" : "50",
      "routeId" : "69繞",
      "seqNo" : "8"
   },
   {
      "GoBack" : "2",
      "longitude" : "120.61474",
      "outDis" : "50",
      "Id" : "4670",
      "oid" : "81E92961CC1F4255A08E2FF807766386",
      "districtId" : "1",
      "nameZh" : "清泉里活動中心",
      "pgp" : "0",
      "terminal" : "0",
      "latitude" : "24.24091",
      "inDis" : "50",
      "routeId" : "69繞",
      "seqNo" : "9"
   },
   {
      "GoBack" : "2",
      "longitude" : "120.6141",
      "outDis" : "50",
      "Id" : "4671",
      "oid" : "311348239",
      "districtId" : "1",
      "nameZh" : "櫻花大屯",
      "pgp" : "0",
      "terminal" : "0",
      "latitude" : "24.23565",
      "inDis" : "50",
      "routeId" : "69繞",
      "seqNo" : "10"
   },
   {
      "GoBack" : "2",
      "longitude" : "120.61335",
      "outDis" : "50",
      "Id" : "5338",
      "oid" : "311348243",
      "districtId" : "1",
      "nameZh" : "大度山墓園寶塔",
      "pgp" : "0",
      "terminal" : "0",
      "latitude" : "24.22785",
      "inDis" : "50",
      "routeId" : "69繞",
      "seqNo" : "11"
   },
   {
      "GoBack" : "2",
      "longitude" : "120.61491",
      "outDis" : "50",
      "Id" : "5337",
      "oid" : "311348242",
      "districtId" : "1",
      "nameZh" : "清泉崗靶場",
      "pgp" : "0",
      "terminal" : "0",
      "latitude" : "24.21816",
      "inDis" : "50",
      "routeId" : "69繞",
      "seqNo" : "12"
   },
   {
      "GoBack" : "2",
      "longitude" : "120.61182",
      "outDis" : "50",
      "Id" : "5336",
      "oid" : "311348241",
      "districtId" : "1",
      "nameZh" : "營區口",
      "pgp" : "0",
      "terminal" : "0",
      "latitude" : "24.20759",
      "inDis" : "50",
      "routeId" : "69繞",
      "seqNo" : "13"
   },
   {
      "GoBack" : "2",
      "longitude" : "120.61073",
      "outDis" : "50",
      "Id" : "4720",
      "oid" : "306613477",
      "districtId" : "1",
      "nameZh" : "格網中心",
      "pgp" : "0",
      "terminal" : "0",
      "latitude" : "24.20419",
      "inDis" : "50",
      "routeId" : "69繞",
      "seqNo" : "14"
   },
   {
      "GoBack" : "2",
      "longitude" : "120.60954",
      "outDis" : "50",
      "Id" : "1461",
      "oid" : "305768944",
      "districtId" : "1",
      "nameZh" : "中科站",
      "pgp" : "0",
      "terminal" : "0",
      "latitude" : "24.20063",
      "inDis" : "50",
      "routeId" : "69繞",
      "seqNo" : "15"
   },
   {
      "GoBack" : "2",
      "longitude" : "120.60665",
      "outDis" : "50",
      "Id" : "5129",
      "oid" : "C5D42813A60D43CCA4CCE355CA22BE93",
      "districtId" : "1",
      "nameZh" : "國安社區",
      "pgp" : "0",
      "terminal" : "0",
      "latitude" : "24.19325",
      "inDis" : "50",
      "routeId" : "69繞",
      "seqNo" : "16"
   },
   {
      "GoBack" : "2",
      "longitude" : "120.60561",
      "outDis" : "50",
      "Id" : "0886",
      "oid" : "C2744F11EEBD4690A32DEDB46224A739",
      "districtId" : "1",
      "nameZh" : "榮總北院(精神科)",
      "pgp" : "0",
      "terminal" : "0",
      "latitude" : "24.18932",
      "inDis" : "50",
      "routeId" : "69繞",
      "seqNo" : "17"
   },
   {
      "GoBack" : "2",
      "longitude" : "120.60496",
      "outDis" : "50",
      "Id" : "1544",
      "oid" : "314570243",
      "districtId" : "1",
      "nameZh" : "五龍公園",
      "pgp" : "0",
      "terminal" : "0",
      "latitude" : "24.18794",
      "inDis" : "50",
      "routeId" : "69繞",
      "seqNo" : "18"
   },
   {
      "GoBack" : "2",
      "longitude" : "120.6042",
      "outDis" : "50",
      "Id" : "0868",
      "oid" : "6A867A5202444249954C17D90A5C6AFD",
      "districtId" : "1",
      "nameZh" : "瑞聯天地",
      "pgp" : "0",
      "terminal" : "0",
      "latitude" : "24.18677",
      "inDis" : "50",
      "routeId" : "69繞",
      "seqNo" : "19"
   },
   {
      "GoBack" : "2",
      "longitude" : "120.60258",
      "outDis" : "50",
      "Id" : "0884",
      "oid" : "5ABFC2E42CE4418E9C056E2D1D229ABB",
      "districtId" : "1",
      "nameZh" : "臺中榮總(東大路)",
      "pgp" : "0",
      "terminal" : "0",
      "latitude" : "24.18345",
      "inDis" : "50",
      "routeId" : "69繞",
      "seqNo" : "20"
   },
   {
      "GoBack" : "2",
      "longitude" : "120.60491",
      "outDis" : "50",
      "Id" : "5386",
      "oid" : "AFC61BC92A174A4390D43E879CF7892A",
      "districtId" : "1",
      "nameZh" : "臺中榮總(臺灣大道) ",
      "pgp" : "0",
      "terminal" : "0",
      "latitude" : "24.18349",
      "inDis" : "50",
      "routeId" : "69繞",
      "seqNo" : "21"
   },
   {
      "GoBack" : "2",
      "longitude" : "120.60659",
      "outDis" : "50",
      "Id" : "2378",
      "oid" : "B94E18B2305F42E88028AC0928C79EB7",
      "districtId" : "1",
      "nameZh" : "東大附中",
      "pgp" : "0",
      "terminal" : "0",
      "latitude" : "24.18354",
      "inDis" : "50",
      "routeId" : "69繞",
      "seqNo" : "22"
   },
   {
      "GoBack" : "2",
      "longitude" : "120.60837",
      "outDis" : "50",
      "Id" : "0004",
      "oid" : "661236036ACF4F1FBC9AA68AD34D2A9D",
      "districtId" : "1",
      "nameZh" : "普濟寺",
      "pgp" : "0",
      "terminal" : "0",
      "latitude" : "24.18397",
      "inDis" : "50",
      "routeId" : "69繞",
      "seqNo" : "23"
   },
   {
      "GoBack" : "2",
      "longitude" : "120.61064",
      "outDis" : "50",
      "Id" : "4335",
      "oid" : "E68E82946C7B4F86964918B2D3F1CBE1",
      "districtId" : "1",
      "nameZh" : "臺灣大道玉門路口",
      "pgp" : "0",
      "terminal" : "0",
      "latitude" : "24.18469",
      "inDis" : "50",
      "routeId" : "69繞",
      "seqNo" : "24"
   },
   {
      "GoBack" : "2",
      "longitude" : "120.61256",
      "outDis" : "50",
      "Id" : "0006",
      "oid" : "7F79195D36164415A5AFC2460CB6C55C",
      "districtId" : "1",
      "nameZh" : "臺中捐血中心",
      "pgp" : "0",
      "terminal" : "0",
      "latitude" : "24.18411",
      "inDis" : "50",
      "routeId" : "69繞",
      "seqNo" : "25"
   },
   {
      "GoBack" : "2",
      "longitude" : "120.6158",
      "outDis" : "50",
      "Id" : "0430",
      "oid" : "DBA61BCCC3F14D98AA1F2FA797CA40E2",
      "districtId" : "1",
      "nameZh" : "中港澄清醫院",
      "pgp" : "0",
      "terminal" : "0",
      "latitude" : "24.18267",
      "inDis" : "50",
      "routeId" : "69繞",
      "seqNo" : "26"
   },
   {
      "GoBack" : "2",
      "longitude" : "120.6183",
      "outDis" : "50",
      "Id" : "0008",
      "oid" : "320062561",
      "districtId" : "1",
      "nameZh" : "中港新城",
      "pgp" : "0",
      "terminal" : "0",
      "latitude" : "24.18145",
      "inDis" : "50",
      "routeId" : "69繞",
      "seqNo" : "27"
   },
   {
      "GoBack" : "2",
      "longitude" : "120.62109",
      "outDis" : "50",
      "Id" : "3060",
      "oid" : "E17E391A79594B1FA322B3C54BCF955D",
      "districtId" : "1",
      "nameZh" : "統聯轉運站",
      "pgp" : "0",
      "terminal" : "0",
      "latitude" : "24.18024",
      "inDis" : "50",
      "routeId" : "69繞",
      "seqNo" : "28"
   },
   {
      "GoBack" : "2",
      "longitude" : "120.624",
      "outDis" : "50",
      "Id" : "5149",
      "oid" : "02E9772AF8714B5AB984ABE0D0233629",
      "districtId" : "1",
      "nameZh" : "福安里(臺灣大道)",
      "pgp" : "0",
      "terminal" : "0",
      "latitude" : "24.17871",
      "inDis" : "50",
      "routeId" : "69繞",
      "seqNo" : "29"
   },
   {
      "GoBack" : "2",
      "longitude" : "120.63717",
      "outDis" : "50",
      "Id" : "0054",
      "oid" : "313524993",
      "districtId" : "1",
      "nameZh" : "朝馬(臺灣大道)",
      "pgp" : "0",
      "terminal" : "0",
      "latitude" : "24.17059",
      "inDis" : "50",
      "routeId" : "69繞",
      "seqNo" : "30"
   },
   {
      "GoBack" : "2",
      "longitude" : "120.63977",
      "outDis" : "50",
      "Id" : "0826",
      "oid" : "98EE65B485E647B99DAC58C1833843B6",
      "districtId" : "1",
      "nameZh" : "秋紅谷(朝陽橋)",
      "pgp" : "0",
      "terminal" : "0",
      "latitude" : "24.16838",
      "inDis" : "50",
      "routeId" : "69繞",
      "seqNo" : "31"
   },
   {
      "GoBack" : "2",
      "longitude" : "120.64162",
      "outDis" : "50",
      "Id" : "0015",
      "oid" : "18E63C4373A546488BB3CAF71954432C",
      "districtId" : "1",
      "nameZh" : "教師新村",
      "pgp" : "0",
      "terminal" : "0",
      "latitude" : "24.16697",
      "inDis" : "50",
      "routeId" : "69繞",
      "seqNo" : "32"
   },
   {
      "GoBack" : "2",
      "longitude" : "120.64299",
      "outDis" : "50",
      "Id" : "5143",
      "oid" : "A7761C01E91048E2BFC3AE61D4C880F2",
      "districtId" : "1",
      "nameZh" : "新光三越(惠來路一)",
      "pgp" : "0",
      "terminal" : "0",
      "latitude" : "24.16472",
      "inDis" : "50",
      "routeId" : "69繞",
      "seqNo" : "33"
   },
   {
      "GoBack" : "2",
      "longitude" : "120.64146",
      "outDis" : "50",
      "Id" : "5726",
      "oid" : "93FC25E2F5A34F0EA20C7FA4AA9E8DE0",
      "districtId" : "1",
      "nameZh" : "臺中國家歌劇院",
      "pgp" : "0",
      "terminal" : "0",
      "latitude" : "24.16247",
      "inDis" : "50",
      "routeId" : "69繞",
      "seqNo" : "34"
   },
   {
      "GoBack" : "2",
      "longitude" : "120.63939",
      "outDis" : "50",
      "Id" : "0055",
      "oid" : "E013B06C06674103904492699D00889B",
      "districtId" : "1",
      "nameZh" : "第六分局",
      "pgp" : "0",
      "terminal" : "0",
      "latitude" : "24.1595",
      "inDis" : "50",
      "routeId" : "69繞",
      "seqNo" : "35"
   },
   {
      "GoBack" : "2",
      "longitude" : "120.6345",
      "outDis" : "50",
      "Id" : "4641",
      "oid" : "AF43D6D6783C4B999E6C40281AAAC570",
      "districtId" : "1",
      "nameZh" : "市政黎明路口",
      "pgp" : "0",
      "terminal" : "0",
      "latitude" : "24.1614",
      "inDis" : "50",
      "routeId" : "69繞",
      "seqNo" : "36"
   },
   {
      "GoBack" : "2",
      "longitude" : "120.61433",
      "outDis" : "50",
      "Id" : "5003",
      "oid" : "309414076",
      "districtId" : "1",
      "nameZh" : "國際會展中心",
      "pgp" : "0",
      "terminal" : "0",
      "latitude" : "24.11704",
      "inDis" : "50",
      "routeId" : "69繞",
      "seqNo" : "41"
   },
   {
      "GoBack" : "2",
      "longitude" : "120.61572",
      "outDis" : "50",
      "Id" : "2907",
      "oid" : "310692256",
      "districtId" : "1",
      "nameZh" : "高鐵台中站(17月台)",
      "pgp" : "0",
      "terminal" : "0",
      "latitude" : "24.1138",
      "inDis" : "50",
      "routeId" : "69繞",
      "seqNo" : "42"
   },
   {
      "GoBack" : "2",
      "longitude" : "120.6167",
      "outDis" : "50",
      "Id" : "2820",
      "oid" : "7120E131F4724A21A2042D0C36614FC4",
      "districtId" : "1",
      "nameZh" : "烏日國中",
      "pgp" : "0",
      "terminal" : "0",
      "latitude" : "24.10591",
      "inDis" : "50",
      "routeId" : "69繞",
      "seqNo" : "44"
   },
   {
      "GoBack" : "2",
      "longitude" : "120.62247",
      "outDis" : "50",
      "Id" : "2816",
      "oid" : "7C76344443014CD4B0CFCDCDDEC0EEEA",
      "districtId" : "1",
      "nameZh" : "烏日",
      "pgp" : "0",
      "terminal" : "0",
      "latitude" : "24.10636",
      "inDis" : "50",
      "routeId" : "69繞",
      "seqNo" : "45"
   },
   {
      "GoBack" : "2",
      "longitude" : "120.62547",
      "outDis" : "50",
      "Id" : "4660",
      "oid" : "EB5D59633B9042208B9DD61AF7BFB832",
      "districtId" : "1",
      "nameZh" : "中山五光路口",
      "pgp" : "0",
      "terminal" : "0",
      "latitude" : "24.10628",
      "inDis" : "50",
      "routeId" : "69繞",
      "seqNo" : "46"
   },
   {
      "GoBack" : "2",
      "longitude" : "120.62821",
      "outDis" : "50",
      "Id" : "1454",
      "oid" : "11F43105C454439888496371476DEFB4",
      "districtId" : "1",
      "nameZh" : "中和紡織",
      "pgp" : "0",
      "terminal" : "0",
      "latitude" : "24.10569",
      "inDis" : "50",
      "routeId" : "69繞",
      "seqNo" : "47"
   },
   {
      "GoBack" : "2",
      "longitude" : "120.63294",
      "outDis" : "50",
      "Id" : "2821",
      "oid" : "7377",
      "districtId" : "1",
      "nameZh" : "烏日橋",
      "pgp" : "0",
      "terminal" : "0",
      "latitude" : "24.10581",
      "inDis" : "50",
      "routeId" : "69繞",
      "seqNo" : "48"
   },
   {
      "GoBack" : "2",
      "longitude" : "120.63556",
      "outDis" : "50",
      "Id" : "2365",
      "oid" : "508F5FE0C01D4863BAFB55C62CC38CEA",
      "districtId" : "1",
      "nameZh" : "明道中學",
      "pgp" : "0",
      "terminal" : "0",
      "latitude" : "24.10692",
      "inDis" : "50",
      "routeId" : "69繞",
      "seqNo" : "49"
   },
   {
      "GoBack" : "2",
      "longitude" : "120.63843",
      "outDis" : "50",
      "Id" : "2366",
      "oid" : "A2AE681CAC2243378F1B984C5878AC9E",
      "districtId" : "1",
      "nameZh" : "明道花園城",
      "pgp" : "0",
      "terminal" : "0",
      "latitude" : "24.10783",
      "inDis" : "50",
      "routeId" : "69繞",
      "seqNo" : "50"
   },
   {
      "GoBack" : "2",
      "longitude" : "120.64137",
      "outDis" : "50",
      "Id" : "0994",
      "oid" : "92B24BAC1ECA49FB9D5A2EA1F2F516C7",
      "districtId" : "1",
      "nameZh" : "九張犁",
      "pgp" : "0",
      "terminal" : "0",
      "latitude" : "24.10873",
      "inDis" : "50",
      "routeId" : "69繞",
      "seqNo" : "51"
   },
   {
      "GoBack" : "2",
      "longitude" : "120.64536",
      "outDis" : "50",
      "Id" : "2818",
      "oid" : "FA8BC554E38E4AF6A135B4547126665E",
      "districtId" : "1",
      "nameZh" : "烏日停車場",
      "pgp" : "0",
      "terminal" : "0",
      "latitude" : "24.10401",
      "inDis" : "50",
      "routeId" : "69繞",
      "seqNo" : "52"
   }
]
