[
  {
    "type": "Feature",
    "geometry": {
      "type": "Point",
      "coordinates": [
        120.56106,
        24.23783
      ]
    },
    "properties": {
      "id": "5914",
      "name": "巨業沙鹿站",
      "seq": 1
    }
  },
  {
    "type": "Feature",
    "geometry": {
      "type": "Point",
      "coordinates": [
        120.53444,
        24.25083
      ]
    },
    "properties": {
      "id": "3250",
      "name": "臺灣大道港埠路口",
      "seq": 10
    }
  },
  {
    "type": "Feature",
    "geometry": {
      "type": "Point",
      "coordinates": [
        120.53036,
        24.25232
      ]
    },
    "properties": {
      "id": "2999",
      "name": "梧棲國小",
      "seq": 11
    }
  },
  {
    "type": "Feature",
    "geometry": {
      "type": "Point",
      "coordinates": [
        120.5286,
        24.25366
      ]
    },
    "properties": {
      "id": "2107",
      "name": "安仁里",
      "seq": 12
    }
  },
  {
    "type": "Feature",
    "geometry": {
      "type": "Point",
      "coordinates": [
        120.52956,
        24.25664
      ]
    },
    "properties": {
      "id": "4841",
      "name": "梧棲(朝元宮)",
      "seq": 13
    }
  },
  {
    "type": "Feature",
    "geometry": {
      "type": "Point",
      "coordinates": [
        120.53009,
        24.25856
      ]
    },
    "properties": {
      "id": "1208",
      "name": "下寮社區",
      "seq": 14
    }
  },
  {
    "type": "Feature",
    "geometry": {
      "type": "Point",
      "coordinates": [
        120.53035,
        24.26079
      ]
    },
    "properties": {
      "id": "4979",
      "name": "下寮里",
      "seq": 15
    }
  },
  {
    "type": "Feature",
    "geometry": {
      "type": "Point",
      "coordinates": [
        120.53229,
        24.26037
      ]
    },
    "properties": {
      "id": "4668",
      "name": "頂寮里",
      "seq": 16
    }
  },
  {
    "type": "Feature",
    "geometry": {
      "type": "Point",
      "coordinates": [
        120.53495,
        24.25932
      ]
    },
    "properties": {
      "id": "4840",
      "name": "國都飯店",
      "seq": 17
    }
  },
  {
    "type": "Feature",
    "geometry": {
      "type": "Point",
      "coordinates": [
        120.53662,
        24.25995
      ]
    },
    "properties": {
      "id": "5065",
      "name": "臺銀中港分行",
      "seq": 18
    }
  },
  {
    "type": "Feature",
    "geometry": {
      "type": "Point",
      "coordinates": [
        120.53741,
        24.26193
      ]
    },
    "properties": {
      "id": "5064",
      "name": "臺中港郵局",
      "seq": 19
    }
  },
  {
    "type": "Feature",
    "geometry": {
      "type": "Point",
      "coordinates": [
        120.56,
        24.23932
      ]
    },
    "properties": {
      "id": "5135",
      "name": "第一銀行(沙鹿分行)",
      "seq": 2
    }
  },
  {
    "type": "Feature",
    "geometry": {
      "type": "Point",
      "coordinates": [
        120.54158,
        24.2618
      ]
    },
    "properties": {
      "id": "4810",
      "name": "竹圍(港埠路)",
      "seq": 20
    }
  },
  {
    "type": "Feature",
    "geometry": {
      "type": "Point",
      "coordinates": [
        120.54513,
        24.26342
      ]
    },
    "properties": {
      "id": "3895",
      "name": "糠榔",
      "seq": 21
    }
  },
  {
    "type": "Feature",
    "geometry": {
      "type": "Point",
      "coordinates": [
        120.54853,
        24.26431
      ]
    },
    "properties": {
      "id": "2444",
      "name": "東糠榔",
      "seq": 22
    }
  },
  {
    "type": "Feature",
    "geometry": {
      "type": "Point",
      "coordinates": [
        120.55146,
        24.26504
      ]
    },
    "properties": {
      "id": "2177",
      "name": "西牛埔",
      "seq": 23
    }
  },
  {
    "type": "Feature",
    "geometry": {
      "type": "Point",
      "coordinates": [
        120.55556,
        24.26601
      ]
    },
    "properties": {
      "id": "1732",
      "name": "牛埔",
      "seq": 24
    }
  },
  {
    "type": "Feature",
    "geometry": {
      "type": "Point",
      "coordinates": [
        120.56046,
        24.26715
      ]
    },
    "properties": {
      "id": "2588",
      "name": "南社里",
      "seq": 25
    }
  },
  {
    "type": "Feature",
    "geometry": {
      "type": "Point",
      "coordinates": [
        120.56271,
        24.26778
      ]
    },
    "properties": {
      "id": "3017",
      "name": "清水國中",
      "seq": 26
    }
  },
  {
    "type": "Feature",
    "geometry": {
      "type": "Point",
      "coordinates": [
        120.5648,
        24.26832
      ]
    },
    "properties": {
      "id": "3700",
      "name": "銀聯二村",
      "seq": 27
    }
  },
  {
    "type": "Feature",
    "geometry": {
      "type": "Point",
      "coordinates": [
        120.56825,
        24.26845
      ]
    },
    "properties": {
      "id": "2486",
      "name": "社口",
      "seq": 28
    }
  },
  {
    "type": "Feature",
    "geometry": {
      "type": "Point",
      "coordinates": [
        120.57004,
        24.26923
      ]
    },
    "properties": {
      "id": "5655",
      "name": "鰲峰西社路口",
      "seq": 29
    }
  },
  {
    "type": "Feature",
    "geometry": {
      "type": "Point",
      "coordinates": [
        120.55659,
        24.24273
      ]
    },
    "properties": {
      "id": "1482",
      "name": "中港國小",
      "seq": 3
    }
  },
  {
    "type": "Feature",
    "geometry": {
      "type": "Point",
      "coordinates": [
        120.57531,
        24.26919
      ]
    },
    "properties": {
      "id": "1615",
      "name": "分局前",
      "seq": 30
    }
  },
  {
    "type": "Feature",
    "geometry": {
      "type": "Point",
      "coordinates": [
        120.57594,
        24.2703
      ]
    },
    "properties": {
      "id": "3013",
      "name": "清水",
      "seq": 31
    }
  },
  {
    "type": "Feature",
    "geometry": {
      "type": "Point",
      "coordinates": [
        120.54911,
        24.24548
      ]
    },
    "properties": {
      "id": "1088",
      "name": "三條圳",
      "seq": 4
    }
  },
  {
    "type": "Feature",
    "geometry": {
      "type": "Point",
      "coordinates": [
        120.54653,
        24.24643
      ]
    },
    "properties": {
      "id": "4822",
      "name": "東大庄",
      "seq": 5
    }
  },
  {
    "type": "Feature",
    "geometry": {
      "type": "Point",
      "coordinates": [
        120.54472,
        24.2471
      ]
    },
    "properties": {
      "id": "4007",
      "name": "體育館前",
      "seq": 6
    }
  },
  {
    "type": "Feature",
    "geometry": {
      "type": "Point",
      "coordinates": [
        120.54319,
        24.24757
      ]
    },
    "properties": {
      "id": "4041",
      "name": "童綜合醫院(梧棲院區)",
      "seq": 7
    }
  },
  {
    "type": "Feature",
    "geometry": {
      "type": "Point",
      "coordinates": [
        120.54117,
        24.24818
      ]
    },
    "properties": {
      "id": "4824",
      "name": "邱厝庄",
      "seq": 8
    }
  },
  {
    "type": "Feature",
    "geometry": {
      "type": "Point",
      "coordinates": [
        120.53916,
        24.24908
      ]
    },
    "properties": {
      "id": "5915",
      "name": "大庄(浩天宮)",
      "seq": 9
    }
  }
]
