<?xml version="1.0" encoding="UTF-8" standalone="yes"?>
<BusDynInfo><EssentialInfo><Location><name>TCBUS</name><CenterName>Maxwin</CenterName></Location><UpdateTime>2014-12-20 07:59:02</UpdateTime><CoordinateSystem/></EssentialInfo>
<BusInfo><Stop Id="4497" routeId="152" nameZh="臺中市議會" seqNo="1" pgp="0" terminal="0" districtId="1" GoBack="1" latitude="24.15825" longitude="120.64385" inDis="50" outDis="50" oid="138961821" /><Stop Id="1433" routeId="152" nameZh="中央健保局(文心路)" seqNo="2" pgp="0" terminal="0" districtId="1" GoBack="1" latitude="24.15762" longitude="120.64682" inDis="50" outDis="50" oid="13256" /><Stop Id="0019" routeId="152" nameZh="市警局" seqNo="3" pgp="0" terminal="0" districtId="1" GoBack="1" latitude="24.15975" longitude="120.64759" inDis="50" outDis="50" oid="12564" /><Stop Id="0017" routeId="152" nameZh="臺中市政府" seqNo="4" pgp="0" terminal="0" districtId="1" GoBack="1" latitude="24.16435" longitude="120.64692" inDis="50" outDis="50" oid="17506" /><Stop Id="0016" routeId="152" nameZh="新光三越" seqNo="5" pgp="0" terminal="0" districtId="1" GoBack="1" latitude="24.16589" longitude="120.64426" inDis="50" outDis="50" oid="F33EC9CFEBA14AA4B0B9D9B1FD66BF75" /><Stop Id="0826" routeId="152" nameZh="秋紅谷(朝陽橋)" seqNo="6" pgp="0" terminal="0" districtId="1" GoBack="1" latitude="24.16865" longitude="120.63957" inDis="50" outDis="50" oid="13543" /><Stop Id="0054" routeId="152" nameZh="朝馬(臺灣大道)" seqNo="7" pgp="0" terminal="0" districtId="1" GoBack="1" latitude="24.17059" longitude="120.63717" inDis="50" outDis="50" oid="313524993" /><Stop Id="2993" routeId="152" nameZh="望寮" seqNo="15" pgp="0" terminal="0" districtId="1" GoBack="1" latitude="24.24841" longitude="120.69323" inDis="50" outDis="50" oid="6203" /><Stop Id="5438" routeId="152" nameZh="岸裡國小" seqNo="16" pgp="0" terminal="0" districtId="1" GoBack="1" latitude="24.24873" longitude="120.69783" inDis="50" outDis="50" oid="313608813" /><Stop Id="4498" routeId="152" nameZh="臺豐社區" seqNo="17" pgp="0" terminal="0" districtId="1" GoBack="1" latitude="24.249" longitude="120.70003" inDis="50" outDis="50" oid="13826" /><Stop Id="2489" routeId="152" nameZh="社皮鐵路巷" seqNo="18" pgp="0" terminal="0" districtId="1" GoBack="1" latitude="24.24951" longitude="120.70229" inDis="50" outDis="50" oid="5943" /><Stop Id="2349" routeId="152" nameZh="忠勤新村" seqNo="19" pgp="0" terminal="0" districtId="1" GoBack="1" latitude="24.24962" longitude="120.70434" inDis="50" outDis="50" oid="5856" /><Stop Id="1065" routeId="152" nameZh="三光新村" seqNo="20" pgp="0" terminal="0" districtId="1" GoBack="1" latitude="24.24999" longitude="120.70672" inDis="50" outDis="50" oid="5072" /><Stop Id="4487" routeId="152" nameZh="圓環南永安街口" seqNo="21" pgp="0" terminal="0" districtId="1" GoBack="1" latitude="24.24765" longitude="120.71011" inDis="50" outDis="50" oid="13859" /><Stop Id="5440" routeId="152" nameZh="中興圓環南路口" seqNo="22" pgp="0" terminal="0" districtId="1" GoBack="1" latitude="24.24666" longitude="120.71164" inDis="50" outDis="50" oid="10710" /><Stop Id="5441" routeId="152" nameZh="臺中市政府衛生局" seqNo="23" pgp="0" terminal="0" districtId="1" GoBack="1" latitude="24.2479" longitude="120.7137" inDis="50" outDis="50" oid="313609513" /><Stop Id="5442" routeId="152" nameZh="中興田心路口" seqNo="24" pgp="0" terminal="0" districtId="1" GoBack="1" latitude="24.2482" longitude="120.71729" inDis="50" outDis="50" oid="313609515" /><Stop Id="5443" routeId="152" nameZh="臺中市政府陽明大樓" seqNo="25" pgp="0" terminal="0" districtId="1" GoBack="1" latitude="24.2469" longitude="120.7211" inDis="50" outDis="50" oid="313609516" /><Stop Id="5142" routeId="152" nameZh="陽明自強南街口" seqNo="26" pgp="0" terminal="0" districtId="1" GoBack="1" latitude="24.24603" longitude="120.72278" inDis="50" outDis="50" oid="6629" /><Stop Id="4484" routeId="152" nameZh="圓環東南陽路口" seqNo="27" pgp="0" terminal="0" districtId="1" GoBack="1" latitude="24.246" longitude="120.72562" inDis="50" outDis="50" oid="13856" /><Stop Id="4480" routeId="152" nameZh="圓環東同安街口" seqNo="28" pgp="0" terminal="0" districtId="1" GoBack="1" latitude="24.24764" longitude="120.72677" inDis="50" outDis="50" oid="13852" /><Stop Id="4481" routeId="152" nameZh="圓環東向陽路口" seqNo="29" pgp="0" terminal="0" districtId="1" GoBack="1" latitude="24.25077" longitude="120.72855" inDis="50" outDis="50" oid="13853" /><Stop Id="5544" routeId="152" nameZh="葫蘆墩文化中心" seqNo="30" pgp="0" terminal="0" districtId="1" GoBack="1" latitude="24.25299" longitude="120.72976" inDis="50" outDis="50" oid="316462696" /><Stop Id="4478" routeId="152" nameZh="圓環東水源路口" seqNo="31" pgp="0" terminal="0" districtId="1" GoBack="1" latitude="24.25577" longitude="120.72983" inDis="50" outDis="50" oid="5488" /><Stop Id="4407" routeId="152" nameZh="永豐原紙廠" seqNo="32" pgp="0" terminal="0" districtId="1" GoBack="1" latitude="24.2587" longitude="120.73227" inDis="50" outDis="50" oid="13615" /><Stop Id="5684" routeId="152" nameZh="義士祠" seqNo="33" pgp="0" terminal="0" districtId="1" GoBack="1" latitude="24.25968" longitude="120.73648" inDis="50" outDis="50" oid="319637787" /><Stop Id="5684" routeId="152" nameZh="義士祠" seqNo="1" pgp="0" terminal="0" districtId="1" GoBack="2" latitude="24.25968" longitude="120.73648" inDis="50" outDis="50" oid="319637787" /><Stop Id="4407" routeId="152" nameZh="永豐原紙廠" seqNo="2" pgp="0" terminal="0" districtId="1" GoBack="2" latitude="24.2587" longitude="120.73227" inDis="50" outDis="50" oid="13615" /><Stop Id="4478" routeId="152" nameZh="圓環東水源路口" seqNo="3" pgp="0" terminal="0" districtId="1" GoBack="2" latitude="24.25577" longitude="120.72983" inDis="50" outDis="50" oid="5488" /><Stop Id="5544" routeId="152" nameZh="葫蘆墩文化中心" seqNo="4" pgp="0" terminal="0" districtId="1" GoBack="2" latitude="24.25299" longitude="120.72976" inDis="50" outDis="50" oid="316462696" /><Stop Id="4481" routeId="152" nameZh="圓環東向陽路口" seqNo="5" pgp="0" terminal="0" districtId="1" GoBack="2" latitude="24.25077" longitude="120.72855" inDis="50" outDis="50" oid="13853" /><Stop Id="4480" routeId="152" nameZh="圓環東同安街口" seqNo="6" pgp="0" terminal="0" districtId="1" GoBack="2" latitude="24.24764" longitude="120.72677" inDis="50" outDis="50" oid="13852" /><Stop Id="4484" routeId="152" nameZh="圓環東南陽路口" seqNo="7" pgp="0" terminal="0" districtId="1" GoBack="2" latitude="24.246" longitude="120.72562" inDis="50" outDis="50" oid="13856" /><Stop Id="5142" routeId="152" nameZh="陽明自強南街口" seqNo="8" pgp="0" terminal="0" districtId="1" GoBack="2" latitude="24.24603" longitude="120.72278" inDis="50" outDis="50" oid="6629" /><Stop Id="5443" routeId="152" nameZh="臺中市政府陽明大樓" seqNo="9" pgp="0" terminal="0" districtId="1" GoBack="2" latitude="24.2469" longitude="120.7211" inDis="50" outDis="50" oid="313609516" /><Stop Id="5442" routeId="152" nameZh="中興田心路口" seqNo="10" pgp="0" terminal="0" districtId="1" GoBack="2" latitude="24.2482" longitude="120.71729" inDis="50" outDis="50" oid="313609515" /><Stop Id="5441" routeId="152" nameZh="臺中市政府衛生局" seqNo="11" pgp="0" terminal="0" districtId="1" GoBack="2" latitude="24.2479" longitude="120.7137" inDis="50" outDis="50" oid="313609513" /><Stop Id="5440" routeId="152" nameZh="中興圓環南路口" seqNo="12" pgp="0" terminal="0" districtId="1" GoBack="2" latitude="24.24666" longitude="120.71164" inDis="50" outDis="50" oid="313609512" /><Stop Id="4487" routeId="152" nameZh="圓環南永安街口" seqNo="13" pgp="0" terminal="0" districtId="1" GoBack="2" latitude="24.24765" longitude="120.71011" inDis="50" outDis="50" oid="13859" /><Stop Id="1065" routeId="152" nameZh="三光新村" seqNo="14" pgp="0" terminal="0" districtId="1" GoBack="2" latitude="24.24999" longitude="120.70672" inDis="50" outDis="50" oid="5072" /><Stop Id="2349" routeId="152" nameZh="忠勤新村" seqNo="15" pgp="0" terminal="0" districtId="1" GoBack="2" latitude="24.24962" longitude="120.70434" inDis="50" outDis="50" oid="5856" /><Stop Id="2489" routeId="152" nameZh="社皮鐵路巷" seqNo="16" pgp="0" terminal="0" districtId="1" GoBack="2" latitude="24.24951" longitude="120.70229" inDis="50" outDis="50" oid="5943" /><Stop Id="4498" routeId="152" nameZh="臺豐社區" seqNo="17" pgp="0" terminal="0" districtId="1" GoBack="2" latitude="24.249" longitude="120.70003" inDis="50" outDis="50" oid="13826" /><Stop Id="5438" routeId="152" nameZh="岸裡國小" seqNo="18" pgp="0" terminal="0" districtId="1" GoBack="2" latitude="24.24873" longitude="120.69783" inDis="50" outDis="50" oid="313608813" /><Stop Id="0054" routeId="152" nameZh="朝馬(臺灣大道)" seqNo="26" pgp="0" terminal="0" districtId="1" GoBack="2" latitude="24.17059" longitude="120.63717" inDis="50" outDis="50" oid="313524993" /><Stop Id="0826" routeId="152" nameZh="秋紅谷(朝陽橋)" seqNo="27" pgp="0" terminal="0" districtId="1" GoBack="2" latitude="24.16865" longitude="120.63957" inDis="50" outDis="50" oid="13543" /><Stop Id="0016" routeId="152" nameZh="新光三越" seqNo="28" pgp="0" terminal="0" districtId="1" GoBack="2" latitude="24.16589" longitude="120.64426" inDis="50" outDis="50" oid="F33EC9CFEBA14AA4B0B9D9B1FD66BF75" /><Stop Id="0017" routeId="152" nameZh="臺中市政府" seqNo="29" pgp="0" terminal="0" districtId="1" GoBack="2" latitude="24.16364" longitude="120.64738" inDis="50" outDis="50" oid="17597" /><Stop Id="0019" routeId="152" nameZh="市警局" seqNo="30" pgp="0" terminal="0" districtId="1" GoBack="2" latitude="24.15938" longitude="120.64751" inDis="50" outDis="50" oid="13298" /><Stop Id="1433" routeId="152" nameZh="中央健保局(文心路)" seqNo="31" pgp="0" terminal="0" districtId="1" GoBack="2" latitude="24.15762" longitude="120.64682" inDis="50" outDis="50" oid="13256" /></BusInfo></BusDynInfo>