[
  {
    "type": "Feature",
    "geometry": {
      "type": "Point",
      "coordinates": [
        120.64759,
        24.15935
      ]
    },
    "properties": {
      "id": "0019",
      "name": "市警局",
      "seq": 1
    }
  },
  {
    "type": "Feature",
    "geometry": {
      "type": "Point",
      "coordinates": [
        120.61552,
        24.11184
      ]
    },
    "properties": {
      "id": "2907",
      "name": "高鐵臺中站",
      "seq": 14
    }
  },
  {
    "type": "Feature",
    "geometry": {
      "type": "Point",
      "coordinates": [
        120.69721,
        24.05548
      ]
    },
    "properties": {
      "id": "2692",
      "name": "省議會",
      "seq": 25
    }
  },
  {
    "type": "Feature",
    "geometry": {
      "type": "Point",
      "coordinates": [
        120.69793,
        24.05764
      ]
    },
    "properties": {
      "id": "3976",
      "name": "霧峰國小",
      "seq": 26
    }
  },
  {
    "type": "Feature",
    "geometry": {
      "type": "Point",
      "coordinates": [
        120.69807,
        24.05974
      ]
    },
    "properties": {
      "id": "5546",
      "name": "教育部國教署",
      "seq": 27
    }
  },
  {
    "type": "Feature",
    "geometry": {
      "type": "Point",
      "coordinates": [
        120.69847,
        24.06252
      ]
    },
    "properties": {
      "id": "3978",
      "name": "霧峰郵局",
      "seq": 28
    }
  },
  {
    "type": "Feature",
    "geometry": {
      "type": "Point",
      "coordinates": [
        120.69867,
        24.0641
      ]
    },
    "properties": {
      "id": "3972",
      "name": "霧峰",
      "seq": 29
    }
  },
  {
    "type": "Feature",
    "geometry": {
      "type": "Point",
      "coordinates": [
        120.64692,
        24.16435
      ]
    },
    "properties": {
      "id": "0017",
      "name": "臺中市政府",
      "seq": 3
    }
  },
  {
    "type": "Feature",
    "geometry": {
      "type": "Point",
      "coordinates": [
        120.6989,
        24.067
      ]
    },
    "properties": {
      "id": "4972",
      "name": "中正草湖路口",
      "seq": 30
    }
  },
  {
    "type": "Feature",
    "geometry": {
      "type": "Point",
      "coordinates": [
        120.69928,
        24.0697
      ]
    },
    "properties": {
      "id": "1994",
      "name": "甲寅",
      "seq": 31
    }
  },
  {
    "type": "Feature",
    "geometry": {
      "type": "Point",
      "coordinates": [
        120.69986,
        24.07332
      ]
    },
    "properties": {
      "id": "3980",
      "name": "霧峰農工",
      "seq": 32
    }
  },
  {
    "type": "Feature",
    "geometry": {
      "type": "Point",
      "coordinates": [
        120.69952,
        24.07654
      ]
    },
    "properties": {
      "id": "2062",
      "name": "中正吉峰路口",
      "seq": 33
    }
  },
  {
    "type": "Feature",
    "geometry": {
      "type": "Point",
      "coordinates": [
        120.64418,
        24.1658
      ]
    },
    "properties": {
      "id": "0016",
      "name": "新光三越",
      "seq": 4
    }
  },
  {
    "type": "Feature",
    "geometry": {
      "type": "Point",
      "coordinates": [
        120.63968,
        24.16892
      ]
    },
    "properties": {
      "id": "0826",
      "name": "秋紅谷(朝陽橋)",
      "seq": 5
    }
  },
  {
    "type": "Feature",
    "geometry": {
      "type": "Point",
      "coordinates": [
        120.63517,
        24.17187
      ]
    },
    "properties": {
      "id": "5788",
      "name": "朝馬2(臺灣大道)",
      "seq": 6
    }
  }
]
