[
  {
    "type": "Feature",
    "geometry": {
      "type": "Point",
      "coordinates": [
        120.82862,
        24.25742
      ]
    },
    "properties": {
      "id": "2428",
      "name": "東勢",
      "seq": 1
    }
  },
  {
    "type": "Feature",
    "geometry": {
      "type": "Point",
      "coordinates": [
        120.8272,
        24.26098
      ]
    },
    "properties": {
      "id": "4500",
      "name": "東勢老人會館",
      "seq": 2
    }
  },
  {
    "type": "Feature",
    "geometry": {
      "type": "Point",
      "coordinates": [
        120.82676,
        24.26256
      ]
    },
    "properties": {
      "id": "2434",
      "name": "東新國中",
      "seq": 3
    }
  },
  {
    "type": "Feature",
    "geometry": {
      "type": "Point",
      "coordinates": [
        120.82464,
        24.26264
      ]
    },
    "properties": {
      "id": "4494",
      "name": "新豐新寧街口",
      "seq": 4
    }
  },
  {
    "type": "Feature",
    "geometry": {
      "type": "Point",
      "coordinates": [
        120.81565,
        24.25913
      ]
    },
    "properties": {
      "id": "4650",
      "name": "土牛(和盛街)",
      "seq": 5
    }
  },
  {
    "type": "Feature",
    "geometry": {
      "type": "Point",
      "coordinates": [
        120.81402,
        24.25639
      ]
    },
    "properties": {
      "id": "2593",
      "name": "南眉",
      "seq": 6
    }
  },
  {
    "type": "Feature",
    "geometry": {
      "type": "Point",
      "coordinates": [
        120.80775,
        24.25706
      ]
    },
    "properties": {
      "id": "2446",
      "name": "果菜市場",
      "seq": 9
    }
  },
  {
    "type": "Feature",
    "geometry": {
      "type": "Point",
      "coordinates": [
        120.80698,
        24.25547
      ]
    },
    "properties": {
      "id": "1394",
      "name": "山頂",
      "seq": 10
    }
  },
  {
    "type": "Feature",
    "geometry": {
      "type": "Point",
      "coordinates": [
        120.80775,
        24.25339
      ]
    },
    "properties": {
      "id": "3557",
      "name": "電信局前",
      "seq": 11
    }
  },
  {
    "type": "Feature",
    "geometry": {
      "type": "Point",
      "coordinates": [
        120.80893,
        24.25027
      ]
    },
    "properties": {
      "id": "1438",
      "name": "中正里",
      "seq": 12
    }
  },
  {
    "type": "Feature",
    "geometry": {
      "type": "Point",
      "coordinates": [
        120.80868,
        24.24772
      ]
    },
    "properties": {
      "id": "0011",
      "name": "郵局",
      "seq": 13
    }
  },
  {
    "type": "Feature",
    "geometry": {
      "type": "Point",
      "coordinates": [
        120.80832,
        24.24638
      ]
    },
    "properties": {
      "id": "1199",
      "name": "下新社",
      "seq": 14
    }
  },
  {
    "type": "Feature",
    "geometry": {
      "type": "Point",
      "coordinates": [
        120.80835,
        24.24458
      ]
    },
    "properties": {
      "id": "3398",
      "name": "新社",
      "seq": 15
    }
  },
  {
    "type": "Feature",
    "geometry": {
      "type": "Point",
      "coordinates": [
        120.80832,
        24.24234
      ]
    },
    "properties": {
      "id": "1887",
      "name": "市場前",
      "seq": 16
    }
  },
  {
    "type": "Feature",
    "geometry": {
      "type": "Point",
      "coordinates": [
        120.80926,
        24.23992
      ]
    },
    "properties": {
      "id": "1264",
      "name": "土城",
      "seq": 17
    }
  },
  {
    "type": "Feature",
    "geometry": {
      "type": "Point",
      "coordinates": [
        120.81476,
        24.23702
      ]
    },
    "properties": {
      "id": "1691",
      "name": "月湖里",
      "seq": 18
    }
  },
  {
    "type": "Feature",
    "geometry": {
      "type": "Point",
      "coordinates": [
        120.8169,
        24.23039
      ]
    },
    "properties": {
      "id": "2219",
      "name": "伯公崎",
      "seq": 19
    }
  },
  {
    "type": "Feature",
    "geometry": {
      "type": "Point",
      "coordinates": [
        120.81938,
        24.22295
      ]
    },
    "properties": {
      "id": "2500",
      "name": "股份園路口",
      "seq": 20
    }
  },
  {
    "type": "Feature",
    "geometry": {
      "type": "Point",
      "coordinates": [
        120.8204,
        24.21904
      ]
    },
    "properties": {
      "id": "1133",
      "name": "下水底寮",
      "seq": 21
    }
  },
  {
    "type": "Feature",
    "geometry": {
      "type": "Point",
      "coordinates": [
        120.81995,
        24.21527
      ]
    },
    "properties": {
      "id": "3362",
      "name": "新七村",
      "seq": 22
    }
  },
  {
    "type": "Feature",
    "geometry": {
      "type": "Point",
      "coordinates": [
        120.82012,
        24.21243
      ]
    },
    "properties": {
      "id": "1158",
      "name": "下東興",
      "seq": 23
    }
  },
  {
    "type": "Feature",
    "geometry": {
      "type": "Point",
      "coordinates": [
        120.8214,
        24.20688
      ]
    },
    "properties": {
      "id": "2441",
      "name": "東興",
      "seq": 24
    }
  },
  {
    "type": "Feature",
    "geometry": {
      "type": "Point",
      "coordinates": [
        120.82143,
        24.20415
      ]
    },
    "properties": {
      "id": "3123",
      "name": "頂東興",
      "seq": 25
    }
  },
  {
    "type": "Feature",
    "geometry": {
      "type": "Point",
      "coordinates": [
        120.81794,
        24.2027
      ]
    },
    "properties": {
      "id": "6036",
      "name": "崎頂(協興街)",
      "seq": 26
    }
  },
  {
    "type": "Feature",
    "geometry": {
      "type": "Point",
      "coordinates": [
        120.81603,
        24.20277
      ]
    },
    "properties": {
      "id": "1008",
      "name": "二苗圃口",
      "seq": 27
    }
  },
  {
    "type": "Feature",
    "geometry": {
      "type": "Point",
      "coordinates": [
        120.81597,
        24.19767
      ]
    },
    "properties": {
      "id": "1139",
      "name": "下田寮",
      "seq": 28
    }
  },
  {
    "type": "Feature",
    "geometry": {
      "type": "Point",
      "coordinates": [
        120.81596,
        24.19558
      ]
    },
    "properties": {
      "id": "1226",
      "name": "上田寮",
      "seq": 29
    }
  },
  {
    "type": "Feature",
    "geometry": {
      "type": "Point",
      "coordinates": [
        120.81361,
        24.1926
      ]
    },
    "properties": {
      "id": "0244",
      "name": "紫明宮",
      "seq": 30
    }
  },
  {
    "type": "Feature",
    "geometry": {
      "type": "Point",
      "coordinates": [
        120.81189,
        24.19102
      ]
    },
    "properties": {
      "id": "1533",
      "name": "五村口",
      "seq": 31
    }
  },
  {
    "type": "Feature",
    "geometry": {
      "type": "Point",
      "coordinates": [
        120.80927,
        24.19202
      ]
    },
    "properties": {
      "id": "1354",
      "name": "大嵙口",
      "seq": 32
    }
  },
  {
    "type": "Feature",
    "geometry": {
      "type": "Point",
      "coordinates": [
        120.80661,
        24.19425
      ]
    },
    "properties": {
      "id": "1095",
      "name": "三嵙口",
      "seq": 33
    }
  },
  {
    "type": "Feature",
    "geometry": {
      "type": "Point",
      "coordinates": [
        120.80492,
        24.19549
      ]
    },
    "properties": {
      "id": "3372",
      "name": "新四村",
      "seq": 34
    }
  },
  {
    "type": "Feature",
    "geometry": {
      "type": "Point",
      "coordinates": [
        120.80283,
        24.19719
      ]
    },
    "properties": {
      "id": "1849",
      "name": "四村口",
      "seq": 35
    }
  },
  {
    "type": "Feature",
    "geometry": {
      "type": "Point",
      "coordinates": [
        120.80023,
        24.19925
      ]
    },
    "properties": {
      "id": "3825",
      "name": "頭嵙口",
      "seq": 36
    }
  },
  {
    "type": "Feature",
    "geometry": {
      "type": "Point",
      "coordinates": [
        120.79725,
        24.20328
      ]
    },
    "properties": {
      "id": "1224",
      "name": "上中興嶺",
      "seq": 37
    }
  },
  {
    "type": "Feature",
    "geometry": {
      "type": "Point",
      "coordinates": [
        120.79406,
        24.20579
      ]
    },
    "properties": {
      "id": "0437",
      "name": "中興嶺",
      "seq": 38
    }
  },
  {
    "type": "Feature",
    "geometry": {
      "type": "Point",
      "coordinates": [
        120.79244,
        24.2051
      ]
    },
    "properties": {
      "id": "0453",
      "name": "內湖",
      "seq": 39
    }
  },
  {
    "type": "Feature",
    "geometry": {
      "type": "Point",
      "coordinates": [
        120.7898,
        24.20519
      ]
    },
    "properties": {
      "id": "5615",
      "name": "單冬",
      "seq": 40
    }
  },
  {
    "type": "Feature",
    "geometry": {
      "type": "Point",
      "coordinates": [
        120.7875,
        24.20663
      ]
    },
    "properties": {
      "id": "0359",
      "name": "大崎下",
      "seq": 41
    }
  },
  {
    "type": "Feature",
    "geometry": {
      "type": "Point",
      "coordinates": [
        120.78239,
        24.20313
      ]
    },
    "properties": {
      "id": "0578",
      "name": "田螺湖",
      "seq": 43
    }
  },
  {
    "type": "Feature",
    "geometry": {
      "type": "Point",
      "coordinates": [
        120.77903,
        24.19965
      ]
    },
    "properties": {
      "id": "5614",
      "name": "雙連坪",
      "seq": 44
    }
  },
  {
    "type": "Feature",
    "geometry": {
      "type": "Point",
      "coordinates": [
        120.77618,
        24.19876
      ]
    },
    "properties": {
      "id": "0560",
      "name": "民德橋",
      "seq": 45
    }
  },
  {
    "type": "Feature",
    "geometry": {
      "type": "Point",
      "coordinates": [
        120.77346,
        24.19736
      ]
    },
    "properties": {
      "id": "4525",
      "name": "昌龍橋",
      "seq": 46
    }
  },
  {
    "type": "Feature",
    "geometry": {
      "type": "Point",
      "coordinates": [
        120.76859,
        24.19799
      ]
    },
    "properties": {
      "id": "5969",
      "name": "三角埔(東山路)",
      "seq": 47
    }
  },
  {
    "type": "Feature",
    "geometry": {
      "type": "Point",
      "coordinates": [
        120.76602,
        24.19861
      ]
    },
    "properties": {
      "id": "5510",
      "name": "復興橋",
      "seq": 48
    }
  },
  {
    "type": "Feature",
    "geometry": {
      "type": "Point",
      "coordinates": [
        120.76311,
        24.19928
      ]
    },
    "properties": {
      "id": "0651",
      "name": "東山樂園",
      "seq": 49
    }
  },
  {
    "type": "Feature",
    "geometry": {
      "type": "Point",
      "coordinates": [
        120.76057,
        24.19995
      ]
    },
    "properties": {
      "id": "2849",
      "name": "荔園",
      "seq": 50
    }
  },
  {
    "type": "Feature",
    "geometry": {
      "type": "Point",
      "coordinates": [
        120.75624,
        24.19986
      ]
    },
    "properties": {
      "id": "0897",
      "name": "福慧寺",
      "seq": 51
    }
  },
  {
    "type": "Feature",
    "geometry": {
      "type": "Point",
      "coordinates": [
        120.75299,
        24.19924
      ]
    },
    "properties": {
      "id": "5164",
      "name": "觀光果園",
      "seq": 52
    }
  },
  {
    "type": "Feature",
    "geometry": {
      "type": "Point",
      "coordinates": [
        120.75113,
        24.19857
      ]
    },
    "properties": {
      "id": "4526",
      "name": "普陀精舍",
      "seq": 53
    }
  },
  {
    "type": "Feature",
    "geometry": {
      "type": "Point",
      "coordinates": [
        120.74754,
        24.19584
      ]
    },
    "properties": {
      "id": "5085",
      "name": "大坑國小",
      "seq": 54
    }
  },
  {
    "type": "Feature",
    "geometry": {
      "type": "Point",
      "coordinates": [
        120.74753,
        24.19385
      ]
    },
    "properties": {
      "id": "0839",
      "name": "貴城山莊",
      "seq": 55
    }
  },
  {
    "type": "Feature",
    "geometry": {
      "type": "Point",
      "coordinates": [
        120.74724,
        24.1929
      ]
    },
    "properties": {
      "id": "1093",
      "name": "三貴城",
      "seq": 56
    }
  },
  {
    "type": "Feature",
    "geometry": {
      "type": "Point",
      "coordinates": [
        120.74628,
        24.18979
      ]
    },
    "properties": {
      "id": "0939",
      "name": "龜山農場",
      "seq": 57
    }
  },
  {
    "type": "Feature",
    "geometry": {
      "type": "Point",
      "coordinates": [
        120.74489,
        24.1879
      ]
    },
    "properties": {
      "id": "0688",
      "name": "青山社區",
      "seq": 58
    }
  },
  {
    "type": "Feature",
    "geometry": {
      "type": "Point",
      "coordinates": [
        120.7442,
        24.18672
      ]
    },
    "properties": {
      "id": "0770",
      "name": "清水橋",
      "seq": 59
    }
  },
  {
    "type": "Feature",
    "geometry": {
      "type": "Point",
      "coordinates": [
        120.74386,
        24.18351
      ]
    },
    "properties": {
      "id": "0871",
      "name": "聖壽宮",
      "seq": 60
    }
  },
  {
    "type": "Feature",
    "geometry": {
      "type": "Point",
      "coordinates": [
        120.74022,
        24.17913
      ]
    },
    "properties": {
      "id": "0350",
      "name": "大坑圓環",
      "seq": 61
    }
  },
  {
    "type": "Feature",
    "geometry": {
      "type": "Point",
      "coordinates": [
        120.73719,
        24.1784
      ]
    },
    "properties": {
      "id": "0784",
      "name": "逢甲橋",
      "seq": 62
    }
  },
  {
    "type": "Feature",
    "geometry": {
      "type": "Point",
      "coordinates": [
        120.73561,
        24.17762
      ]
    },
    "properties": {
      "id": "0768",
      "name": "梨仔園",
      "seq": 63
    }
  },
  {
    "type": "Feature",
    "geometry": {
      "type": "Point",
      "coordinates": [
        120.73464,
        24.17712
      ]
    },
    "properties": {
      "id": "0534",
      "name": "台電東山所",
      "seq": 64
    }
  },
  {
    "type": "Feature",
    "geometry": {
      "type": "Point",
      "coordinates": [
        120.73186,
        24.17701
      ]
    },
    "properties": {
      "id": "0854",
      "name": "圓山新村",
      "seq": 65
    }
  },
  {
    "type": "Feature",
    "geometry": {
      "type": "Point",
      "coordinates": [
        120.72747,
        24.17666
      ]
    },
    "properties": {
      "id": "0555",
      "name": "正覺寺",
      "seq": 66
    }
  },
  {
    "type": "Feature",
    "geometry": {
      "type": "Point",
      "coordinates": [
        120.72445,
        24.1762
      ]
    },
    "properties": {
      "id": "0687",
      "name": "長興塑膠",
      "seq": 67
    }
  },
  {
    "type": "Feature",
    "geometry": {
      "type": "Point",
      "coordinates": [
        120.72211,
        24.17608
      ]
    },
    "properties": {
      "id": "4592",
      "name": "和平里(東山路)",
      "seq": 68
    }
  },
  {
    "type": "Feature",
    "geometry": {
      "type": "Point",
      "coordinates": [
        120.71973,
        24.17592
      ]
    },
    "properties": {
      "id": "0727",
      "name": "軍功里",
      "seq": 69
    }
  },
  {
    "type": "Feature",
    "geometry": {
      "type": "Point",
      "coordinates": [
        120.71743,
        24.17541
      ]
    },
    "properties": {
      "id": "0703",
      "name": "建功國小",
      "seq": 70
    }
  },
  {
    "type": "Feature",
    "geometry": {
      "type": "Point",
      "coordinates": [
        120.71467,
        24.174
      ]
    },
    "properties": {
      "id": "0365",
      "name": "大華新村",
      "seq": 71
    }
  },
  {
    "type": "Feature",
    "geometry": {
      "type": "Point",
      "coordinates": [
        120.7117,
        24.17236
      ]
    },
    "properties": {
      "id": "0485",
      "name": "水景頭",
      "seq": 72
    }
  },
  {
    "type": "Feature",
    "geometry": {
      "type": "Point",
      "coordinates": [
        120.70955,
        24.17121
      ]
    },
    "properties": {
      "id": "0325",
      "name": "三和社區",
      "seq": 73
    }
  },
  {
    "type": "Feature",
    "geometry": {
      "type": "Point",
      "coordinates": [
        120.70846,
        24.17051
      ]
    },
    "properties": {
      "id": "0484",
      "name": "水景里",
      "seq": 74
    }
  },
  {
    "type": "Feature",
    "geometry": {
      "type": "Point",
      "coordinates": [
        120.70691,
        24.16965
      ]
    },
    "properties": {
      "id": "0679",
      "name": "玫瑰新村",
      "seq": 75
    }
  },
  {
    "type": "Feature",
    "geometry": {
      "type": "Point",
      "coordinates": [
        120.70446,
        24.16955
      ]
    },
    "properties": {
      "id": "0284",
      "name": "東山旱溪西路口",
      "seq": 76
    }
  },
  {
    "type": "Feature",
    "geometry": {
      "type": "Point",
      "coordinates": [
        120.70257,
        24.16981
      ]
    },
    "properties": {
      "id": "4312",
      "name": "東光國小",
      "seq": 77
    }
  },
  {
    "type": "Feature",
    "geometry": {
      "type": "Point",
      "coordinates": [
        120.69892,
        24.17031
      ]
    },
    "properties": {
      "id": "0222",
      "name": "聯安醫院",
      "seq": 78
    }
  },
  {
    "type": "Feature",
    "geometry": {
      "type": "Point",
      "coordinates": [
        120.69716,
        24.16973
      ]
    },
    "properties": {
      "id": "0103",
      "name": "大坑口",
      "seq": 79
    }
  },
  {
    "type": "Feature",
    "geometry": {
      "type": "Point",
      "coordinates": [
        120.69592,
        24.1677
      ]
    },
    "properties": {
      "id": "5511",
      "name": "三光國中",
      "seq": 80
    }
  },
  {
    "type": "Feature",
    "geometry": {
      "type": "Point",
      "coordinates": [
        120.69418,
        24.16504
      ]
    },
    "properties": {
      "id": "0492",
      "name": "北屯",
      "seq": 81
    }
  },
  {
    "type": "Feature",
    "geometry": {
      "type": "Point",
      "coordinates": [
        120.69303,
        24.16306
      ]
    },
    "properties": {
      "id": "5405",
      "name": "北屯國小(北屯路)",
      "seq": 82
    }
  },
  {
    "type": "Feature",
    "geometry": {
      "type": "Point",
      "coordinates": [
        120.69209,
        24.16106
      ]
    },
    "properties": {
      "id": "0892",
      "name": "監理站",
      "seq": 83
    }
  },
  {
    "type": "Feature",
    "geometry": {
      "type": "Point",
      "coordinates": [
        120.68992,
        24.15803
      ]
    },
    "properties": {
      "id": "0960",
      "name": "寶覺寺",
      "seq": 84
    }
  },
  {
    "type": "Feature",
    "geometry": {
      "type": "Point",
      "coordinates": [
        120.6885,
        24.1568
      ]
    },
    "properties": {
      "id": "4399",
      "name": "新民高中(三民路)",
      "seq": 85
    }
  },
  {
    "type": "Feature",
    "geometry": {
      "type": "Point",
      "coordinates": [
        120.68806,
        24.15396
      ]
    },
    "properties": {
      "id": "0048",
      "name": "莒光新城",
      "seq": 86
    }
  },
  {
    "type": "Feature",
    "geometry": {
      "type": "Point",
      "coordinates": [
        120.6889,
        24.15262
      ]
    },
    "properties": {
      "id": "4694",
      "name": "臺灣體大體育場",
      "seq": 87
    }
  },
  {
    "type": "Feature",
    "geometry": {
      "type": "Point",
      "coordinates": [
        120.6875,
        24.14956
      ]
    },
    "properties": {
      "id": "0149",
      "name": "臺中一中",
      "seq": 88
    }
  },
  {
    "type": "Feature",
    "geometry": {
      "type": "Point",
      "coordinates": [
        120.68642,
        24.14708
      ]
    },
    "properties": {
      "id": "4695",
      "name": "臺灣體大游泳池",
      "seq": 89
    }
  },
  {
    "type": "Feature",
    "geometry": {
      "type": "Point",
      "coordinates": [
        120.68597,
        24.14419
      ]
    },
    "properties": {
      "id": "4544",
      "name": "臺中公園(雙十路)",
      "seq": 90
    }
  },
  {
    "type": "Feature",
    "geometry": {
      "type": "Point",
      "coordinates": [
        120.68599,
        24.14089
      ]
    },
    "properties": {
      "id": "0402",
      "name": "干城站",
      "seq": 91
    }
  },
  {
    "type": "Feature",
    "geometry": {
      "type": "Point",
      "coordinates": [
        120.68397,
        24.13672
      ]
    },
    "properties": {
      "id": "1824",
      "name": "臺中火車站",
      "seq": 92
    }
  },
  {
    "type": "Feature",
    "geometry": {
      "type": "Point",
      "coordinates": [
        120.68101,
        24.13701
      ]
    },
    "properties": {
      "id": "4284",
      "name": "民權繼光街口",
      "seq": 93
    }
  },
  {
    "type": "Feature",
    "geometry": {
      "type": "Point",
      "coordinates": [
        120.67803,
        24.13596
      ]
    },
    "properties": {
      "id": "0071",
      "name": "臺中女中",
      "seq": 94
    }
  },
  {
    "type": "Feature",
    "geometry": {
      "type": "Point",
      "coordinates": [
        120.67588,
        24.13404
      ]
    },
    "properties": {
      "id": "0070",
      "name": "地方法院",
      "seq": 95
    }
  },
  {
    "type": "Feature",
    "geometry": {
      "type": "Point",
      "coordinates": [
        120.66997,
        24.13199
      ]
    },
    "properties": {
      "id": "5778",
      "name": "公館公園(自由路)",
      "seq": 96
    }
  },
  {
    "type": "Feature",
    "geometry": {
      "type": "Point",
      "coordinates": [
        120.66682,
        24.13142
      ]
    },
    "properties": {
      "id": "5763",
      "name": "奉順宮",
      "seq": 97
    }
  },
  {
    "type": "Feature",
    "geometry": {
      "type": "Point",
      "coordinates": [
        120.66317,
        24.13014
      ]
    },
    "properties": {
      "id": "5764",
      "name": "三民西民興街口",
      "seq": 98
    }
  },
  {
    "type": "Feature",
    "geometry": {
      "type": "Point",
      "coordinates": [
        120.66008,
        24.13012
      ]
    },
    "properties": {
      "id": "5765",
      "name": "三民西柳川東路口",
      "seq": 99
    }
  },
  {
    "type": "Feature",
    "geometry": {
      "type": "Point",
      "coordinates": [
        120.65583,
        24.12973
      ]
    },
    "properties": {
      "id": "5766",
      "name": "豐富公園",
      "seq": 100
    }
  },
  {
    "type": "Feature",
    "geometry": {
      "type": "Point",
      "coordinates": [
        120.65323,
        24.13093
      ]
    },
    "properties": {
      "id": "6035",
      "name": "愛心家園醫務室",
      "seq": 101
    }
  },
  {
    "type": "Feature",
    "geometry": {
      "type": "Point",
      "coordinates": [
        120.6532,
        24.13162
      ]
    },
    "properties": {
      "id": "6035",
      "name": "愛心家園醫務室",
      "seq": 1
    }
  },
  {
    "type": "Feature",
    "geometry": {
      "type": "Point",
      "coordinates": [
        120.65583,
        24.12973
      ]
    },
    "properties": {
      "id": "5766",
      "name": "豐富公園",
      "seq": 2
    }
  },
  {
    "type": "Feature",
    "geometry": {
      "type": "Point",
      "coordinates": [
        120.66008,
        24.13012
      ]
    },
    "properties": {
      "id": "5765",
      "name": "三民西柳川東路口",
      "seq": 3
    }
  },
  {
    "type": "Feature",
    "geometry": {
      "type": "Point",
      "coordinates": [
        120.66317,
        24.13014
      ]
    },
    "properties": {
      "id": "5764",
      "name": "三民西民興街口",
      "seq": 4
    }
  },
  {
    "type": "Feature",
    "geometry": {
      "type": "Point",
      "coordinates": [
        120.66682,
        24.13142
      ]
    },
    "properties": {
      "id": "5763",
      "name": "奉順宮",
      "seq": 5
    }
  },
  {
    "type": "Feature",
    "geometry": {
      "type": "Point",
      "coordinates": [
        120.66997,
        24.13199
      ]
    },
    "properties": {
      "id": "5778",
      "name": "公館公園(自由路)",
      "seq": 6
    }
  },
  {
    "type": "Feature",
    "geometry": {
      "type": "Point",
      "coordinates": [
        120.67588,
        24.13404
      ]
    },
    "properties": {
      "id": "0070",
      "name": "地方法院",
      "seq": 7
    }
  },
  {
    "type": "Feature",
    "geometry": {
      "type": "Point",
      "coordinates": [
        120.67803,
        24.13596
      ]
    },
    "properties": {
      "id": "0071",
      "name": "臺中女中",
      "seq": 8
    }
  },
  {
    "type": "Feature",
    "geometry": {
      "type": "Point",
      "coordinates": [
        120.68101,
        24.13701
      ]
    },
    "properties": {
      "id": "4284",
      "name": "民權繼光街口",
      "seq": 9
    }
  },
  {
    "type": "Feature",
    "geometry": {
      "type": "Point",
      "coordinates": [
        120.68397,
        24.13672
      ]
    },
    "properties": {
      "id": "1824",
      "name": "臺中火車站",
      "seq": 10
    }
  },
  {
    "type": "Feature",
    "geometry": {
      "type": "Point",
      "coordinates": [
        120.68599,
        24.14089
      ]
    },
    "properties": {
      "id": "0402",
      "name": "干城站",
      "seq": 11
    }
  },
  {
    "type": "Feature",
    "geometry": {
      "type": "Point",
      "coordinates": [
        120.68597,
        24.14419
      ]
    },
    "properties": {
      "id": "4544",
      "name": "臺中公園(雙十路)",
      "seq": 12
    }
  },
  {
    "type": "Feature",
    "geometry": {
      "type": "Point",
      "coordinates": [
        120.68642,
        24.14708
      ]
    },
    "properties": {
      "id": "4695",
      "name": "臺灣體大游泳池",
      "seq": 13
    }
  },
  {
    "type": "Feature",
    "geometry": {
      "type": "Point",
      "coordinates": [
        120.6875,
        24.14956
      ]
    },
    "properties": {
      "id": "0149",
      "name": "臺中一中",
      "seq": 14
    }
  },
  {
    "type": "Feature",
    "geometry": {
      "type": "Point",
      "coordinates": [
        120.6889,
        24.15262
      ]
    },
    "properties": {
      "id": "4694",
      "name": "臺灣體大體育場",
      "seq": 15
    }
  },
  {
    "type": "Feature",
    "geometry": {
      "type": "Point",
      "coordinates": [
        120.68806,
        24.15396
      ]
    },
    "properties": {
      "id": "0048",
      "name": "莒光新城",
      "seq": 16
    }
  },
  {
    "type": "Feature",
    "geometry": {
      "type": "Point",
      "coordinates": [
        120.6885,
        24.1568
      ]
    },
    "properties": {
      "id": "4399",
      "name": "新民高中(三民路)",
      "seq": 17
    }
  },
  {
    "type": "Feature",
    "geometry": {
      "type": "Point",
      "coordinates": [
        120.68992,
        24.15803
      ]
    },
    "properties": {
      "id": "0960",
      "name": "寶覺寺",
      "seq": 18
    }
  },
  {
    "type": "Feature",
    "geometry": {
      "type": "Point",
      "coordinates": [
        120.69209,
        24.16106
      ]
    },
    "properties": {
      "id": "0892",
      "name": "監理站",
      "seq": 19
    }
  },
  {
    "type": "Feature",
    "geometry": {
      "type": "Point",
      "coordinates": [
        120.69324,
        24.16309
      ]
    },
    "properties": {
      "id": "5405",
      "name": "北屯國小(北屯路)",
      "seq": 20
    }
  },
  {
    "type": "Feature",
    "geometry": {
      "type": "Point",
      "coordinates": [
        120.69418,
        24.16504
      ]
    },
    "properties": {
      "id": "0492",
      "name": "北屯",
      "seq": 21
    }
  },
  {
    "type": "Feature",
    "geometry": {
      "type": "Point",
      "coordinates": [
        120.69624,
        24.16807
      ]
    },
    "properties": {
      "id": "5511",
      "name": "三光國中",
      "seq": 22
    }
  },
  {
    "type": "Feature",
    "geometry": {
      "type": "Point",
      "coordinates": [
        120.69716,
        24.16973
      ]
    },
    "properties": {
      "id": "0103",
      "name": "大坑口",
      "seq": 23
    }
  },
  {
    "type": "Feature",
    "geometry": {
      "type": "Point",
      "coordinates": [
        120.69869,
        24.17028
      ]
    },
    "properties": {
      "id": "0222",
      "name": "聯安醫院",
      "seq": 24
    }
  },
  {
    "type": "Feature",
    "geometry": {
      "type": "Point",
      "coordinates": [
        120.70282,
        24.1697
      ]
    },
    "properties": {
      "id": "4312",
      "name": "東光國小",
      "seq": 25
    }
  },
  {
    "type": "Feature",
    "geometry": {
      "type": "Point",
      "coordinates": [
        120.7048,
        24.16954
      ]
    },
    "properties": {
      "id": "0284",
      "name": "東山旱溪西路口",
      "seq": 26
    }
  },
  {
    "type": "Feature",
    "geometry": {
      "type": "Point",
      "coordinates": [
        120.70674,
        24.16958
      ]
    },
    "properties": {
      "id": "0679",
      "name": "玫瑰新村",
      "seq": 27
    }
  },
  {
    "type": "Feature",
    "geometry": {
      "type": "Point",
      "coordinates": [
        120.70846,
        24.17051
      ]
    },
    "properties": {
      "id": "0484",
      "name": "水景里",
      "seq": 28
    }
  },
  {
    "type": "Feature",
    "geometry": {
      "type": "Point",
      "coordinates": [
        120.70955,
        24.17121
      ]
    },
    "properties": {
      "id": "0325",
      "name": "三和社區",
      "seq": 29
    }
  },
  {
    "type": "Feature",
    "geometry": {
      "type": "Point",
      "coordinates": [
        120.7117,
        24.17236
      ]
    },
    "properties": {
      "id": "0485",
      "name": "水景頭",
      "seq": 30
    }
  },
  {
    "type": "Feature",
    "geometry": {
      "type": "Point",
      "coordinates": [
        120.71467,
        24.174
      ]
    },
    "properties": {
      "id": "0365",
      "name": "大華新村",
      "seq": 31
    }
  },
  {
    "type": "Feature",
    "geometry": {
      "type": "Point",
      "coordinates": [
        120.71743,
        24.17541
      ]
    },
    "properties": {
      "id": "0703",
      "name": "建功國小",
      "seq": 32
    }
  },
  {
    "type": "Feature",
    "geometry": {
      "type": "Point",
      "coordinates": [
        120.71973,
        24.17592
      ]
    },
    "properties": {
      "id": "0727",
      "name": "軍功里",
      "seq": 33
    }
  },
  {
    "type": "Feature",
    "geometry": {
      "type": "Point",
      "coordinates": [
        120.72211,
        24.17608
      ]
    },
    "properties": {
      "id": "4592",
      "name": "和平里(東山路)",
      "seq": 34
    }
  },
  {
    "type": "Feature",
    "geometry": {
      "type": "Point",
      "coordinates": [
        120.72448,
        24.17609
      ]
    },
    "properties": {
      "id": "0687",
      "name": "長興塑膠",
      "seq": 35
    }
  },
  {
    "type": "Feature",
    "geometry": {
      "type": "Point",
      "coordinates": [
        120.72747,
        24.17666
      ]
    },
    "properties": {
      "id": "0555",
      "name": "正覺寺",
      "seq": 36
    }
  },
  {
    "type": "Feature",
    "geometry": {
      "type": "Point",
      "coordinates": [
        120.73186,
        24.17701
      ]
    },
    "properties": {
      "id": "0854",
      "name": "圓山新村",
      "seq": 37
    }
  },
  {
    "type": "Feature",
    "geometry": {
      "type": "Point",
      "coordinates": [
        120.73464,
        24.17712
      ]
    },
    "properties": {
      "id": "0534",
      "name": "台電東山所",
      "seq": 38
    }
  },
  {
    "type": "Feature",
    "geometry": {
      "type": "Point",
      "coordinates": [
        120.73565,
        24.17767
      ]
    },
    "properties": {
      "id": "0768",
      "name": "梨仔園",
      "seq": 39
    }
  },
  {
    "type": "Feature",
    "geometry": {
      "type": "Point",
      "coordinates": [
        120.73719,
        24.1784
      ]
    },
    "properties": {
      "id": "0784",
      "name": "逢甲橋",
      "seq": 40
    }
  },
  {
    "type": "Feature",
    "geometry": {
      "type": "Point",
      "coordinates": [
        120.74022,
        24.17913
      ]
    },
    "properties": {
      "id": "0350",
      "name": "大坑圓環",
      "seq": 41
    }
  },
  {
    "type": "Feature",
    "geometry": {
      "type": "Point",
      "coordinates": [
        120.74386,
        24.18351
      ]
    },
    "properties": {
      "id": "0871",
      "name": "聖壽宮",
      "seq": 42
    }
  },
  {
    "type": "Feature",
    "geometry": {
      "type": "Point",
      "coordinates": [
        120.7442,
        24.18672
      ]
    },
    "properties": {
      "id": "0770",
      "name": "清水橋",
      "seq": 43
    }
  },
  {
    "type": "Feature",
    "geometry": {
      "type": "Point",
      "coordinates": [
        120.74522,
        24.18815
      ]
    },
    "properties": {
      "id": "0688",
      "name": "青山社區",
      "seq": 44
    }
  },
  {
    "type": "Feature",
    "geometry": {
      "type": "Point",
      "coordinates": [
        120.74628,
        24.18979
      ]
    },
    "properties": {
      "id": "0939",
      "name": "龜山農場",
      "seq": 45
    }
  },
  {
    "type": "Feature",
    "geometry": {
      "type": "Point",
      "coordinates": [
        120.74724,
        24.1929
      ]
    },
    "properties": {
      "id": "1093",
      "name": "三貴城",
      "seq": 46
    }
  },
  {
    "type": "Feature",
    "geometry": {
      "type": "Point",
      "coordinates": [
        120.74755,
        24.19392
      ]
    },
    "properties": {
      "id": "0839",
      "name": "貴城山莊",
      "seq": 47
    }
  },
  {
    "type": "Feature",
    "geometry": {
      "type": "Point",
      "coordinates": [
        120.74754,
        24.19584
      ]
    },
    "properties": {
      "id": "5085",
      "name": "大坑國小",
      "seq": 48
    }
  },
  {
    "type": "Feature",
    "geometry": {
      "type": "Point",
      "coordinates": [
        120.75113,
        24.19857
      ]
    },
    "properties": {
      "id": "4526",
      "name": "普陀精舍",
      "seq": 49
    }
  },
  {
    "type": "Feature",
    "geometry": {
      "type": "Point",
      "coordinates": [
        120.75299,
        24.19924
      ]
    },
    "properties": {
      "id": "5164",
      "name": "觀光果園",
      "seq": 50
    }
  },
  {
    "type": "Feature",
    "geometry": {
      "type": "Point",
      "coordinates": [
        120.75624,
        24.19986
      ]
    },
    "properties": {
      "id": "0897",
      "name": "福慧寺",
      "seq": 51
    }
  },
  {
    "type": "Feature",
    "geometry": {
      "type": "Point",
      "coordinates": [
        120.76057,
        24.19995
      ]
    },
    "properties": {
      "id": "2849",
      "name": "荔園",
      "seq": 52
    }
  },
  {
    "type": "Feature",
    "geometry": {
      "type": "Point",
      "coordinates": [
        120.76311,
        24.19928
      ]
    },
    "properties": {
      "id": "0651",
      "name": "東山樂園",
      "seq": 53
    }
  },
  {
    "type": "Feature",
    "geometry": {
      "type": "Point",
      "coordinates": [
        120.76602,
        24.19861
      ]
    },
    "properties": {
      "id": "5510",
      "name": "復興橋",
      "seq": 54
    }
  },
  {
    "type": "Feature",
    "geometry": {
      "type": "Point",
      "coordinates": [
        120.76859,
        24.19799
      ]
    },
    "properties": {
      "id": "5969",
      "name": "三角埔(東山路)",
      "seq": 55
    }
  },
  {
    "type": "Feature",
    "geometry": {
      "type": "Point",
      "coordinates": [
        120.77328,
        24.19773
      ]
    },
    "properties": {
      "id": "4525",
      "name": "昌龍橋",
      "seq": 56
    }
  },
  {
    "type": "Feature",
    "geometry": {
      "type": "Point",
      "coordinates": [
        120.77618,
        24.19876
      ]
    },
    "properties": {
      "id": "0560",
      "name": "民德橋",
      "seq": 57
    }
  },
  {
    "type": "Feature",
    "geometry": {
      "type": "Point",
      "coordinates": [
        120.77903,
        24.19965
      ]
    },
    "properties": {
      "id": "5614",
      "name": "雙連坪",
      "seq": 58
    }
  },
  {
    "type": "Feature",
    "geometry": {
      "type": "Point",
      "coordinates": [
        120.78239,
        24.20313
      ]
    },
    "properties": {
      "id": "0578",
      "name": "田螺湖",
      "seq": 59
    }
  },
  {
    "type": "Feature",
    "geometry": {
      "type": "Point",
      "coordinates": [
        120.7875,
        24.20663
      ]
    },
    "properties": {
      "id": "0359",
      "name": "大崎下",
      "seq": 61
    }
  },
  {
    "type": "Feature",
    "geometry": {
      "type": "Point",
      "coordinates": [
        120.7898,
        24.20519
      ]
    },
    "properties": {
      "id": "5615",
      "name": "單冬",
      "seq": 62
    }
  },
  {
    "type": "Feature",
    "geometry": {
      "type": "Point",
      "coordinates": [
        120.79244,
        24.2051
      ]
    },
    "properties": {
      "id": "0453",
      "name": "內湖",
      "seq": 63
    }
  },
  {
    "type": "Feature",
    "geometry": {
      "type": "Point",
      "coordinates": [
        120.79406,
        24.20579
      ]
    },
    "properties": {
      "id": "0437",
      "name": "中興嶺",
      "seq": 64
    }
  },
  {
    "type": "Feature",
    "geometry": {
      "type": "Point",
      "coordinates": [
        120.79725,
        24.20328
      ]
    },
    "properties": {
      "id": "1224",
      "name": "上中興嶺",
      "seq": 65
    }
  },
  {
    "type": "Feature",
    "geometry": {
      "type": "Point",
      "coordinates": [
        120.80023,
        24.19925
      ]
    },
    "properties": {
      "id": "3825",
      "name": "頭嵙口",
      "seq": 66
    }
  },
  {
    "type": "Feature",
    "geometry": {
      "type": "Point",
      "coordinates": [
        120.80283,
        24.19719
      ]
    },
    "properties": {
      "id": "1849",
      "name": "四村口",
      "seq": 67
    }
  },
  {
    "type": "Feature",
    "geometry": {
      "type": "Point",
      "coordinates": [
        120.80492,
        24.19549
      ]
    },
    "properties": {
      "id": "3372",
      "name": "新四村",
      "seq": 68
    }
  },
  {
    "type": "Feature",
    "geometry": {
      "type": "Point",
      "coordinates": [
        120.80661,
        24.19425
      ]
    },
    "properties": {
      "id": "1095",
      "name": "三嵙口",
      "seq": 69
    }
  },
  {
    "type": "Feature",
    "geometry": {
      "type": "Point",
      "coordinates": [
        120.80927,
        24.19202
      ]
    },
    "properties": {
      "id": "1354",
      "name": "大嵙口",
      "seq": 70
    }
  },
  {
    "type": "Feature",
    "geometry": {
      "type": "Point",
      "coordinates": [
        120.81189,
        24.19102
      ]
    },
    "properties": {
      "id": "1533",
      "name": "五村口",
      "seq": 71
    }
  },
  {
    "type": "Feature",
    "geometry": {
      "type": "Point",
      "coordinates": [
        120.81361,
        24.1926
      ]
    },
    "properties": {
      "id": "0244",
      "name": "紫明宮",
      "seq": 72
    }
  },
  {
    "type": "Feature",
    "geometry": {
      "type": "Point",
      "coordinates": [
        120.81596,
        24.19558
      ]
    },
    "properties": {
      "id": "1226",
      "name": "上田寮",
      "seq": 73
    }
  },
  {
    "type": "Feature",
    "geometry": {
      "type": "Point",
      "coordinates": [
        120.81597,
        24.19767
      ]
    },
    "properties": {
      "id": "1139",
      "name": "下田寮",
      "seq": 74
    }
  },
  {
    "type": "Feature",
    "geometry": {
      "type": "Point",
      "coordinates": [
        120.81603,
        24.20277
      ]
    },
    "properties": {
      "id": "1008",
      "name": "二苗圃口",
      "seq": 75
    }
  },
  {
    "type": "Feature",
    "geometry": {
      "type": "Point",
      "coordinates": [
        120.81794,
        24.2027
      ]
    },
    "properties": {
      "id": "6036",
      "name": "崎頂(協興街)",
      "seq": 76
    }
  },
  {
    "type": "Feature",
    "geometry": {
      "type": "Point",
      "coordinates": [
        120.82143,
        24.20415
      ]
    },
    "properties": {
      "id": "3123",
      "name": "頂東興",
      "seq": 77
    }
  },
  {
    "type": "Feature",
    "geometry": {
      "type": "Point",
      "coordinates": [
        120.8214,
        24.20688
      ]
    },
    "properties": {
      "id": "2441",
      "name": "東興",
      "seq": 78
    }
  },
  {
    "type": "Feature",
    "geometry": {
      "type": "Point",
      "coordinates": [
        120.82012,
        24.21243
      ]
    },
    "properties": {
      "id": "1158",
      "name": "下東興",
      "seq": 79
    }
  },
  {
    "type": "Feature",
    "geometry": {
      "type": "Point",
      "coordinates": [
        120.81995,
        24.21527
      ]
    },
    "properties": {
      "id": "3362",
      "name": "新七村",
      "seq": 80
    }
  },
  {
    "type": "Feature",
    "geometry": {
      "type": "Point",
      "coordinates": [
        120.8204,
        24.21904
      ]
    },
    "properties": {
      "id": "1133",
      "name": "下水底寮",
      "seq": 81
    }
  },
  {
    "type": "Feature",
    "geometry": {
      "type": "Point",
      "coordinates": [
        120.81938,
        24.22295
      ]
    },
    "properties": {
      "id": "2500",
      "name": "股份園路口",
      "seq": 82
    }
  },
  {
    "type": "Feature",
    "geometry": {
      "type": "Point",
      "coordinates": [
        120.8169,
        24.23039
      ]
    },
    "properties": {
      "id": "2219",
      "name": "伯公崎",
      "seq": 83
    }
  },
  {
    "type": "Feature",
    "geometry": {
      "type": "Point",
      "coordinates": [
        120.81476,
        24.23702
      ]
    },
    "properties": {
      "id": "1691",
      "name": "月湖里",
      "seq": 84
    }
  },
  {
    "type": "Feature",
    "geometry": {
      "type": "Point",
      "coordinates": [
        120.80926,
        24.23992
      ]
    },
    "properties": {
      "id": "1264",
      "name": "土城",
      "seq": 85
    }
  },
  {
    "type": "Feature",
    "geometry": {
      "type": "Point",
      "coordinates": [
        120.80832,
        24.24234
      ]
    },
    "properties": {
      "id": "1887",
      "name": "市場前",
      "seq": 86
    }
  },
  {
    "type": "Feature",
    "geometry": {
      "type": "Point",
      "coordinates": [
        120.80835,
        24.24458
      ]
    },
    "properties": {
      "id": "3398",
      "name": "新社",
      "seq": 87
    }
  },
  {
    "type": "Feature",
    "geometry": {
      "type": "Point",
      "coordinates": [
        120.80832,
        24.24638
      ]
    },
    "properties": {
      "id": "1199",
      "name": "下新社",
      "seq": 88
    }
  },
  {
    "type": "Feature",
    "geometry": {
      "type": "Point",
      "coordinates": [
        120.80868,
        24.24772
      ]
    },
    "properties": {
      "id": "0011",
      "name": "郵局",
      "seq": 89
    }
  },
  {
    "type": "Feature",
    "geometry": {
      "type": "Point",
      "coordinates": [
        120.80893,
        24.25027
      ]
    },
    "properties": {
      "id": "1438",
      "name": "中正里",
      "seq": 90
    }
  },
  {
    "type": "Feature",
    "geometry": {
      "type": "Point",
      "coordinates": [
        120.80775,
        24.25339
      ]
    },
    "properties": {
      "id": "3557",
      "name": "電信局前",
      "seq": 91
    }
  },
  {
    "type": "Feature",
    "geometry": {
      "type": "Point",
      "coordinates": [
        120.80698,
        24.25547
      ]
    },
    "properties": {
      "id": "1394",
      "name": "山頂",
      "seq": 92
    }
  },
  {
    "type": "Feature",
    "geometry": {
      "type": "Point",
      "coordinates": [
        120.80775,
        24.25706
      ]
    },
    "properties": {
      "id": "2446",
      "name": "果菜市場",
      "seq": 93
    }
  },
  {
    "type": "Feature",
    "geometry": {
      "type": "Point",
      "coordinates": [
        120.81402,
        24.25639
      ]
    },
    "properties": {
      "id": "2593",
      "name": "南眉",
      "seq": 96
    }
  },
  {
    "type": "Feature",
    "geometry": {
      "type": "Point",
      "coordinates": [
        120.81565,
        24.25913
      ]
    },
    "properties": {
      "id": "4650",
      "name": "土牛(和盛街)",
      "seq": 97
    }
  },
  {
    "type": "Feature",
    "geometry": {
      "type": "Point",
      "coordinates": [
        120.82862,
        24.25742
      ]
    },
    "properties": {
      "id": "2428",
      "name": "東勢",
      "seq": 98
    }
  }
]
