<?xml version="1.0" encoding="UTF-8" standalone="yes"?>
<BusDynInfo><EssentialInfo><Location><name>TCBUS</name><CenterName>Maxwin</CenterName></Location><UpdateTime>2014-12-20 08:09:09</UpdateTime><CoordinateSystem/></EssentialInfo>
<BusInfo><Stop Id="2248" routeId="176" nameZh="沙鹿站" seqNo="1" pgp="0" terminal="0" districtId="1" GoBack="1" latitude="24.23783" longitude="120.56106" inDis="50" outDis="50" oid="10784" /><Stop Id="4681" routeId="176" nameZh="沙鹿市場" seqNo="2" pgp="0" terminal="0" districtId="1" GoBack="1" latitude="24.23731" longitude="120.55967" inDis="50" outDis="50" oid="313348322" /><Stop Id="4815" routeId="176" nameZh="沙鹿火車站" seqNo="3" pgp="0" terminal="0" districtId="1" GoBack="1" latitude="24.23612" longitude="120.55923" inDis="50" outDis="50" oid="313348309" /><Stop Id="4816" routeId="176" nameZh="沙鹿光田醫院" seqNo="4" pgp="0" terminal="0" districtId="1" GoBack="1" latitude="24.23492" longitude="120.55882" inDis="50" outDis="50" oid="313222697" /><Stop Id="3809" routeId="176" nameZh="興仁里" seqNo="5" pgp="0" terminal="0" districtId="1" GoBack="1" latitude="24.23027" longitude="120.5588" inDis="50" outDis="50" oid="14416" /><Stop Id="1664" routeId="176" nameZh="文光國小" seqNo="6" pgp="0" terminal="0" districtId="1" GoBack="1" latitude="24.2242" longitude="120.55734" inDis="50" outDis="50" oid="313575203" /><Stop Id="4458" routeId="176" nameZh="沙田天仁街口" seqNo="7" pgp="0" terminal="0" districtId="1" GoBack="1" latitude="24.22316" longitude="120.55692" inDis="50" outDis="50" oid="311330176" /><Stop Id="2613" routeId="176" nameZh="南勢里" seqNo="8" pgp="0" terminal="0" districtId="1" GoBack="1" latitude="24.22126" longitude="120.55613" inDis="50" outDis="50" oid="14418" /><Stop Id="4459" routeId="176" nameZh="沙田太平路口" seqNo="9" pgp="0" terminal="0" districtId="1" GoBack="1" latitude="24.21671" longitude="120.55287" inDis="50" outDis="50" oid="14419" /><Stop Id="5159" routeId="176" nameZh="龍山國小(山腳里)" seqNo="10" pgp="0" terminal="0" districtId="1" GoBack="1" latitude="24.21341" longitude="120.55174" inDis="50" outDis="50" oid="311330174" /><Stop Id="2559" routeId="176" nameZh="南山腳" seqNo="11" pgp="0" terminal="0" districtId="1" GoBack="1" latitude="24.21022" longitude="120.55056" inDis="50" outDis="50" oid="14421" /><Stop Id="4010" routeId="176" nameZh="鷺山" seqNo="12" pgp="0" terminal="0" districtId="1" GoBack="1" latitude="24.20743" longitude="120.54923" inDis="50" outDis="50" oid="14422" /><Stop Id="3850" routeId="176" nameZh="龍目井" seqNo="13" pgp="0" terminal="0" districtId="1" GoBack="1" latitude="24.20249" longitude="120.54798" inDis="50" outDis="50" oid="14423" /><Stop Id="3855" routeId="176" nameZh="龍泉" seqNo="14" pgp="0" terminal="0" districtId="1" GoBack="1" latitude="24.19924" longitude="120.54697" inDis="50" outDis="50" oid="14424" /><Stop Id="3846" routeId="176" nameZh="龍井火車站" seqNo="15" pgp="0" terminal="0" districtId="1" GoBack="1" latitude="24.19687" longitude="120.54659" inDis="50" outDis="50" oid="14425" /><Stop Id="5160" routeId="176" nameZh="龍井區公所" seqNo="16" pgp="0" terminal="0" districtId="1" GoBack="1" latitude="24.19246" longitude="120.54608" inDis="50" outDis="50" oid="14426" /><Stop Id="4807" routeId="176" nameZh="田中社區" seqNo="17" pgp="0" terminal="0" districtId="1" GoBack="1" latitude="24.19375" longitude="120.5309" inDis="50" outDis="50" oid="14427" /><Stop Id="4806" routeId="176" nameZh="田中村" seqNo="18" pgp="0" terminal="0" districtId="1" GoBack="1" latitude="24.19083" longitude="120.5305" inDis="50" outDis="50" oid="14429" /><Stop Id="4826" routeId="176" nameZh="南田中" seqNo="19" pgp="0" terminal="0" districtId="1" GoBack="1" latitude="24.18709" longitude="120.52976" inDis="50" outDis="50" oid="14430" /><Stop Id="4866" routeId="176" nameZh="龍井國小" seqNo="20" pgp="0" terminal="0" districtId="1" GoBack="1" latitude="24.18417" longitude="120.5303" inDis="50" outDis="50" oid="14431" /><Stop Id="2713" routeId="176" nameZh="茄投(龍井奉天宮)" seqNo="21" pgp="0" terminal="0" districtId="1" GoBack="1" latitude="24.17865" longitude="120.5301" inDis="50" outDis="50" oid="311330175" /><Stop Id="2713" routeId="176" nameZh="茄投(龍井奉天宮)" seqNo="1" pgp="0" terminal="0" districtId="1" GoBack="2" latitude="24.17865" longitude="120.5301" inDis="50" outDis="50" oid="311330175" /><Stop Id="4866" routeId="176" nameZh="龍井國小" seqNo="2" pgp="0" terminal="0" districtId="1" GoBack="2" latitude="24.18417" longitude="120.5303" inDis="50" outDis="50" oid="14434" /><Stop Id="4826" routeId="176" nameZh="南田中" seqNo="3" pgp="0" terminal="0" districtId="1" GoBack="2" latitude="24.18709" longitude="120.52976" inDis="50" outDis="50" oid="14435" /><Stop Id="4806" routeId="176" nameZh="田中村" seqNo="4" pgp="0" terminal="0" districtId="1" GoBack="2" latitude="24.19083" longitude="120.5305" inDis="50" outDis="50" oid="14436" /><Stop Id="4807" routeId="176" nameZh="田中社區" seqNo="5" pgp="0" terminal="0" districtId="1" GoBack="2" latitude="24.19375" longitude="120.5309" inDis="50" outDis="50" oid="14438" /><Stop Id="5160" routeId="176" nameZh="龍井區公所" seqNo="6" pgp="0" terminal="0" districtId="1" GoBack="2" latitude="24.19246" longitude="120.54608" inDis="50" outDis="50" oid="14439" /><Stop Id="3846" routeId="176" nameZh="龍井火車站" seqNo="7" pgp="0" terminal="0" districtId="1" GoBack="2" latitude="24.19687" longitude="120.54659" inDis="50" outDis="50" oid="14440" /><Stop Id="3855" routeId="176" nameZh="龍泉" seqNo="8" pgp="0" terminal="0" districtId="1" GoBack="2" latitude="24.19917" longitude="120.54692" inDis="50" outDis="50" oid="14441" /><Stop Id="3850" routeId="176" nameZh="龍目井" seqNo="9" pgp="0" terminal="0" districtId="1" GoBack="2" latitude="24.20249" longitude="120.54798" inDis="50" outDis="50" oid="14442" /><Stop Id="4010" routeId="176" nameZh="鷺山" seqNo="10" pgp="0" terminal="0" districtId="1" GoBack="2" latitude="24.20743" longitude="120.54923" inDis="50" outDis="50" oid="14443" /><Stop Id="2559" routeId="176" nameZh="南山腳" seqNo="11" pgp="0" terminal="0" districtId="1" GoBack="2" latitude="24.21022" longitude="120.55056" inDis="50" outDis="50" oid="14444" /><Stop Id="5159" routeId="176" nameZh="龍山國小(山腳里)" seqNo="12" pgp="0" terminal="0" districtId="1" GoBack="2" latitude="24.21341" longitude="120.55174" inDis="50" outDis="50" oid="311330174" /><Stop Id="4459" routeId="176" nameZh="沙田太平路口" seqNo="13" pgp="0" terminal="0" districtId="1" GoBack="2" latitude="24.21671" longitude="120.55287" inDis="50" outDis="50" oid="14446" /><Stop Id="2613" routeId="176" nameZh="南勢里" seqNo="14" pgp="0" terminal="0" districtId="1" GoBack="2" latitude="24.22126" longitude="120.55613" inDis="50" outDis="50" oid="14447" /><Stop Id="4458" routeId="176" nameZh="沙田天仁街口" seqNo="15" pgp="0" terminal="0" districtId="1" GoBack="2" latitude="24.22316" longitude="120.55692" inDis="50" outDis="50" oid="311330176" /><Stop Id="1664" routeId="176" nameZh="文光國小" seqNo="16" pgp="0" terminal="0" districtId="1" GoBack="2" latitude="24.22451" longitude="120.55759" inDis="50" outDis="50" oid="313575204" /><Stop Id="3809" routeId="176" nameZh="興仁里" seqNo="17" pgp="0" terminal="0" districtId="1" GoBack="2" latitude="24.23027" longitude="120.5588" inDis="50" outDis="50" oid="14449" /><Stop Id="4816" routeId="176" nameZh="沙鹿光田醫院" seqNo="18" pgp="0" terminal="0" districtId="1" GoBack="2" latitude="24.235" longitude="120.55897" inDis="50" outDis="50" oid="313348300" /><Stop Id="4815" routeId="176" nameZh="沙鹿火車站" seqNo="19" pgp="0" terminal="0" districtId="1" GoBack="2" latitude="24.23612" longitude="120.55923" inDis="50" outDis="50" oid="313348309" /><Stop Id="4681" routeId="176" nameZh="沙鹿市場" seqNo="20" pgp="0" terminal="0" districtId="1" GoBack="2" latitude="24.23731" longitude="120.55967" inDis="50" outDis="50" oid="313348322" /><Stop Id="2248" routeId="176" nameZh="沙鹿站" seqNo="21" pgp="0" terminal="0" districtId="1" GoBack="2" latitude="24.23783" longitude="120.56103" inDis="50" outDis="50" oid="7094" /></BusInfo></BusDynInfo>