<?xml version="1.0" encoding="UTF-8" standalone="yes"?>
<BusDynInfo><EssentialInfo><Location><name>TCBUS</name><CenterName>Maxwin</CenterName></Location><UpdateTime>2014-12-20 07:26:36</UpdateTime><CoordinateSystem/></EssentialInfo>
<BusInfo><Stop Id="0443" routeId="20" nameZh="仁友東站" seqNo="1" pgp="0" terminal="0" districtId="1" GoBack="1" latitude="24.13897" longitude="120.6845" inDis="50" outDis="50" oid="856C616F5B4E453BA69AFCC223CB73A6" /><Stop Id="0049" routeId="20" nameZh="第三市場(臺中家商)" seqNo="3" pgp="0" terminal="0" districtId="1" GoBack="1" latitude="24.13287" longitude="120.68359" inDis="50" outDis="50" oid="CE06A40523514DD4A5FEA9FBBEECC167" /><Stop Id="0257" routeId="20" nameZh="臺中國小" seqNo="4" pgp="0" terminal="0" districtId="1" GoBack="1" latitude="24.1304" longitude="120.68498" inDis="50" outDis="50" oid="4F0ACB185D1B4C1AAC611209D90FBA47" /><Stop Id="5647" routeId="20" nameZh="興大附農(建成路)" seqNo="5" pgp="0" terminal="0" districtId="1" GoBack="1" latitude="24.12981" longitude="120.68556" inDis="50" outDis="50" oid="12688" /><Stop Id="2029" routeId="20" nameZh="建成立德街口" seqNo="6" pgp="0" terminal="0" districtId="1" GoBack="1" latitude="24.13072" longitude="120.68796" inDis="50" outDis="50" oid="D3086F66E37B4F7EAAF7061EBE11F43B" /><Stop Id="4655" routeId="20" nameZh="建成大智路口" seqNo="7" pgp="0" terminal="0" districtId="1" GoBack="1" latitude="24.13148" longitude="120.6899" inDis="50" outDis="50" oid="F11989A287CC4570801A0AF39FE472E4" /><Stop Id="4362" routeId="20" nameZh="建成大振街口" seqNo="8" pgp="0" terminal="0" districtId="1" GoBack="1" latitude="24.13251" longitude="120.69233" inDis="50" outDis="50" oid="AE8C3775B4774AB188B1DA065EC4EBC4" /><Stop Id="0188" routeId="20" nameZh="大東紡織(建成路)" seqNo="9" pgp="0" terminal="0" districtId="1" GoBack="1" latitude="24.13319" longitude="120.69397" inDis="50" outDis="50" oid="D9E51935F5AD4D1FA82D6FCA317507EE" /><Stop Id="2402" routeId="20" nameZh="建成東光園路口" seqNo="10" pgp="0" terminal="0" districtId="1" GoBack="1" latitude="24.13468" longitude="120.6961" inDis="50" outDis="50" oid="CD40C2C7754245F08AD68963A4681641" /><Stop Id="4562" routeId="20" nameZh="建成樂業路口" seqNo="11" pgp="0" terminal="0" districtId="1" GoBack="1" latitude="24.13814" longitude="120.69665" inDis="50" outDis="50" oid="9CDA9D0041E54FBE887C7AEB65E17DEB" /><Stop Id="5176" routeId="20" nameZh="東光旱溪街口" seqNo="12" pgp="0" terminal="0" districtId="1" GoBack="1" latitude="24.14076" longitude="120.69678" inDis="50" outDis="50" oid="98AAB916754D4F658F2E89E636F38744" /><Stop Id="5180" routeId="20" nameZh="東光十甲路口" seqNo="13" pgp="0" terminal="0" districtId="1" GoBack="1" latitude="24.14432" longitude="120.69755" inDis="50" outDis="50" oid="B3F4720A4D024F85B9AA8F387A3FDDF5" /><Stop Id="5116" routeId="20" nameZh="東光精武路口" seqNo="14" pgp="0" terminal="0" districtId="1" GoBack="1" latitude="24.1463" longitude="120.69784" inDis="50" outDis="50" oid="4772E4237E264D97AA10E04CED730AD2" /><Stop Id="5114" routeId="20" nameZh="東光力行路口" seqNo="15" pgp="0" terminal="0" districtId="1" GoBack="1" latitude="24.15095" longitude="120.69848" inDis="50" outDis="50" oid="5495E9B4682B40C4BD9A25116A2964C5" /><Stop Id="2398" routeId="20" nameZh="東光三街口" seqNo="16" pgp="0" terminal="0" districtId="1" GoBack="1" latitude="24.15366" longitude="120.69884" inDis="50" outDis="50" oid="2C76CD82AFB84F968764E2138F3E0608" /><Stop Id="2165" routeId="20" nameZh="肉品市場" seqNo="17" pgp="0" terminal="0" districtId="1" GoBack="1" latitude="24.15615" longitude="120.6992" inDis="50" outDis="50" oid="FD074BD4D5A04F3C9D85165E8774DED8" /><Stop Id="2399" routeId="20" nameZh="東光六街口" seqNo="18" pgp="0" terminal="0" districtId="1" GoBack="1" latitude="24.15832" longitude="120.69947" inDis="50" outDis="50" oid="2D87EF37B2604BE38D954DF69E690E96" /><Stop Id="5115" routeId="20" nameZh="東光天祥街口" seqNo="19" pgp="0" terminal="0" districtId="1" GoBack="1" latitude="24.15979" longitude="120.69957" inDis="50" outDis="50" oid="5C1C0F069C4F4712A58BE0DDF1E0099D" /><Stop Id="4351" routeId="20" nameZh="太原火車站" seqNo="20" pgp="0" terminal="0" districtId="1" GoBack="1" latitude="24.16643" longitude="120.70026" inDis="50" outDis="50" oid="9C0C78B28E02431588BDD31BB75A5636" /><Stop Id="0218" routeId="20" nameZh="三川福德祠" seqNo="21" pgp="0" terminal="0" districtId="1" GoBack="1" latitude="24.16474" longitude="120.70292" inDis="50" outDis="50" oid="3D3502137AFA4EB694CC5D8EF243E19E" /><Stop Id="0470" routeId="20" nameZh="太原二號橋" seqNo="22" pgp="0" terminal="0" districtId="1" GoBack="1" latitude="24.16468" longitude="120.70621" inDis="50" outDis="90" oid="68D7F787D67B43BB8D728BAE37A2CBD8" /><Stop Id="5113" routeId="20" nameZh="東山高中(太原路)" seqNo="23" pgp="0" terminal="0" districtId="1" GoBack="1" latitude="24.16436" longitude="120.71275" inDis="50" outDis="50" oid="307455177" /><Stop Id="5175" routeId="20" nameZh="太原軍功路口" seqNo="24" pgp="0" terminal="0" districtId="1" GoBack="1" latitude="24.1642" longitude="120.71434" inDis="50" outDis="50" oid="8E1E39FEE65645F2BE38C8017CE33990" /><Stop Id="1430" routeId="20" nameZh="中台駕訓班" seqNo="25" pgp="0" terminal="0" districtId="1" GoBack="1" latitude="24.16359" longitude="120.71676" inDis="50" outDis="50" oid="7224D7E6DD4D408E9533CEC9DAEA0434" /><Stop Id="0809" routeId="20" nameZh="弘光復健醫院" seqNo="26" pgp="0" terminal="0" districtId="1" GoBack="1" latitude="24.16229" longitude="120.72192" inDis="50" outDis="50" oid="C407541392C7424A8FFDA2690D6EC677" /><Stop Id="0471" routeId="20" nameZh="太原六號橋" seqNo="27" pgp="0" terminal="0" districtId="1" GoBack="1" latitude="24.16111" longitude="120.72644" inDis="50" outDis="50" oid="F8EE7542E2FC4372B98708A1FAEC5F93" /><Stop Id="5035" routeId="20" nameZh="部子太原路口" seqNo="28" pgp="0" terminal="0" districtId="1" GoBack="1" latitude="24.16202" longitude="120.7334" inDis="50" outDis="50" oid="7C1EDE15A7D14D609574D790E54E2A56" /><Stop Id="3079" routeId="20" nameZh="部子巷口" seqNo="29" pgp="0" terminal="0" districtId="1" GoBack="1" latitude="24.16609" longitude="120.73342" inDis="50" outDis="50" oid="C3961CDDD66641FA9B70FABE432EF113" /><Stop Id="4154" routeId="20" nameZh="部子景賢路口" seqNo="30" pgp="0" terminal="0" districtId="1" GoBack="1" latitude="24.16719" longitude="120.73331" inDis="50" outDis="50" oid="311451525" /><Stop Id="0755" routeId="20" nameZh="國際青年之家" seqNo="31" pgp="0" terminal="0" districtId="1" GoBack="1" latitude="24.17029" longitude="120.73343" inDis="50" outDis="50" oid="FAB53C47C09F4FA98CE24E88533F1DA4" /><Stop Id="0682" routeId="20" nameZh="花園新城" seqNo="32" pgp="0" terminal="0" districtId="1" GoBack="1" latitude="24.17238" longitude="120.73422" inDis="50" outDis="50" oid="4ABE551F01834FEC9DDDE47B975F0922" /><Stop Id="1428" routeId="20" nameZh="中臺科大" seqNo="33" pgp="0" terminal="0" districtId="1" GoBack="1" latitude="24.17555" longitude="120.73632" inDis="50" outDis="50" oid="01B5DE6354654D658B0EE9EE308EA8B5" /><Stop Id="0917" routeId="20" nameZh="樂達利山莊" seqNo="34" pgp="0" terminal="0" districtId="1" GoBack="1" latitude="24.17637" longitude="120.73834" inDis="50" outDis="50" oid="AE0EBFABD8134E42B8244DC4FC65AD02" /><Stop Id="0351" routeId="20" nameZh="大坑橋" seqNo="35" pgp="0" terminal="0" districtId="1" GoBack="1" latitude="24.17775" longitude="120.73952" inDis="50" outDis="50" oid="ACE082561E104A29B2965BED44371707" /><Stop Id="0350" routeId="20" nameZh="大坑圓環" seqNo="36" pgp="0" terminal="0" districtId="1" GoBack="1" latitude="24.17918" longitude="120.73994" inDis="50" outDis="50" oid="4DA918651F964923A5EE934EFDEE4E07" /><Stop Id="0784" routeId="20" nameZh="逢甲橋" seqNo="37" pgp="0" terminal="0" districtId="1" GoBack="1" latitude="24.17847" longitude="120.73714" inDis="50" outDis="50" oid="311262896" /><Stop Id="0768" routeId="20" nameZh="梨仔園" seqNo="38" pgp="0" terminal="0" districtId="1" GoBack="1" latitude="24.1778" longitude="120.73565" inDis="50" outDis="50" oid="A1F0F386E93C421587F6261F2A2E3264" /><Stop Id="0534" routeId="20" nameZh="台電東山所" seqNo="39" pgp="0" terminal="0" districtId="1" GoBack="1" latitude="24.17726" longitude="120.73467" inDis="50" outDis="50" oid="378E3BE4F9674973972396B7FF13FEA0" /><Stop Id="0854" routeId="20" nameZh="圓山新村" seqNo="40" pgp="0" terminal="0" districtId="1" GoBack="1" latitude="24.17708" longitude="120.73195" inDis="50" outDis="50" oid="2546A583849A4B72A031DAF4D8817559" /><Stop Id="0555" routeId="20" nameZh="正覺寺" seqNo="41" pgp="0" terminal="0" districtId="1" GoBack="1" latitude="24.1767" longitude="120.72754" inDis="50" outDis="50" oid="A5A13DD3944C4E52B6847AEF47627C0B" /><Stop Id="0687" routeId="20" nameZh="長興塑膠" seqNo="42" pgp="0" terminal="0" districtId="1" GoBack="1" latitude="24.17618" longitude="120.72436" inDis="50" outDis="50" oid="7DFEF6597F874B5D9DD970E9CC196CFC" /><Stop Id="4592" routeId="20" nameZh="和平里(東山路)" seqNo="43" pgp="0" terminal="0" districtId="1" GoBack="1" latitude="24.17606" longitude="120.72222" inDis="50" outDis="50" oid="939419A71DCC4D969A21AA4907DC5E2C" /><Stop Id="0727" routeId="20" nameZh="軍功里" seqNo="44" pgp="0" terminal="0" districtId="1" GoBack="1" latitude="24.17591" longitude="120.71975" inDis="50" outDis="80" oid="C25B0BE6A8B0444BBA34EFE9F31ADF1F" /><Stop Id="2723" routeId="20" nameZh="軍功農會" seqNo="45" pgp="0" terminal="0" districtId="1" GoBack="1" latitude="24.17728" longitude="120.71935" inDis="50" outDis="80" oid="1231D4FD99824DA49C314A4A979CA80C" /><Stop Id="2631" routeId="20" nameZh="建功橋頭" seqNo="46" pgp="0" terminal="0" districtId="1" GoBack="1" latitude="24.17988" longitude="120.71968" inDis="50" outDis="80" oid="8F2888792AA24CF595E9D627CBDD0615" /><Stop Id="0729" routeId="20" nameZh="軍功松竹路口" seqNo="47" pgp="0" terminal="0" districtId="1" GoBack="1" latitude="24.18293" longitude="120.71934" inDis="30" outDis="80" oid="18383732" /><Stop Id="1552" routeId="20" nameZh="仁愛之家" seqNo="48" pgp="0" terminal="0" districtId="1" GoBack="1" latitude="24.18439" longitude="120.71914" inDis="50" outDis="50" oid="06340D92E3CB491880FCA9C3C856C706" /><Stop Id="2078" routeId="20" nameZh="名人球場" seqNo="49" pgp="0" terminal="0" districtId="1" GoBack="1" latitude="24.18839" longitude="120.71836" inDis="50" outDis="50" oid="0A0EC3414C214921876BCB6FA36AA9BF" /><Stop Id="4976" routeId="20" nameZh="慈濟中醫院" seqNo="50" pgp="0" terminal="0" districtId="1" GoBack="1" latitude="24.19385" longitude="120.71984" inDis="30" outDis="80" oid="309256353" /><Stop Id="3359" routeId="20" nameZh="慈濟醫院" seqNo="51" pgp="0" terminal="0" districtId="1" GoBack="1" latitude="24.19567" longitude="120.72097" inDis="20" outDis="60" oid="309256355" /><Stop Id="1504" routeId="20" nameZh="中興" seqNo="52" pgp="0" terminal="0" districtId="1" GoBack="1" latitude="24.19924" longitude="120.72196" inDis="50" outDis="50" oid="5352" /><Stop Id="3432" routeId="20" nameZh="新興" seqNo="53" pgp="0" terminal="0" districtId="1" GoBack="1" latitude="24.20362" longitude="120.72265" inDis="50" outDis="50" oid="6452" /><Stop Id="5621" routeId="20" nameZh="翔仁社區" seqNo="54" pgp="0" terminal="0" districtId="1" GoBack="1" latitude="24.2042" longitude="120.71989" inDis="50" outDis="50" oid="139010575" /><Stop Id="5620" routeId="20" nameZh="聚興福德祠" seqNo="55" pgp="0" terminal="0" districtId="1" GoBack="1" latitude="24.20498" longitude="120.71477" inDis="50" outDis="50" oid="139010573" /><Stop Id="5761" routeId="20" nameZh="久豪社區" seqNo="56" pgp="0" terminal="0" districtId="1" GoBack="1" latitude="24.20536" longitude="120.71334" inDis="50" outDis="50" oid="320650275" /><Stop Id="5623" routeId="20" nameZh="潭興新興路口" seqNo="57" pgp="0" terminal="0" districtId="1" GoBack="1" latitude="24.20802" longitude="120.7103" inDis="50" outDis="50" oid="139145842" /><Stop Id="5624" routeId="20" nameZh="潭興光陽路口" seqNo="58" pgp="0" terminal="0" districtId="1" GoBack="1" latitude="24.21054" longitude="120.70987" inDis="50" outDis="50" oid="139145844" /><Stop Id="5625" routeId="20" nameZh="潭子火車站(後站)" seqNo="59" pgp="0" terminal="0" districtId="1" GoBack="1" latitude="24.21153" longitude="120.70632" inDis="50" outDis="50" oid="139064873" /><Stop Id="5625" routeId="20" nameZh="潭子火車站(後站)" seqNo="1" pgp="0" terminal="0" districtId="1" GoBack="2" latitude="24.21153" longitude="120.70632" inDis="50" outDis="50" oid="139064873" /><Stop Id="5624" routeId="20" nameZh="潭興光陽路口" seqNo="2" pgp="0" terminal="0" districtId="1" GoBack="2" latitude="24.21054" longitude="120.70987" inDis="50" outDis="50" oid="139145844" /><Stop Id="5623" routeId="20" nameZh="潭興新興路口" seqNo="3" pgp="0" terminal="0" districtId="1" GoBack="2" latitude="24.20802" longitude="120.7103" inDis="50" outDis="50" oid="139145842" /><Stop Id="5761" routeId="20" nameZh="久豪社區" seqNo="4" pgp="0" terminal="0" districtId="1" GoBack="2" latitude="24.20536" longitude="120.71334" inDis="50" outDis="50" oid="320650275" /><Stop Id="5620" routeId="20" nameZh="聚興福德祠" seqNo="5" pgp="0" terminal="0" districtId="1" GoBack="2" latitude="24.20498" longitude="120.71477" inDis="50" outDis="50" oid="139010573" /><Stop Id="5621" routeId="20" nameZh="翔仁社區" seqNo="6" pgp="0" terminal="0" districtId="1" GoBack="2" latitude="24.2042" longitude="120.71989" inDis="50" outDis="50" oid="139010575" /><Stop Id="3432" routeId="20" nameZh="新興" seqNo="7" pgp="0" terminal="0" districtId="1" GoBack="2" latitude="24.20362" longitude="120.72265" inDis="50" outDis="50" oid="6452" /><Stop Id="1504" routeId="20" nameZh="中興" seqNo="8" pgp="0" terminal="0" districtId="1" GoBack="2" latitude="24.19924" longitude="120.72196" inDis="50" outDis="50" oid="5352" /><Stop Id="3359" routeId="20" nameZh="慈濟醫院" seqNo="9" pgp="0" terminal="0" districtId="1" GoBack="2" latitude="24.19577" longitude="120.72108" inDis="40" outDis="60" oid="309256356" /><Stop Id="4976" routeId="20" nameZh="慈濟中醫院" seqNo="10" pgp="0" terminal="0" districtId="1" GoBack="2" latitude="24.1934" longitude="120.72012" inDis="50" outDis="50" oid="18383737" /><Stop Id="2078" routeId="20" nameZh="名人球場" seqNo="11" pgp="0" terminal="0" districtId="1" GoBack="2" latitude="24.18847" longitude="120.71823" inDis="50" outDis="50" oid="957EAA4E215C4DD987B27929AF62DCD4" /><Stop Id="1552" routeId="20" nameZh="仁愛之家" seqNo="12" pgp="0" terminal="0" districtId="1" GoBack="2" latitude="24.18448" longitude="120.71901" inDis="50" outDis="50" oid="D6245AA225B94C7B9B7B0CD7F70F112B" /><Stop Id="0729" routeId="20" nameZh="軍功松竹路口" seqNo="13" pgp="0" terminal="0" districtId="1" GoBack="2" latitude="24.18306" longitude="120.71926" inDis="50" outDis="80" oid="18383741" /><Stop Id="2631" routeId="20" nameZh="建功橋頭" seqNo="14" pgp="0" terminal="0" districtId="1" GoBack="2" latitude="24.17975" longitude="120.71959" inDis="30" outDis="80" oid="7828906847C74D6E9010751716E43189" /><Stop Id="2723" routeId="20" nameZh="軍功農會" seqNo="15" pgp="0" terminal="0" districtId="1" GoBack="2" latitude="24.17713" longitude="120.71928" inDis="30" outDis="80" oid="BC3C7B07E292463993C35CBDF729D902" /><Stop Id="0727" routeId="20" nameZh="軍功里" seqNo="16" pgp="0" terminal="0" districtId="1" GoBack="2" latitude="24.17594" longitude="120.71995" inDis="30" outDis="80" oid="F46C4AEAD9F0457DAB6BA0CC3D541DE2" /><Stop Id="4592" routeId="20" nameZh="和平里(東山路)" seqNo="17" pgp="0" terminal="0" districtId="1" GoBack="2" latitude="24.17598" longitude="120.722" inDis="50" outDis="50" oid="B133C774169E4F6D96F1F52D1390C0EA" /><Stop Id="0687" routeId="20" nameZh="長興塑膠" seqNo="18" pgp="0" terminal="0" districtId="1" GoBack="2" latitude="24.17612" longitude="120.72447" inDis="50" outDis="50" oid="1C8CEAEB68154A009191D2A0C2EEF9C6" /><Stop Id="0555" routeId="20" nameZh="正覺寺" seqNo="19" pgp="0" terminal="0" districtId="1" GoBack="2" latitude="24.17648" longitude="120.72697" inDis="50" outDis="50" oid="CBB05BB19CBD41D7AD2538BCB3834976" /><Stop Id="0854" routeId="20" nameZh="圓山新村" seqNo="20" pgp="0" terminal="0" districtId="1" GoBack="2" latitude="24.17701" longitude="120.73183" inDis="50" outDis="50" oid="DA4C11B03BBB420E983C6EABD857FD2F" /><Stop Id="0534" routeId="20" nameZh="台電東山所" seqNo="21" pgp="0" terminal="0" districtId="1" GoBack="2" latitude="24.17714" longitude="120.73471" inDis="50" outDis="50" oid="5934C6398AAC47D0A13A3BE0AA4B00EC" /><Stop Id="0768" routeId="20" nameZh="梨仔園" seqNo="22" pgp="0" terminal="0" districtId="1" GoBack="2" latitude="24.17766" longitude="120.73566" inDis="50" outDis="50" oid="E10337076B2E451A90A3C41D5BE4B528" /><Stop Id="0784" routeId="20" nameZh="逢甲橋" seqNo="23" pgp="0" terminal="0" districtId="1" GoBack="2" latitude="24.17842" longitude="120.73716" inDis="50" outDis="50" oid="311262897" /><Stop Id="0350" routeId="20" nameZh="大坑圓環" seqNo="24" pgp="0" terminal="0" districtId="1" GoBack="2" latitude="24.17893" longitude="120.73995" inDis="50" outDis="50" oid="3CEADF23F2594F4CBAECED8EC0E5FA6C" /><Stop Id="0351" routeId="20" nameZh="大坑橋" seqNo="25" pgp="0" terminal="0" districtId="1" GoBack="2" latitude="24.17779" longitude="120.73955" inDis="50" outDis="50" oid="0EE2B6EC7E77411E87C11344E6B44429" /><Stop Id="0917" routeId="20" nameZh="樂達利山莊" seqNo="26" pgp="0" terminal="0" districtId="1" GoBack="2" latitude="24.17629" longitude="120.73798" inDis="50" outDis="50" oid="E536DD9C92F2490A8B1D506E3C2CB897" /><Stop Id="1429" routeId="20" nameZh="中臺科技大學" seqNo="27" pgp="0" terminal="0" districtId="1" GoBack="2" latitude="24.17496" longitude="120.73541" inDis="50" outDis="50" oid="E9B7E5C4E52B4265A86B5747813E4FD9" /><Stop Id="0682" routeId="20" nameZh="花園新城" seqNo="28" pgp="0" terminal="0" districtId="1" GoBack="2" latitude="24.17229" longitude="120.73403" inDis="50" outDis="50" oid="B2D3D5C3D75D4480B513FFADA3579898" /><Stop Id="0755" routeId="20" nameZh="國際青年之家" seqNo="29" pgp="0" terminal="0" districtId="1" GoBack="2" latitude="24.17027" longitude="120.73342" inDis="50" outDis="50" oid="1D259DEC29734047B8A5C55302D48CD5" /><Stop Id="4154" routeId="20" nameZh="部子景賢路口" seqNo="30" pgp="0" terminal="0" districtId="1" GoBack="2" latitude="24.16719" longitude="120.73331" inDis="50" outDis="50" oid="311451525" /><Stop Id="3079" routeId="20" nameZh="部子巷口" seqNo="31" pgp="0" terminal="0" districtId="1" GoBack="2" latitude="24.16632" longitude="120.73325" inDis="50" outDis="50" oid="41AE2374FAC044CDB39D4936D47A2839" /><Stop Id="5035" routeId="20" nameZh="部子太原路口" seqNo="32" pgp="0" terminal="0" districtId="1" GoBack="2" latitude="24.16199" longitude="120.73324" inDis="50" outDis="50" oid="44530F8B31FE49A5944E4C349CBEA170" /><Stop Id="0471" routeId="20" nameZh="太原六號橋" seqNo="33" pgp="0" terminal="0" districtId="1" GoBack="2" latitude="24.16148" longitude="120.72625" inDis="50" outDis="50" oid="F0952EFB3EDD4751A8375B18DFF15F66" /><Stop Id="0809" routeId="20" nameZh="弘光復健醫院" seqNo="34" pgp="0" terminal="0" districtId="1" GoBack="2" latitude="24.16256" longitude="120.72214" inDis="50" outDis="50" oid="89AA205D60BF42619A102A7A02856432" /><Stop Id="1430" routeId="20" nameZh="中台駕訓班" seqNo="35" pgp="0" terminal="0" districtId="1" GoBack="2" latitude="24.16391" longitude="120.71666" inDis="50" outDis="50" oid="DB0D400E06234880AE66944D9FBA2038" /><Stop Id="5175" routeId="20" nameZh="太原軍功路口" seqNo="36" pgp="0" terminal="0" districtId="1" GoBack="2" latitude="24.16443" longitude="120.71438" inDis="50" outDis="50" oid="FF542005475A4E7795528754CD248CBD" /><Stop Id="5113" routeId="20" nameZh="東山高中(太原路)" seqNo="37" pgp="0" terminal="0" districtId="1" GoBack="2" latitude="24.16436" longitude="120.71275" inDis="50" outDis="50" oid="307455177" /><Stop Id="0470" routeId="20" nameZh="太原二號橋" seqNo="38" pgp="0" terminal="0" districtId="1" GoBack="2" latitude="24.1649" longitude="120.7065" inDis="50" outDis="50" oid="9D2A821E00694C07B70EF16E68D4DC9A" /><Stop Id="0218" routeId="20" nameZh="三川福德祠" seqNo="39" pgp="0" terminal="0" districtId="1" GoBack="2" latitude="24.16499" longitude="120.70278" inDis="50" outDis="50" oid="5A03D8724D0C49A9AA02CEEEED27D768" /><Stop Id="4351" routeId="20" nameZh="太原火車站" seqNo="40" pgp="0" terminal="0" districtId="1" GoBack="2" latitude="24.16641" longitude="120.70014" inDis="50" outDis="50" oid="18C04887C5B74A51A243782EB484FB32" /><Stop Id="5115" routeId="20" nameZh="東光天祥街口" seqNo="41" pgp="0" terminal="0" districtId="1" GoBack="2" latitude="24.15999" longitude="120.69949" inDis="50" outDis="50" oid="721B0961B7E44F21ADFAB5CF78799B0E" /><Stop Id="2399" routeId="20" nameZh="東光六街口" seqNo="42" pgp="0" terminal="0" districtId="1" GoBack="2" latitude="24.15805" longitude="120.69922" inDis="50" outDis="50" oid="30A4C28002384F11AB3474479EDC7019" /><Stop Id="2165" routeId="20" nameZh="肉品市場" seqNo="43" pgp="0" terminal="0" districtId="1" GoBack="2" latitude="24.15596" longitude="120.69894" inDis="50" outDis="50" oid="319CDB8E84B8463EA7E9B650A195D695" /><Stop Id="2398" routeId="20" nameZh="東光三街口" seqNo="44" pgp="0" terminal="0" districtId="1" GoBack="2" latitude="24.15342" longitude="120.69858" inDis="50" outDis="50" oid="0FE2057328184BD3940803EAE09CE3EC" /><Stop Id="5114" routeId="20" nameZh="東光力行路口" seqNo="45" pgp="0" terminal="0" districtId="1" GoBack="2" latitude="24.15104" longitude="120.69826" inDis="50" outDis="50" oid="7FE9C013C48149209A08A9A6E1BA5235" /><Stop Id="5116" routeId="20" nameZh="東光精武路口" seqNo="46" pgp="0" terminal="0" districtId="1" GoBack="2" latitude="24.14655" longitude="120.69765" inDis="50" outDis="50" oid="E92388776AC149B8BD60A175EC30E66F" /><Stop Id="5180" routeId="20" nameZh="東光十甲路口" seqNo="47" pgp="0" terminal="0" districtId="1" GoBack="2" latitude="24.14434" longitude="120.69734" inDis="50" outDis="50" oid="A35825169E44400881780F25F28AAA00" /><Stop Id="5176" routeId="20" nameZh="東光旱溪街口" seqNo="48" pgp="0" terminal="0" districtId="1" GoBack="2" latitude="24.14077" longitude="120.69662" inDis="50" outDis="50" oid="60D597AD609841059D07DEBFD65C272B" /><Stop Id="4562" routeId="20" nameZh="建成樂業路口" seqNo="49" pgp="0" terminal="0" districtId="1" GoBack="2" latitude="24.13815" longitude="120.69653" inDis="50" outDis="50" oid="1B9BE8943DC042589F8279ADC8DAF813" /><Stop Id="2402" routeId="20" nameZh="建成東光園路口" seqNo="50" pgp="0" terminal="0" districtId="1" GoBack="2" latitude="24.13467" longitude="120.69581" inDis="50" outDis="50" oid="FF134C1481684BFAA0AECE243FCD97FF" /><Stop Id="0188" routeId="20" nameZh="大東紡織(建成路)" seqNo="51" pgp="0" terminal="0" districtId="1" GoBack="2" latitude="24.13336" longitude="120.69395" inDis="50" outDis="50" oid="8F12EF0AEF1449C0BE9BC8005503951C" /><Stop Id="4362" routeId="20" nameZh="建成大振街口" seqNo="52" pgp="0" terminal="0" districtId="1" GoBack="2" latitude="24.13268" longitude="120.69236" inDis="50" outDis="50" oid="7F81F90587F746BDB26FC081ADE47B47" /><Stop Id="4655" routeId="20" nameZh="建成大智路口" seqNo="53" pgp="0" terminal="0" districtId="1" GoBack="2" latitude="24.13158" longitude="120.68979" inDis="50" outDis="50" oid="5C9C24A4064E4D708A3C756E14E1BEA5" /><Stop Id="2029" routeId="20" nameZh="建成立德街口" seqNo="54" pgp="0" terminal="0" districtId="1" GoBack="2" latitude="24.13078" longitude="120.68803" inDis="50" outDis="50" oid="4A8F483087624D14A1C865EF0BC14535" /><Stop Id="5647" routeId="20" nameZh="興大附農(建成路)" seqNo="55" pgp="0" terminal="0" districtId="1" GoBack="2" latitude="24.12991" longitude="120.6862" inDis="50" outDis="50" oid="12689" /><Stop Id="0257" routeId="20" nameZh="臺中國小" seqNo="56" pgp="0" terminal="0" districtId="1" GoBack="2" latitude="24.13037" longitude="120.6851" inDis="50" outDis="50" oid="A01E727DB823459BBD9A7DBB427E9A21" /><Stop Id="0049" routeId="20" nameZh="第三市場(臺中家商)" seqNo="57" pgp="0" terminal="0" districtId="1" GoBack="2" latitude="24.13276" longitude="120.68385" inDis="50" outDis="50" oid="4B8209EF9A1047CA857B5FC23076DD41" /><Stop Id="1824" routeId="20" nameZh="臺中火車站" seqNo="58" pgp="0" terminal="0" districtId="1" GoBack="2" latitude="24.13729" longitude="120.68465" inDis="50" outDis="50" oid="519284AA614D49F0908B5FFB2CF7169D" /></BusInfo></BusDynInfo>