<?xml version="1.0" encoding="UTF-8" standalone="yes"?>
<BusDynInfo><EssentialInfo><Location><name>TCBUS</name><CenterName>Maxwin</CenterName></Location><UpdateTime>2014-12-20 07:18:29</UpdateTime><CoordinateSystem/></EssentialInfo>
<BusInfo><Stop Id="3531" routeId="藍7" nameZh="正英臺灣大道口" seqNo="1" pgp="0" terminal="0" districtId="1" GoBack="1" latitude="24.20961" longitude="120.58033" inDis="50" outDis="50" oid="318982352" /><Stop Id="4124" routeId="藍7" nameZh="頂六路" seqNo="2" pgp="0" terminal="0" districtId="1" GoBack="1" latitude="24.21314" longitude="120.58096" inDis="50" outDis="50" oid="318982354" /><Stop Id="4386" routeId="藍7" nameZh="弘光科技大學" seqNo="3" pgp="0" terminal="0" districtId="1" GoBack="1" latitude="24.21743" longitude="120.58041" inDis="50" outDis="50" oid="318982356" /><Stop Id="4111" routeId="藍7" nameZh="晉江里" seqNo="4" pgp="0" terminal="0" districtId="1" GoBack="1" latitude="24.22143" longitude="120.57957" inDis="50" outDis="50" oid="318982358" /><Stop Id="4062" routeId="藍7" nameZh="下晉江" seqNo="5" pgp="0" terminal="0" districtId="1" GoBack="1" latitude="24.22342" longitude="120.57829" inDis="50" outDis="50" oid="318982360" /><Stop Id="4147" routeId="藍7" nameZh="靜宜大學" seqNo="6" pgp="0" terminal="0" districtId="1" GoBack="1" latitude="24.22583" longitude="120.57674" inDis="50" outDis="50" oid="318982362" /><Stop Id="4086" routeId="藍7" nameZh="臺灣大道北勢路口" seqNo="7" pgp="0" terminal="0" districtId="1" GoBack="1" latitude="24.23028" longitude="120.57389" inDis="50" outDis="50" oid="318982364" /><Stop Id="4392" routeId="藍7" nameZh="紅竹巷" seqNo="8" pgp="0" terminal="0" districtId="1" GoBack="1" latitude="24.23325" longitude="120.57198" inDis="50" outDis="50" oid="318982366" /><Stop Id="4389" routeId="藍7" nameZh="竹林里" seqNo="9" pgp="0" terminal="0" districtId="1" GoBack="1" latitude="24.23609" longitude="120.57013" inDis="50" outDis="50" oid="318982368" /><Stop Id="2147" routeId="藍7" nameZh="竹林國小" seqNo="10" pgp="0" terminal="0" districtId="1" GoBack="1" latitude="24.23847" longitude="120.56774" inDis="50" outDis="50" oid="318982370" /><Stop Id="0005" routeId="藍7" nameZh="沙鹿高工(臺灣大道)" seqNo="11" pgp="0" terminal="0" districtId="1" GoBack="1" latitude="24.23926" longitude="120.56535" inDis="50" outDis="50" oid="318982372" /><Stop Id="2335" routeId="藍7" nameZh="居仁里" seqNo="12" pgp="0" terminal="0" districtId="1" GoBack="1" latitude="24.24007" longitude="120.56346" inDis="50" outDis="50" oid="318982374" /><Stop Id="5140" routeId="藍7" nameZh="童綜合醫院(沙鹿院區)" seqNo="13" pgp="0" terminal="0" districtId="1" GoBack="1" latitude="24.24245" longitude="120.56127" inDis="50" outDis="50" oid="318982376" /><Stop Id="4042" routeId="藍7" nameZh="文化莊" seqNo="14" pgp="0" terminal="0" districtId="1" GoBack="1" latitude="24.24518" longitude="120.56221" inDis="50" outDis="50" oid="318982378" /><Stop Id="4110" routeId="藍7" nameZh="家扶中心" seqNo="15" pgp="0" terminal="0" districtId="1" GoBack="1" latitude="24.24674" longitude="120.56269" inDis="50" outDis="50" oid="318982380" /><Stop Id="5138" routeId="藍7" nameZh="鹿寮成衣商圈" seqNo="16" pgp="0" terminal="0" districtId="1" GoBack="1" latitude="24.2489" longitude="120.56484" inDis="50" outDis="50" oid="318982382" /><Stop Id="4044" routeId="藍7" nameZh="鹿寮" seqNo="17" pgp="0" terminal="0" districtId="1" GoBack="1" latitude="24.25177" longitude="120.56679" inDis="50" outDis="50" oid="318982384" /><Stop Id="5392" routeId="藍7" nameZh="中山長春路口" seqNo="18" pgp="0" terminal="0" districtId="1" GoBack="1" latitude="24.2537" longitude="120.56786" inDis="50" outDis="50" oid="318982386" /><Stop Id="4045" routeId="藍7" nameZh="中峰" seqNo="19" pgp="0" terminal="0" districtId="1" GoBack="1" latitude="24.25542" longitude="120.56885" inDis="50" outDis="50" oid="318982388" /><Stop Id="4471" routeId="藍7" nameZh="勞工育樂中心" seqNo="20" pgp="0" terminal="0" districtId="1" GoBack="1" latitude="24.25766" longitude="120.57005" inDis="50" outDis="50" oid="318982390" /><Stop Id="4129" routeId="藍7" nameZh="鹿峰里" seqNo="21" pgp="0" terminal="0" districtId="1" GoBack="1" latitude="24.25885" longitude="120.57075" inDis="50" outDis="50" oid="318982392" /><Stop Id="4441" routeId="藍7" nameZh="中山星河路口" seqNo="22" pgp="0" terminal="0" districtId="1" GoBack="1" latitude="24.25997" longitude="120.5714" inDis="50" outDis="50" oid="318982394" /><Stop Id="4121" routeId="藍7" nameZh="清水電信局" seqNo="23" pgp="0" terminal="0" districtId="1" GoBack="1" latitude="24.26214" longitude="120.57262" inDis="50" outDis="50" oid="318982396" /><Stop Id="4119" routeId="藍7" nameZh="清水高中" seqNo="24" pgp="0" terminal="0" districtId="1" GoBack="1" latitude="24.26588" longitude="120.5743" inDis="50" outDis="50" oid="318983475" /><Stop Id="5141" routeId="藍7" nameZh="華南銀行(清水分行)" seqNo="25" pgp="0" terminal="0" districtId="1" GoBack="1" latitude="24.2683" longitude="120.57515" inDis="50" outDis="50" oid="318983477" /><Stop Id="3013" routeId="藍7" nameZh="清水" seqNo="26" pgp="0" terminal="0" districtId="1" GoBack="1" latitude="24.2703" longitude="120.57594" inDis="50" outDis="50" oid="318983479" /><Stop Id="4521" routeId="藍7" nameZh="中山董公街口" seqNo="27" pgp="0" terminal="0" districtId="1" GoBack="1" latitude="24.27284" longitude="120.57687" inDis="50" outDis="50" oid="318983481" /><Stop Id="4442" routeId="藍7" nameZh="中山高美路口" seqNo="28" pgp="0" terminal="0" districtId="1" GoBack="1" latitude="24.27461" longitude="120.57725" inDis="50" outDis="50" oid="318983483" /><Stop Id="4956" routeId="藍7" nameZh="西寧國小" seqNo="29" pgp="0" terminal="0" districtId="1" GoBack="1" latitude="24.2757" longitude="120.57505" inDis="50" outDis="50" oid="318983495" /><Stop Id="5228" routeId="藍7" nameZh="五權東鎮新路口" seqNo="30" pgp="0" terminal="0" districtId="1" GoBack="1" latitude="24.27509" longitude="120.57207" inDis="50" outDis="50" oid="318983487" /><Stop Id="5227" routeId="藍7" nameZh="五權民享路口" seqNo="31" pgp="0" terminal="0" districtId="1" GoBack="1" latitude="24.27697" longitude="120.56798" inDis="50" outDis="50" oid="318983489" /><Stop Id="5777" routeId="藍7" nameZh="五權華江北街口" seqNo="32" pgp="0" terminal="0" districtId="1" GoBack="1" latitude="24.27708" longitude="120.56472" inDis="50" outDis="50" oid="320882922" /><Stop Id="4959" routeId="藍7" nameZh="慈濟靜思堂(五權路)" seqNo="33" pgp="0" terminal="0" districtId="1" GoBack="1" latitude="24.27715" longitude="120.56179" inDis="50" outDis="50" oid="17816" /><Stop Id="5725" routeId="藍7" nameZh="五權南平等街口" seqNo="34" pgp="0" terminal="0" districtId="1" GoBack="1" latitude="24.27451" longitude="120.55889" inDis="50" outDis="50" oid="320269813" /><Stop Id="5694" routeId="藍7" nameZh="南社郵局" seqNo="35" pgp="0" terminal="0" districtId="1" GoBack="1" latitude="24.27165" longitude="120.55834" inDis="50" outDis="50" oid="320269811" /><Stop Id="0400" routeId="藍7" nameZh="港區藝術中心(鎮政路)" seqNo="36" pgp="0" terminal="0" districtId="1" GoBack="1" latitude="24.26929" longitude="120.55774" inDis="50" outDis="50" oid="318981927" /><Stop Id="0400" routeId="藍7" nameZh="港區藝術中心(鎮政路)" seqNo="1" pgp="0" terminal="0" districtId="1" GoBack="2" latitude="24.26929" longitude="120.55774" inDis="50" outDis="50" oid="318981927" /><Stop Id="5694" routeId="藍7" nameZh="南社郵局" seqNo="2" pgp="0" terminal="0" districtId="1" GoBack="2" latitude="24.2719" longitude="120.55841" inDis="50" outDis="50" oid="320269812" /><Stop Id="5725" routeId="藍7" nameZh="五權南平等街口" seqNo="3" pgp="0" terminal="0" districtId="1" GoBack="2" latitude="24.27446" longitude="120.55898" inDis="50" outDis="50" oid="320269814" /><Stop Id="4959" routeId="藍7" nameZh="慈濟靜思堂(五權路)" seqNo="4" pgp="0" terminal="0" districtId="1" GoBack="2" latitude="24.27715" longitude="120.56179" inDis="50" outDis="50" oid="17816" /><Stop Id="5777" routeId="藍7" nameZh="五權華江北街口" seqNo="5" pgp="0" terminal="0" districtId="1" GoBack="2" latitude="24.27708" longitude="120.56472" inDis="50" outDis="50" oid="320882922" /><Stop Id="5227" routeId="藍7" nameZh="五權民享路口" seqNo="6" pgp="0" terminal="0" districtId="1" GoBack="2" latitude="24.27697" longitude="120.56798" inDis="50" outDis="50" oid="318983491" /><Stop Id="5228" routeId="藍7" nameZh="五權東鎮新路口" seqNo="7" pgp="0" terminal="0" districtId="1" GoBack="2" latitude="24.27509" longitude="120.57207" inDis="50" outDis="50" oid="318983493" /><Stop Id="4956" routeId="藍7" nameZh="西寧國小" seqNo="8" pgp="0" terminal="0" districtId="1" GoBack="2" latitude="24.2757" longitude="120.57505" inDis="50" outDis="50" oid="318983495" /><Stop Id="4442" routeId="藍7" nameZh="中山高美路口" seqNo="9" pgp="0" terminal="0" districtId="1" GoBack="2" latitude="24.27461" longitude="120.57725" inDis="50" outDis="50" oid="318983497" /><Stop Id="4521" routeId="藍7" nameZh="中山董公街口" seqNo="10" pgp="0" terminal="0" districtId="1" GoBack="2" latitude="24.2732" longitude="120.57712" inDis="50" outDis="50" oid="318983499" /><Stop Id="3013" routeId="藍7" nameZh="清水" seqNo="11" pgp="0" terminal="0" districtId="1" GoBack="2" latitude="24.2703" longitude="120.57594" inDis="50" outDis="50" oid="318983501" /><Stop Id="5141" routeId="藍7" nameZh="華南銀行(清水分行)" seqNo="12" pgp="0" terminal="0" districtId="1" GoBack="2" latitude="24.2683" longitude="120.57515" inDis="50" outDis="50" oid="318983503" /><Stop Id="4119" routeId="藍7" nameZh="清水高中" seqNo="13" pgp="0" terminal="0" districtId="1" GoBack="2" latitude="24.2661" longitude="120.57435" inDis="50" outDis="50" oid="318983505" /><Stop Id="4121" routeId="藍7" nameZh="清水電信局" seqNo="14" pgp="0" terminal="0" districtId="1" GoBack="2" latitude="24.26214" longitude="120.57262" inDis="50" outDis="50" oid="318983507" /><Stop Id="4441" routeId="藍7" nameZh="中山星河路口" seqNo="15" pgp="0" terminal="0" districtId="1" GoBack="2" latitude="24.25997" longitude="120.5714" inDis="50" outDis="50" oid="318983509" /><Stop Id="4129" routeId="藍7" nameZh="鹿峰里" seqNo="16" pgp="0" terminal="0" districtId="1" GoBack="2" latitude="24.25885" longitude="120.57075" inDis="50" outDis="50" oid="318983511" /><Stop Id="4471" routeId="藍7" nameZh="勞工育樂中心" seqNo="17" pgp="0" terminal="0" districtId="1" GoBack="2" latitude="24.25766" longitude="120.57005" inDis="50" outDis="50" oid="318983513" /><Stop Id="4045" routeId="藍7" nameZh="中峰" seqNo="18" pgp="0" terminal="0" districtId="1" GoBack="2" latitude="24.25538" longitude="120.56873" inDis="50" outDis="50" oid="318983515" /><Stop Id="5392" routeId="藍7" nameZh="中山長春路口" seqNo="19" pgp="0" terminal="0" districtId="1" GoBack="2" latitude="24.2537" longitude="120.56786" inDis="50" outDis="50" oid="318983517" /><Stop Id="4044" routeId="藍7" nameZh="鹿寮" seqNo="20" pgp="0" terminal="0" districtId="1" GoBack="2" latitude="24.2507" longitude="120.56624" inDis="50" outDis="50" oid="318983519" /><Stop Id="5138" routeId="藍7" nameZh="鹿寮成衣商圈" seqNo="21" pgp="0" terminal="0" districtId="1" GoBack="2" latitude="24.2489" longitude="120.56484" inDis="50" outDis="50" oid="318983521" /><Stop Id="4110" routeId="藍7" nameZh="家扶中心" seqNo="22" pgp="0" terminal="0" districtId="1" GoBack="2" latitude="24.24674" longitude="120.56269" inDis="50" outDis="50" oid="318983523" /><Stop Id="4042" routeId="藍7" nameZh="文化莊" seqNo="23" pgp="0" terminal="0" districtId="1" GoBack="2" latitude="24.24518" longitude="120.56221" inDis="50" outDis="50" oid="318983525" /><Stop Id="5140" routeId="藍7" nameZh="童綜合醫院(沙鹿院區)" seqNo="24" pgp="0" terminal="0" districtId="1" GoBack="2" latitude="24.24245" longitude="120.56127" inDis="50" outDis="50" oid="318983527" /><Stop Id="2335" routeId="藍7" nameZh="居仁里" seqNo="25" pgp="0" terminal="0" districtId="1" GoBack="2" latitude="24.24015" longitude="120.56309" inDis="50" outDis="50" oid="318983529" /><Stop Id="0005" routeId="藍7" nameZh="沙鹿高工(臺灣大道)" seqNo="26" pgp="0" terminal="0" districtId="1" GoBack="2" latitude="24.23926" longitude="120.56535" inDis="50" outDis="50" oid="318983531" /><Stop Id="2147" routeId="藍7" nameZh="竹林國小" seqNo="27" pgp="0" terminal="0" districtId="1" GoBack="2" latitude="24.23839" longitude="120.56786" inDis="50" outDis="50" oid="318983533" /><Stop Id="4389" routeId="藍7" nameZh="竹林里" seqNo="28" pgp="0" terminal="0" districtId="1" GoBack="2" latitude="24.23639" longitude="120.56995" inDis="50" outDis="50" oid="318983535" /><Stop Id="4392" routeId="藍7" nameZh="紅竹巷" seqNo="29" pgp="0" terminal="0" districtId="1" GoBack="2" latitude="24.23331" longitude="120.57193" inDis="50" outDis="50" oid="318983537" /><Stop Id="4086" routeId="藍7" nameZh="臺灣大道北勢路口" seqNo="30" pgp="0" terminal="0" districtId="1" GoBack="2" latitude="24.23011" longitude="120.57396" inDis="50" outDis="50" oid="318983539" /><Stop Id="4147" routeId="藍7" nameZh="靜宜大學" seqNo="31" pgp="0" terminal="0" districtId="1" GoBack="2" latitude="24.22576" longitude="120.57674" inDis="50" outDis="50" oid="318983541" /><Stop Id="4062" routeId="藍7" nameZh="下晉江" seqNo="32" pgp="0" terminal="0" districtId="1" GoBack="2" latitude="24.22346" longitude="120.57823" inDis="50" outDis="50" oid="318983543" /><Stop Id="4111" routeId="藍7" nameZh="晉江里" seqNo="33" pgp="0" terminal="0" districtId="1" GoBack="2" latitude="24.22111" longitude="120.57965" inDis="50" outDis="50" oid="318983545" /><Stop Id="4386" routeId="藍7" nameZh="弘光科技大學" seqNo="34" pgp="0" terminal="0" districtId="1" GoBack="2" latitude="24.21735" longitude="120.58041" inDis="50" outDis="50" oid="318983547" /><Stop Id="4124" routeId="藍7" nameZh="頂六路" seqNo="35" pgp="0" terminal="0" districtId="1" GoBack="2" latitude="24.21314" longitude="120.58096" inDis="50" outDis="50" oid="318983549" /><Stop Id="3531" routeId="藍7" nameZh="正英臺灣大道口" seqNo="36" pgp="0" terminal="0" districtId="1" GoBack="2" latitude="24.2099" longitude="120.58108" inDis="50" outDis="50" oid="318983551" /></BusInfo></BusDynInfo>