<?xml version="1.0" encoding="UTF-8" standalone="yes"?>
<BusDynInfo><EssentialInfo><Location><name>TCBUS</name><CenterName>Maxwin</CenterName></Location><UpdateTime>2014-12-20 07:49:34</UpdateTime><CoordinateSystem/></EssentialInfo>
<BusInfo><Stop Id="2907" routeId="93" nameZh="高鐵臺中站(1月台)" seqNo="1" pgp="0" terminal="0" districtId="1" GoBack="1" latitude="24.11399" longitude="120.61536" inDis="350" outDis="350" oid="14000" /><Stop Id="5082" routeId="93" nameZh="三和里1" seqNo="8" pgp="0" terminal="0" districtId="1" GoBack="1" latitude="24.10859" longitude="120.60767" inDis="50" outDis="50" oid="14001" /><Stop Id="5083" routeId="93" nameZh="三和里2" seqNo="9" pgp="0" terminal="0" districtId="1" GoBack="1" latitude="24.10878" longitude="120.60634" inDis="50" outDis="50" oid="14002" /><Stop Id="4468" routeId="93" nameZh="烏日戶政" seqNo="10" pgp="0" terminal="0" districtId="1" GoBack="1" latitude="24.10927" longitude="120.6047" inDis="50" outDis="50" oid="14003" /><Stop Id="2120" routeId="93" nameZh="成功嶺" seqNo="11" pgp="0" terminal="0" districtId="1" GoBack="1" latitude="24.11044" longitude="120.60156" inDis="50" outDis="50" oid="2094" /><Stop Id="3277" routeId="93" nameZh="善光寺" seqNo="12" pgp="0" terminal="0" districtId="1" GoBack="1" latitude="24.11295" longitude="120.59403" inDis="50" outDis="50" oid="14005" /><Stop Id="1743" routeId="93" nameZh="王田" seqNo="13" pgp="0" terminal="0" districtId="1" GoBack="1" latitude="24.11348" longitude="120.58856" inDis="50" outDis="50" oid="14006" /><Stop Id="2597" routeId="93" nameZh="南追分" seqNo="18" pgp="0" terminal="0" districtId="1" GoBack="1" latitude="24.11887" longitude="120.57649" inDis="50" outDis="50" oid="14007" /><Stop Id="2884" routeId="93" nameZh="追分" seqNo="19" pgp="0" terminal="0" districtId="1" GoBack="1" latitude="24.12114" longitude="120.57048" inDis="50" outDis="50" oid="14008" /><Stop Id="2885" routeId="93" nameZh="追分國小" seqNo="20" pgp="0" terminal="0" districtId="1" GoBack="1" latitude="24.12203" longitude="120.56812" inDis="50" outDis="50" oid="14009" /><Stop Id="1390" routeId="93" nameZh="山仔頂" seqNo="21" pgp="0" terminal="0" districtId="1" GoBack="1" latitude="24.12339" longitude="120.5645" inDis="50" outDis="50" oid="14010" /><Stop Id="2886" routeId="93" nameZh="追分郵局" seqNo="22" pgp="0" terminal="0" districtId="1" GoBack="1" latitude="24.12482" longitude="120.56207" inDis="50" outDis="50" oid="14011" /><Stop Id="4511" routeId="93" nameZh="興國公司" seqNo="23" pgp="0" terminal="0" districtId="1" GoBack="1" latitude="24.12584" longitude="120.56034" inDis="50" outDis="50" oid="14012" /><Stop Id="4514" routeId="93" nameZh="營埔里" seqNo="24" pgp="0" terminal="0" districtId="1" GoBack="1" latitude="24.12759" longitude="120.55759" inDis="50" outDis="50" oid="14013" /><Stop Id="2494" routeId="93" nameZh="社腳" seqNo="25" pgp="0" terminal="0" districtId="1" GoBack="1" latitude="24.13248" longitude="120.55397" inDis="50" outDis="50" oid="14014" /><Stop Id="2443" routeId="93" nameZh="東興紡織" seqNo="26" pgp="0" terminal="0" districtId="1" GoBack="1" latitude="24.13472" longitude="120.55358" inDis="50" outDis="50" oid="14015" /><Stop Id="4038" routeId="93" nameZh="崁仔腳" seqNo="27" pgp="0" terminal="0" districtId="1" GoBack="1" latitude="24.13717" longitude="120.5518" inDis="50" outDis="50" oid="14016" /><Stop Id="4491" routeId="93" nameZh="新興里" seqNo="28" pgp="0" terminal="0" districtId="1" GoBack="1" latitude="24.14098" longitude="120.54912" inDis="50" outDis="50" oid="14017" /><Stop Id="4460" routeId="93" nameZh="沙田自由路口" seqNo="29" pgp="0" terminal="0" districtId="1" GoBack="1" latitude="24.14309" longitude="120.54794" inDis="50" outDis="50" oid="14018" /><Stop Id="1359" routeId="93" nameZh="大道國中" seqNo="30" pgp="0" terminal="0" districtId="1" GoBack="1" latitude="24.14613" longitude="120.54673" inDis="50" outDis="50" oid="14019" /><Stop Id="1302" routeId="93" nameZh="大肚" seqNo="31" pgp="0" terminal="0" districtId="1" GoBack="1" latitude="24.15014" longitude="120.54565" inDis="50" outDis="50" oid="14020" /><Stop Id="4786" routeId="93" nameZh="大肚區公所" seqNo="32" pgp="0" terminal="0" districtId="1" GoBack="1" latitude="24.1512" longitude="120.54536" inDis="50" outDis="50" oid="14021" /><Stop Id="1303" routeId="93" nameZh="大肚火車站" seqNo="33" pgp="0" terminal="0" districtId="1" GoBack="1" latitude="24.15316" longitude="120.54476" inDis="50" outDis="50" oid="14022" /><Stop Id="5137" routeId="93" nameZh="頂街(沙田路)" seqNo="34" pgp="0" terminal="0" districtId="1" GoBack="1" latitude="24.15806" longitude="120.54393" inDis="50" outDis="50" oid="14023" /><Stop Id="4450" routeId="93" nameZh="北頂街" seqNo="35" pgp="0" terminal="0" districtId="1" GoBack="1" latitude="24.15977" longitude="120.54356" inDis="50" outDis="50" oid="14024" /><Stop Id="1395" routeId="93" nameZh="山陽" seqNo="36" pgp="0" terminal="0" districtId="1" GoBack="1" latitude="24.16408" longitude="120.54283" inDis="50" outDis="50" oid="14025" /><Stop Id="5746" routeId="93" nameZh="山陽一站" seqNo="37" pgp="0" terminal="0" districtId="1" GoBack="1" latitude="24.1689" longitude="120.54238" inDis="50" outDis="50" oid="14026" /><Stop Id="5482" routeId="93" nameZh="沙田中華路口" seqNo="38" pgp="0" terminal="0" districtId="1" GoBack="1" latitude="24.17402" longitude="120.54352" inDis="50" outDis="50" oid="14670" /><Stop Id="2144" routeId="93" nameZh="竹坑口" seqNo="39" pgp="0" terminal="0" districtId="1" GoBack="1" latitude="24.17549" longitude="120.54379" inDis="50" outDis="50" oid="14027" /><Stop Id="2242" routeId="93" nameZh="村內入口" seqNo="40" pgp="0" terminal="0" districtId="1" GoBack="1" latitude="24.17876" longitude="120.54461" inDis="50" outDis="50" oid="7090" /><Stop Id="3031" routeId="93" nameZh="深水" seqNo="41" pgp="0" terminal="0" districtId="1" GoBack="1" latitude="24.18257" longitude="120.54554" inDis="50" outDis="50" oid="14029" /><Stop Id="3853" routeId="93" nameZh="龍崗" seqNo="42" pgp="0" terminal="0" districtId="1" GoBack="1" latitude="24.18642" longitude="120.54549" inDis="50" outDis="50" oid="14030" /><Stop Id="3847" routeId="93" nameZh="龍井加油站" seqNo="43" pgp="0" terminal="0" districtId="1" GoBack="1" latitude="24.18898" longitude="120.54574" inDis="50" outDis="50" oid="14031" /><Stop Id="5160" routeId="93" nameZh="龍井區公所" seqNo="44" pgp="0" terminal="0" districtId="1" GoBack="1" latitude="24.19246" longitude="120.54608" inDis="50" outDis="50" oid="14032" /><Stop Id="3846" routeId="93" nameZh="龍井火車站" seqNo="45" pgp="0" terminal="0" districtId="1" GoBack="1" latitude="24.19687" longitude="120.54659" inDis="50" outDis="50" oid="14033" /><Stop Id="3855" routeId="93" nameZh="龍泉" seqNo="46" pgp="0" terminal="0" districtId="1" GoBack="1" latitude="24.19933" longitude="120.54699" inDis="50" outDis="50" oid="14034" /><Stop Id="3850" routeId="93" nameZh="龍目井" seqNo="47" pgp="0" terminal="0" districtId="1" GoBack="1" latitude="24.20249" longitude="120.54798" inDis="50" outDis="50" oid="14035" /><Stop Id="4010" routeId="93" nameZh="鷺山" seqNo="48" pgp="0" terminal="0" districtId="1" GoBack="1" latitude="24.20743" longitude="120.54923" inDis="50" outDis="50" oid="14036" /><Stop Id="2559" routeId="93" nameZh="南山腳" seqNo="49" pgp="0" terminal="0" districtId="1" GoBack="1" latitude="24.21022" longitude="120.55056" inDis="50" outDis="50" oid="14037" /><Stop Id="5159" routeId="93" nameZh="龍山國小(山腳里)" seqNo="50" pgp="0" terminal="0" districtId="1" GoBack="1" latitude="24.21255" longitude="120.55157" inDis="50" outDis="50" oid="14038" /><Stop Id="4459" routeId="93" nameZh="沙田太平路口" seqNo="51" pgp="0" terminal="0" districtId="1" GoBack="1" latitude="24.21671" longitude="120.55287" inDis="50" outDis="50" oid="14039" /><Stop Id="2613" routeId="93" nameZh="南勢里" seqNo="52" pgp="0" terminal="0" districtId="1" GoBack="1" latitude="24.22126" longitude="120.55613" inDis="50" outDis="50" oid="14040" /><Stop Id="4458" routeId="93" nameZh="沙田天仁街口" seqNo="53" pgp="0" terminal="0" districtId="1" GoBack="1" latitude="24.2227" longitude="120.55678" inDis="50" outDis="50" oid="14041" /><Stop Id="1664" routeId="93" nameZh="文光國小" seqNo="54" pgp="0" terminal="0" districtId="1" GoBack="1" latitude="24.22398" longitude="120.55737" inDis="50" outDis="50" oid="14042" /><Stop Id="3809" routeId="93" nameZh="興仁里" seqNo="55" pgp="0" terminal="0" districtId="1" GoBack="1" latitude="24.23119" longitude="120.55875" inDis="50" outDis="50" oid="14043" /><Stop Id="4816" routeId="93" nameZh="沙鹿光田醫院" seqNo="56" pgp="0" terminal="0" districtId="1" GoBack="1" latitude="24.23492" longitude="120.55882" inDis="50" outDis="50" oid="313222697" /><Stop Id="4681" routeId="93" nameZh="沙鹿市場" seqNo="57" pgp="0" terminal="0" districtId="1" GoBack="1" latitude="24.23737" longitude="120.55967" inDis="50" outDis="50" oid="14045" /><Stop Id="5135" routeId="93" nameZh="第一銀行(沙鹿分行)" seqNo="58" pgp="0" terminal="0" districtId="1" GoBack="1" latitude="24.23932" longitude="120.56" inDis="50" outDis="50" oid="14046" /><Stop Id="5140" routeId="93" nameZh="童綜合醫院(沙鹿院區)" seqNo="59" pgp="0" terminal="0" districtId="1" GoBack="1" latitude="24.24245" longitude="120.56127" inDis="50" outDis="50" oid="14047" /><Stop Id="4042" routeId="93" nameZh="文化莊" seqNo="60" pgp="0" terminal="0" districtId="1" GoBack="1" latitude="24.24518" longitude="120.56221" inDis="50" outDis="50" oid="14048" /><Stop Id="4110" routeId="93" nameZh="家扶中心" seqNo="61" pgp="0" terminal="0" districtId="1" GoBack="1" latitude="24.24674" longitude="120.56269" inDis="50" outDis="50" oid="10819" /><Stop Id="5138" routeId="93" nameZh="鹿寮成衣商圈" seqNo="62" pgp="0" terminal="0" districtId="1" GoBack="1" latitude="24.2489" longitude="120.56484" inDis="50" outDis="50" oid="14049" /><Stop Id="5139" routeId="93" nameZh="鹿寮里" seqNo="63" pgp="0" terminal="0" districtId="1" GoBack="1" latitude="24.25201" longitude="120.56704" inDis="50" outDis="50" oid="14050" /><Stop Id="5392" routeId="93" nameZh="中山長春路口" seqNo="64" pgp="0" terminal="0" districtId="1" GoBack="1" latitude="24.2537" longitude="120.56786" inDis="50" outDis="50" oid="312897794" /><Stop Id="4045" routeId="93" nameZh="中峰" seqNo="65" pgp="0" terminal="0" districtId="1" GoBack="1" latitude="24.25508" longitude="120.56869" inDis="50" outDis="50" oid="14051" /><Stop Id="4471" routeId="93" nameZh="勞工育樂中心" seqNo="66" pgp="0" terminal="0" districtId="1" GoBack="1" latitude="24.25766" longitude="120.57005" inDis="50" outDis="50" oid="14052" /><Stop Id="4047" routeId="93" nameZh="鹿峰" seqNo="67" pgp="0" terminal="0" districtId="1" GoBack="1" latitude="24.25848" longitude="120.57063" inDis="50" outDis="50" oid="14053" /><Stop Id="4441" routeId="93" nameZh="中山星河路口" seqNo="68" pgp="0" terminal="0" districtId="1" GoBack="1" latitude="24.26005" longitude="120.57146" inDis="50" outDis="50" oid="14054" /><Stop Id="4121" routeId="93" nameZh="清水電信局" seqNo="69" pgp="0" terminal="0" districtId="1" GoBack="1" latitude="24.2624" longitude="120.57278" inDis="50" outDis="50" oid="10849" /><Stop Id="4119" routeId="93" nameZh="清水高中" seqNo="70" pgp="0" terminal="0" districtId="1" GoBack="1" latitude="24.26555" longitude="120.57409" inDis="50" outDis="50" oid="14056" /><Stop Id="5141" routeId="93" nameZh="華南銀行(清水分行)" seqNo="71" pgp="0" terminal="0" districtId="1" GoBack="1" latitude="24.2683" longitude="120.57516" inDis="50" outDis="50" oid="14057" /><Stop Id="3013" routeId="93" nameZh="清水" seqNo="72" pgp="0" terminal="0" districtId="1" GoBack="1" latitude="24.2714" longitude="120.57638" inDis="50" outDis="50" oid="14058" /><Stop Id="4521" routeId="93" nameZh="中山董公街口" seqNo="73" pgp="0" terminal="0" districtId="1" GoBack="1" latitude="24.27284" longitude="120.57687" inDis="50" outDis="50" oid="305513525" /><Stop Id="4442" routeId="93" nameZh="中山高美路口" seqNo="74" pgp="0" terminal="0" districtId="1" GoBack="1" latitude="24.27531" longitude="120.57725" inDis="50" outDis="50" oid="14059" /><Stop Id="4065" routeId="93" nameZh="下湳加油站" seqNo="75" pgp="0" terminal="0" districtId="1" GoBack="1" latitude="24.2778" longitude="120.57858" inDis="50" outDis="50" oid="14060" /><Stop Id="4130" routeId="93" nameZh="朝興宮" seqNo="76" pgp="0" terminal="0" districtId="1" GoBack="1" latitude="24.28013" longitude="120.5806" inDis="50" outDis="50" oid="14061" /><Stop Id="4063" routeId="93" nameZh="下湳子" seqNo="77" pgp="0" terminal="0" districtId="1" GoBack="1" latitude="24.28403" longitude="120.58338" inDis="50" outDis="50" oid="14062" /><Stop Id="4058" routeId="93" nameZh="三田國小" seqNo="78" pgp="0" terminal="0" districtId="1" GoBack="1" latitude="24.2882" longitude="120.58574" inDis="50" outDis="50" oid="14063" /><Stop Id="4127" routeId="93" nameZh="頂湳子" seqNo="79" pgp="0" terminal="0" districtId="1" GoBack="1" latitude="24.29256" longitude="120.58815" inDis="50" outDis="50" oid="14064" /><Stop Id="4150" routeId="93" nameZh="轉播站" seqNo="80" pgp="0" terminal="0" districtId="1" GoBack="1" latitude="24.29771" longitude="120.59263" inDis="50" outDis="50" oid="14065" /><Stop Id="4144" routeId="93" nameZh="震陽工廠" seqNo="81" pgp="0" terminal="0" districtId="1" GoBack="1" latitude="24.29818" longitude="120.59332" inDis="50" outDis="50" oid="14066" /><Stop Id="4134" routeId="93" nameZh="菁埔里" seqNo="82" pgp="0" terminal="0" districtId="1" GoBack="1" latitude="24.30035" longitude="120.59516" inDis="50" outDis="50" oid="14067" /><Stop Id="1993" routeId="93" nameZh="甲南" seqNo="83" pgp="0" terminal="0" districtId="1" GoBack="1" latitude="24.30457" longitude="120.60111" inDis="50" outDis="50" oid="14068" /><Stop Id="1705" routeId="93" nameZh="水汴頭" seqNo="84" pgp="0" terminal="0" districtId="1" GoBack="1" latitude="24.32719" longitude="120.60862" inDis="50" outDis="50" oid="14069" /><Stop Id="4133" routeId="93" nameZh="番子寮" seqNo="85" pgp="0" terminal="0" districtId="1" GoBack="1" latitude="24.33451" longitude="120.61521" inDis="50" outDis="50" oid="14070" /><Stop Id="1859" routeId="93" nameZh="外水尾" seqNo="86" pgp="0" terminal="0" districtId="1" GoBack="1" latitude="24.33744" longitude="120.61727" inDis="50" outDis="50" oid="14071" /><Stop Id="5693" routeId="93" nameZh="水尾橋 " seqNo="87" pgp="0" terminal="0" districtId="1" GoBack="1" latitude="24.33972" longitude="120.61874" inDis="50" outDis="50" oid="319916595" /><Stop Id="5048" routeId="93" nameZh="大甲高中(中山路)" seqNo="88" pgp="0" terminal="0" districtId="1" GoBack="1" latitude="24.34212" longitude="120.62143" inDis="50" outDis="50" oid="309863798" /><Stop Id="2609" routeId="93" nameZh="南陽里" seqNo="89" pgp="0" terminal="0" districtId="1" GoBack="1" latitude="24.34284" longitude="120.62445" inDis="50" outDis="50" oid="14073" /><Stop Id="5084" routeId="93" nameZh="大甲" seqNo="90" pgp="0" terminal="0" districtId="1" GoBack="1" latitude="24.34321" longitude="120.62553" inDis="50" outDis="50" oid="5215" /><Stop Id="4432" routeId="93" nameZh="大甲火車站" seqNo="91" pgp="0" terminal="0" districtId="1" GoBack="1" latitude="24.34461" longitude="120.62664" inDis="50" outDis="50" oid="14074" /><Stop Id="4070" routeId="93" nameZh="大甲郵局" seqNo="92" pgp="0" terminal="0" districtId="1" GoBack="1" latitude="24.34755" longitude="120.6278" inDis="50" outDis="50" oid="14075" /><Stop Id="4435" routeId="93" nameZh="大同診所" seqNo="93" pgp="0" terminal="0" districtId="1" GoBack="1" latitude="24.35169" longitude="120.62799" inDis="50" outDis="50" oid="14076" /><Stop Id="4125" routeId="93" nameZh="頂店" seqNo="94" pgp="0" terminal="0" districtId="1" GoBack="1" latitude="24.35628" longitude="120.63342" inDis="50" outDis="50" oid="14077" /><Stop Id="4002" routeId="93" nameZh="鐵砧山" seqNo="95" pgp="0" terminal="0" districtId="1" GoBack="1" latitude="24.36117" longitude="120.63787" inDis="50" outDis="50" oid="14078" /><Stop Id="1290" routeId="93" nameZh="大安溪" seqNo="96" pgp="0" terminal="0" districtId="1" GoBack="1" latitude="24.3661" longitude="120.64162" inDis="50" outDis="50" oid="14079" /><Stop Id="4084" routeId="93" nameZh="日南" seqNo="97" pgp="0" terminal="0" districtId="1" GoBack="1" latitude="24.3816" longitude="120.6514" inDis="50" outDis="50" oid="17317" /><Stop Id="4496" routeId="93" nameZh="經國黎明路口" seqNo="98" pgp="0" terminal="0" districtId="1" GoBack="1" latitude="24.38842" longitude="120.65106" inDis="50" outDis="50" oid="14081" /><Stop Id="4090" routeId="93" nameZh="永安新村" seqNo="99" pgp="0" terminal="0" districtId="1" GoBack="1" latitude="24.39068" longitude="120.65027" inDis="50" outDis="50" oid="14082" /><Stop Id="4470" routeId="93" nameZh="陳家莊" seqNo="100" pgp="0" terminal="0" districtId="1" GoBack="1" latitude="24.39569" longitude="120.64821" inDis="50" outDis="50" oid="14083" /><Stop Id="4088" routeId="93" nameZh="打鐵庄" seqNo="101" pgp="0" terminal="0" districtId="1" GoBack="1" latitude="24.39793" longitude="120.64632" inDis="50" outDis="50" oid="14084" /><Stop Id="4079" routeId="93" nameZh="五里牌" seqNo="102" pgp="0" terminal="0" districtId="1" GoBack="1" latitude="24.40423" longitude="120.64138" inDis="50" outDis="50" oid="14085" /><Stop Id="4087" routeId="93" nameZh="幼獅工業區" seqNo="103" pgp="0" terminal="0" districtId="1" GoBack="1" latitude="24.40958" longitude="120.64347" inDis="50" outDis="50" oid="14086" /><Stop Id="4103" routeId="93" nameZh="虎尾寮" seqNo="104" pgp="0" terminal="0" districtId="1" GoBack="1" latitude="24.41422" longitude="120.64312" inDis="50" outDis="50" oid="14087" /><Stop Id="4141" routeId="93" nameZh="銅安厝" seqNo="105" pgp="0" terminal="0" districtId="1" GoBack="1" latitude="24.4202" longitude="120.64297" inDis="50" outDis="50" oid="14088" /><Stop Id="4141" routeId="93" nameZh="銅安厝" seqNo="1" pgp="0" terminal="0" districtId="1" GoBack="2" latitude="24.4202" longitude="120.64297" inDis="50" outDis="50" oid="14088" /><Stop Id="4103" routeId="93" nameZh="虎尾寮" seqNo="2" pgp="0" terminal="0" districtId="1" GoBack="2" latitude="24.41422" longitude="120.64312" inDis="50" outDis="50" oid="14087" /><Stop Id="4087" routeId="93" nameZh="幼獅工業區" seqNo="3" pgp="0" terminal="0" districtId="1" GoBack="2" latitude="24.40958" longitude="120.64347" inDis="50" outDis="50" oid="14086" /><Stop Id="4079" routeId="93" nameZh="五里牌" seqNo="4" pgp="0" terminal="0" districtId="1" GoBack="2" latitude="24.40423" longitude="120.64138" inDis="50" outDis="50" oid="14085" /><Stop Id="4088" routeId="93" nameZh="打鐵庄" seqNo="5" pgp="0" terminal="0" districtId="1" GoBack="2" latitude="24.39793" longitude="120.64632" inDis="50" outDis="50" oid="14084" /><Stop Id="4470" routeId="93" nameZh="陳家莊" seqNo="6" pgp="0" terminal="0" districtId="1" GoBack="2" latitude="24.39569" longitude="120.64821" inDis="50" outDis="50" oid="14083" /><Stop Id="4090" routeId="93" nameZh="永安新村" seqNo="7" pgp="0" terminal="0" districtId="1" GoBack="2" latitude="24.39068" longitude="120.65027" inDis="50" outDis="50" oid="14082" /><Stop Id="4496" routeId="93" nameZh="經國黎明路口" seqNo="8" pgp="0" terminal="0" districtId="1" GoBack="2" latitude="24.38842" longitude="120.65106" inDis="50" outDis="50" oid="14081" /><Stop Id="4084" routeId="93" nameZh="日南" seqNo="9" pgp="0" terminal="0" districtId="1" GoBack="2" latitude="24.3816" longitude="120.6514" inDis="50" outDis="50" oid="17144" /><Stop Id="1290" routeId="93" nameZh="大安溪" seqNo="10" pgp="0" terminal="0" districtId="1" GoBack="2" latitude="24.3661" longitude="120.64162" inDis="50" outDis="50" oid="14079" /><Stop Id="4002" routeId="93" nameZh="鐵砧山" seqNo="11" pgp="0" terminal="0" districtId="1" GoBack="2" latitude="24.36117" longitude="120.63787" inDis="50" outDis="50" oid="14078" /><Stop Id="4125" routeId="93" nameZh="頂店" seqNo="12" pgp="0" terminal="0" districtId="1" GoBack="2" latitude="24.35628" longitude="120.63342" inDis="50" outDis="50" oid="14077" /><Stop Id="4435" routeId="93" nameZh="大同診所" seqNo="13" pgp="0" terminal="0" districtId="1" GoBack="2" latitude="24.35169" longitude="120.62799" inDis="50" outDis="50" oid="14076" /><Stop Id="4070" routeId="93" nameZh="大甲郵局" seqNo="14" pgp="0" terminal="0" districtId="1" GoBack="2" latitude="24.34755" longitude="120.6278" inDis="50" outDis="50" oid="14075" /><Stop Id="4432" routeId="93" nameZh="大甲火車站" seqNo="15" pgp="0" terminal="0" districtId="1" GoBack="2" latitude="24.34461" longitude="120.62664" inDis="50" outDis="50" oid="14074" /><Stop Id="5084" routeId="93" nameZh="大甲" seqNo="16" pgp="0" terminal="0" districtId="1" GoBack="2" latitude="24.34321" longitude="120.62553" inDis="50" outDis="50" oid="5215" /><Stop Id="2609" routeId="93" nameZh="南陽里" seqNo="17" pgp="0" terminal="0" districtId="1" GoBack="2" latitude="24.34284" longitude="120.62445" inDis="50" outDis="50" oid="14073" /><Stop Id="5048" routeId="93" nameZh="大甲高中(中山路)" seqNo="18" pgp="0" terminal="0" districtId="1" GoBack="2" latitude="24.34212" longitude="120.62143" inDis="50" outDis="50" oid="309863798" /><Stop Id="5693" routeId="93" nameZh="水尾橋 " seqNo="19" pgp="0" terminal="0" districtId="1" GoBack="2" latitude="24.33972" longitude="120.61874" inDis="50" outDis="50" oid="319916595" /><Stop Id="1859" routeId="93" nameZh="外水尾" seqNo="20" pgp="0" terminal="0" districtId="1" GoBack="2" latitude="24.33744" longitude="120.61727" inDis="50" outDis="50" oid="14071" /><Stop Id="4133" routeId="93" nameZh="番子寮" seqNo="21" pgp="0" terminal="0" districtId="1" GoBack="2" latitude="24.33451" longitude="120.61521" inDis="50" outDis="50" oid="14070" /><Stop Id="1705" routeId="93" nameZh="水汴頭" seqNo="22" pgp="0" terminal="0" districtId="1" GoBack="2" latitude="24.32719" longitude="120.60862" inDis="50" outDis="50" oid="14069" /><Stop Id="1993" routeId="93" nameZh="甲南" seqNo="23" pgp="0" terminal="0" districtId="1" GoBack="2" latitude="24.30457" longitude="120.60111" inDis="50" outDis="50" oid="14068" /><Stop Id="4134" routeId="93" nameZh="菁埔里" seqNo="24" pgp="0" terminal="0" districtId="1" GoBack="2" latitude="24.30035" longitude="120.59516" inDis="50" outDis="50" oid="14067" /><Stop Id="4144" routeId="93" nameZh="震陽工廠" seqNo="25" pgp="0" terminal="0" districtId="1" GoBack="2" latitude="24.29818" longitude="120.59332" inDis="50" outDis="50" oid="14066" /><Stop Id="4150" routeId="93" nameZh="轉播站" seqNo="26" pgp="0" terminal="0" districtId="1" GoBack="2" latitude="24.29771" longitude="120.59263" inDis="50" outDis="50" oid="14065" /><Stop Id="4127" routeId="93" nameZh="頂湳子" seqNo="27" pgp="0" terminal="0" districtId="1" GoBack="2" latitude="24.29256" longitude="120.58815" inDis="50" outDis="50" oid="14064" /><Stop Id="4058" routeId="93" nameZh="三田國小" seqNo="28" pgp="0" terminal="0" districtId="1" GoBack="2" latitude="24.2882" longitude="120.58574" inDis="50" outDis="50" oid="14063" /><Stop Id="4063" routeId="93" nameZh="下湳子" seqNo="29" pgp="0" terminal="0" districtId="1" GoBack="2" latitude="24.28403" longitude="120.58338" inDis="50" outDis="50" oid="14062" /><Stop Id="4130" routeId="93" nameZh="朝興宮" seqNo="30" pgp="0" terminal="0" districtId="1" GoBack="2" latitude="24.28013" longitude="120.5806" inDis="50" outDis="50" oid="14061" /><Stop Id="4065" routeId="93" nameZh="下湳加油站" seqNo="31" pgp="0" terminal="0" districtId="1" GoBack="2" latitude="24.2778" longitude="120.57858" inDis="50" outDis="50" oid="14060" /><Stop Id="4442" routeId="93" nameZh="中山高美路口" seqNo="32" pgp="0" terminal="0" districtId="1" GoBack="2" latitude="24.27531" longitude="120.57725" inDis="50" outDis="50" oid="14059" /><Stop Id="4521" routeId="93" nameZh="中山董公街口" seqNo="33" pgp="0" terminal="0" districtId="1" GoBack="2" latitude="24.27284" longitude="120.57687" inDis="50" outDis="50" oid="305513525" /><Stop Id="3013" routeId="93" nameZh="清水" seqNo="34" pgp="0" terminal="0" districtId="1" GoBack="2" latitude="24.2714" longitude="120.57638" inDis="50" outDis="50" oid="14058" /><Stop Id="5141" routeId="93" nameZh="華南銀行(清水分行)" seqNo="35" pgp="0" terminal="0" districtId="1" GoBack="2" latitude="24.2683" longitude="120.57516" inDis="50" outDis="50" oid="14057" /><Stop Id="4119" routeId="93" nameZh="清水高中" seqNo="36" pgp="0" terminal="0" districtId="1" GoBack="2" latitude="24.26555" longitude="120.57409" inDis="50" outDis="50" oid="14056" /><Stop Id="4121" routeId="93" nameZh="清水電信局" seqNo="37" pgp="0" terminal="0" districtId="1" GoBack="2" latitude="24.2624" longitude="120.57278" inDis="50" outDis="50" oid="10849" /><Stop Id="4441" routeId="93" nameZh="中山星河路口" seqNo="38" pgp="0" terminal="0" districtId="1" GoBack="2" latitude="24.26005" longitude="120.57146" inDis="50" outDis="50" oid="14054" /><Stop Id="4047" routeId="93" nameZh="鹿峰" seqNo="39" pgp="0" terminal="0" districtId="1" GoBack="2" latitude="24.25848" longitude="120.57063" inDis="50" outDis="50" oid="14053" /><Stop Id="4471" routeId="93" nameZh="勞工育樂中心" seqNo="40" pgp="0" terminal="0" districtId="1" GoBack="2" latitude="24.25766" longitude="120.57005" inDis="50" outDis="50" oid="14052" /><Stop Id="4045" routeId="93" nameZh="中峰" seqNo="41" pgp="0" terminal="0" districtId="1" GoBack="2" latitude="24.25508" longitude="120.56869" inDis="50" outDis="50" oid="14051" /><Stop Id="5392" routeId="93" nameZh="中山長春路口" seqNo="42" pgp="0" terminal="0" districtId="1" GoBack="2" latitude="24.2537" longitude="120.56786" inDis="50" outDis="50" oid="312897794" /><Stop Id="5139" routeId="93" nameZh="鹿寮里" seqNo="43" pgp="0" terminal="0" districtId="1" GoBack="2" latitude="24.25201" longitude="120.56704" inDis="50" outDis="50" oid="14050" /><Stop Id="5138" routeId="93" nameZh="鹿寮成衣商圈" seqNo="44" pgp="0" terminal="0" districtId="1" GoBack="2" latitude="24.2489" longitude="120.56484" inDis="50" outDis="50" oid="14049" /><Stop Id="4110" routeId="93" nameZh="家扶中心" seqNo="45" pgp="0" terminal="0" districtId="1" GoBack="2" latitude="24.24674" longitude="120.56269" inDis="50" outDis="50" oid="10819" /><Stop Id="4042" routeId="93" nameZh="文化莊" seqNo="46" pgp="0" terminal="0" districtId="1" GoBack="2" latitude="24.24518" longitude="120.56221" inDis="50" outDis="50" oid="14048" /><Stop Id="5140" routeId="93" nameZh="童綜合醫院(沙鹿院區)" seqNo="47" pgp="0" terminal="0" districtId="1" GoBack="2" latitude="24.24245" longitude="120.56127" inDis="50" outDis="50" oid="14047" /><Stop Id="5135" routeId="93" nameZh="第一銀行(沙鹿分行)" seqNo="48" pgp="0" terminal="0" districtId="1" GoBack="2" latitude="24.23932" longitude="120.56" inDis="50" outDis="50" oid="14046" /><Stop Id="4681" routeId="93" nameZh="沙鹿市場" seqNo="49" pgp="0" terminal="0" districtId="1" GoBack="2" latitude="24.23737" longitude="120.55967" inDis="50" outDis="50" oid="14045" /><Stop Id="4816" routeId="93" nameZh="沙鹿光田醫院" seqNo="50" pgp="0" terminal="0" districtId="1" GoBack="2" latitude="24.23492" longitude="120.55882" inDis="50" outDis="50" oid="313222697" /><Stop Id="3809" routeId="93" nameZh="興仁里" seqNo="51" pgp="0" terminal="0" districtId="1" GoBack="2" latitude="24.23119" longitude="120.55875" inDis="50" outDis="50" oid="14043" /><Stop Id="1664" routeId="93" nameZh="文光國小" seqNo="52" pgp="0" terminal="0" districtId="1" GoBack="2" latitude="24.22398" longitude="120.55737" inDis="50" outDis="50" oid="14042" /><Stop Id="4458" routeId="93" nameZh="沙田天仁街口" seqNo="53" pgp="0" terminal="0" districtId="1" GoBack="2" latitude="24.2227" longitude="120.55678" inDis="50" outDis="50" oid="14041" /><Stop Id="2613" routeId="93" nameZh="南勢里" seqNo="54" pgp="0" terminal="0" districtId="1" GoBack="2" latitude="24.22126" longitude="120.55613" inDis="50" outDis="50" oid="14040" /><Stop Id="4459" routeId="93" nameZh="沙田太平路口" seqNo="55" pgp="0" terminal="0" districtId="1" GoBack="2" latitude="24.21671" longitude="120.55287" inDis="50" outDis="50" oid="14039" /><Stop Id="5159" routeId="93" nameZh="龍山國小(山腳里)" seqNo="56" pgp="0" terminal="0" districtId="1" GoBack="2" latitude="24.21255" longitude="120.55157" inDis="50" outDis="50" oid="14038" /><Stop Id="2559" routeId="93" nameZh="南山腳" seqNo="57" pgp="0" terminal="0" districtId="1" GoBack="2" latitude="24.21022" longitude="120.55056" inDis="50" outDis="50" oid="14037" /><Stop Id="4010" routeId="93" nameZh="鷺山" seqNo="58" pgp="0" terminal="0" districtId="1" GoBack="2" latitude="24.20743" longitude="120.54923" inDis="50" outDis="50" oid="14036" /><Stop Id="3850" routeId="93" nameZh="龍目井" seqNo="59" pgp="0" terminal="0" districtId="1" GoBack="2" latitude="24.20249" longitude="120.54798" inDis="50" outDis="50" oid="14035" /><Stop Id="3855" routeId="93" nameZh="龍泉" seqNo="60" pgp="0" terminal="0" districtId="1" GoBack="2" latitude="24.19933" longitude="120.54699" inDis="50" outDis="50" oid="14034" /><Stop Id="3846" routeId="93" nameZh="龍井火車站" seqNo="61" pgp="0" terminal="0" districtId="1" GoBack="2" latitude="24.19687" longitude="120.54659" inDis="50" outDis="50" oid="14033" /><Stop Id="5160" routeId="93" nameZh="龍井區公所" seqNo="62" pgp="0" terminal="0" districtId="1" GoBack="2" latitude="24.19246" longitude="120.54608" inDis="50" outDis="50" oid="14032" /><Stop Id="3847" routeId="93" nameZh="龍井加油站" seqNo="63" pgp="0" terminal="0" districtId="1" GoBack="2" latitude="24.18898" longitude="120.54574" inDis="50" outDis="50" oid="14031" /><Stop Id="3853" routeId="93" nameZh="龍崗" seqNo="64" pgp="0" terminal="0" districtId="1" GoBack="2" latitude="24.18642" longitude="120.54549" inDis="50" outDis="50" oid="14030" /><Stop Id="3031" routeId="93" nameZh="深水" seqNo="65" pgp="0" terminal="0" districtId="1" GoBack="2" latitude="24.18257" longitude="120.54554" inDis="50" outDis="50" oid="14029" /><Stop Id="2242" routeId="93" nameZh="村內入口" seqNo="66" pgp="0" terminal="0" districtId="1" GoBack="2" latitude="24.17876" longitude="120.54461" inDis="50" outDis="50" oid="7090" /><Stop Id="2144" routeId="93" nameZh="竹坑口" seqNo="67" pgp="0" terminal="0" districtId="1" GoBack="2" latitude="24.17549" longitude="120.54379" inDis="50" outDis="50" oid="14027" /><Stop Id="5482" routeId="93" nameZh="沙田中華路口" seqNo="68" pgp="0" terminal="0" districtId="1" GoBack="2" latitude="24.17189" longitude="120.54266" inDis="50" outDis="50" oid="14732" /><Stop Id="5746" routeId="93" nameZh="山陽一站" seqNo="69" pgp="0" terminal="0" districtId="1" GoBack="2" latitude="24.1689" longitude="120.54238" inDis="50" outDis="50" oid="14026" /><Stop Id="1395" routeId="93" nameZh="山陽" seqNo="70" pgp="0" terminal="0" districtId="1" GoBack="2" latitude="24.16408" longitude="120.54283" inDis="50" outDis="50" oid="14025" /><Stop Id="4450" routeId="93" nameZh="北頂街" seqNo="71" pgp="0" terminal="0" districtId="1" GoBack="2" latitude="24.15977" longitude="120.54356" inDis="50" outDis="50" oid="14024" /><Stop Id="5137" routeId="93" nameZh="頂街(沙田路)" seqNo="72" pgp="0" terminal="0" districtId="1" GoBack="2" latitude="24.15806" longitude="120.54393" inDis="50" outDis="50" oid="14023" /><Stop Id="1303" routeId="93" nameZh="大肚火車站" seqNo="73" pgp="0" terminal="0" districtId="1" GoBack="2" latitude="24.15316" longitude="120.54476" inDis="50" outDis="50" oid="14022" /><Stop Id="4786" routeId="93" nameZh="大肚區公所" seqNo="74" pgp="0" terminal="0" districtId="1" GoBack="2" latitude="24.1512" longitude="120.54536" inDis="50" outDis="50" oid="14021" /><Stop Id="1302" routeId="93" nameZh="大肚" seqNo="75" pgp="0" terminal="0" districtId="1" GoBack="2" latitude="24.15014" longitude="120.54565" inDis="50" outDis="50" oid="14020" /><Stop Id="1359" routeId="93" nameZh="大道國中" seqNo="76" pgp="0" terminal="0" districtId="1" GoBack="2" latitude="24.14613" longitude="120.54673" inDis="50" outDis="50" oid="14019" /><Stop Id="4460" routeId="93" nameZh="沙田自由路口" seqNo="77" pgp="0" terminal="0" districtId="1" GoBack="2" latitude="24.14309" longitude="120.54794" inDis="50" outDis="50" oid="14018" /><Stop Id="4491" routeId="93" nameZh="新興里" seqNo="78" pgp="0" terminal="0" districtId="1" GoBack="2" latitude="24.14098" longitude="120.54912" inDis="50" outDis="50" oid="14017" /><Stop Id="4038" routeId="93" nameZh="崁仔腳" seqNo="79" pgp="0" terminal="0" districtId="1" GoBack="2" latitude="24.13717" longitude="120.5518" inDis="50" outDis="50" oid="14016" /><Stop Id="2443" routeId="93" nameZh="東興紡織" seqNo="80" pgp="0" terminal="0" districtId="1" GoBack="2" latitude="24.13472" longitude="120.55358" inDis="50" outDis="50" oid="14015" /><Stop Id="2494" routeId="93" nameZh="社腳" seqNo="81" pgp="0" terminal="0" districtId="1" GoBack="2" latitude="24.13248" longitude="120.55397" inDis="50" outDis="50" oid="14014" /><Stop Id="4514" routeId="93" nameZh="營埔里" seqNo="82" pgp="0" terminal="0" districtId="1" GoBack="2" latitude="24.12759" longitude="120.55759" inDis="50" outDis="50" oid="14013" /><Stop Id="4511" routeId="93" nameZh="興國公司" seqNo="83" pgp="0" terminal="0" districtId="1" GoBack="2" latitude="24.12584" longitude="120.56034" inDis="50" outDis="50" oid="14012" /><Stop Id="2886" routeId="93" nameZh="追分郵局" seqNo="84" pgp="0" terminal="0" districtId="1" GoBack="2" latitude="24.12482" longitude="120.56207" inDis="50" outDis="50" oid="14011" /><Stop Id="1390" routeId="93" nameZh="山仔頂" seqNo="85" pgp="0" terminal="0" districtId="1" GoBack="2" latitude="24.12339" longitude="120.5645" inDis="50" outDis="50" oid="14010" /><Stop Id="2885" routeId="93" nameZh="追分國小" seqNo="86" pgp="0" terminal="0" districtId="1" GoBack="2" latitude="24.12203" longitude="120.56812" inDis="50" outDis="50" oid="14009" /><Stop Id="2884" routeId="93" nameZh="追分" seqNo="87" pgp="0" terminal="0" districtId="1" GoBack="2" latitude="24.12114" longitude="120.57048" inDis="50" outDis="50" oid="14008" /><Stop Id="2597" routeId="93" nameZh="南追分" seqNo="88" pgp="0" terminal="0" districtId="1" GoBack="2" latitude="24.11887" longitude="120.57649" inDis="50" outDis="50" oid="14007" /><Stop Id="1743" routeId="93" nameZh="王田" seqNo="93" pgp="0" terminal="0" districtId="1" GoBack="2" latitude="24.11348" longitude="120.58856" inDis="50" outDis="50" oid="14006" /><Stop Id="3277" routeId="93" nameZh="善光寺" seqNo="94" pgp="0" terminal="0" districtId="1" GoBack="2" latitude="24.11295" longitude="120.59403" inDis="50" outDis="50" oid="14005" /><Stop Id="2120" routeId="93" nameZh="成功嶺" seqNo="95" pgp="0" terminal="0" districtId="1" GoBack="2" latitude="24.11041" longitude="120.60111" inDis="50" outDis="50" oid="2133" /><Stop Id="4468" routeId="93" nameZh="烏日戶政" seqNo="96" pgp="0" terminal="0" districtId="1" GoBack="2" latitude="24.10927" longitude="120.6047" inDis="50" outDis="50" oid="14003" /><Stop Id="5083" routeId="93" nameZh="三和里2" seqNo="97" pgp="0" terminal="0" districtId="1" GoBack="2" latitude="24.10878" longitude="120.60634" inDis="50" outDis="50" oid="14002" /><Stop Id="5082" routeId="93" nameZh="三和里1" seqNo="98" pgp="0" terminal="0" districtId="1" GoBack="2" latitude="24.10859" longitude="120.60767" inDis="50" outDis="50" oid="14001" /><Stop Id="2907" routeId="93" nameZh="高鐵臺中站(1月台)" seqNo="102" pgp="0" terminal="0" districtId="1" GoBack="2" latitude="24.11399" longitude="120.61536" inDis="350" outDis="350" oid="14000" /></BusInfo></BusDynInfo>