[
  {
    "type": "Feature",
    "geometry": {
      "type": "Point",
      "coordinates": [
        120.72154,
        24.2538
      ]
    },
    "properties": {
      "id": "3935",
      "name": "豐原",
      "seq": 1
    }
  },
  {
    "type": "Feature",
    "geometry": {
      "type": "Point",
      "coordinates": [
        120.7184,
        24.25178
      ]
    },
    "properties": {
      "id": "3343",
      "name": "媽祖廟",
      "seq": 2
    }
  },
  {
    "type": "Feature",
    "geometry": {
      "type": "Point",
      "coordinates": [
        120.71526,
        24.25136
      ]
    },
    "properties": {
      "id": "3939",
      "name": "豐原郵局",
      "seq": 3
    }
  },
  {
    "type": "Feature",
    "geometry": {
      "type": "Point",
      "coordinates": [
        120.712,
        24.25079
      ]
    },
    "properties": {
      "id": "3357",
      "name": "慈龍寺",
      "seq": 4
    }
  },
  {
    "type": "Feature",
    "geometry": {
      "type": "Point",
      "coordinates": [
        120.70963,
        24.25039
      ]
    },
    "properties": {
      "id": "4448",
      "name": "中正圓環西路口",
      "seq": 5
    }
  },
  {
    "type": "Feature",
    "geometry": {
      "type": "Point",
      "coordinates": [
        120.70672,
        24.24999
      ]
    },
    "properties": {
      "id": "1065",
      "name": "三光新村",
      "seq": 6
    }
  },
  {
    "type": "Feature",
    "geometry": {
      "type": "Point",
      "coordinates": [
        120.70434,
        24.24962
      ]
    },
    "properties": {
      "id": "2349",
      "name": "忠勤新村",
      "seq": 7
    }
  },
  {
    "type": "Feature",
    "geometry": {
      "type": "Point",
      "coordinates": [
        120.70229,
        24.24951
      ]
    },
    "properties": {
      "id": "2489",
      "name": "社皮鐵路巷",
      "seq": 8
    }
  },
  {
    "type": "Feature",
    "geometry": {
      "type": "Point",
      "coordinates": [
        120.70003,
        24.249
      ]
    },
    "properties": {
      "id": "4498",
      "name": "臺豐社區",
      "seq": 9
    }
  },
  {
    "type": "Feature",
    "geometry": {
      "type": "Point",
      "coordinates": [
        120.69799,
        24.2487
      ]
    },
    "properties": {
      "id": "5438",
      "name": "岸裡國小",
      "seq": 10
    }
  },
  {
    "type": "Feature",
    "geometry": {
      "type": "Point",
      "coordinates": [
        120.69323,
        24.24841
      ]
    },
    "properties": {
      "id": "2993",
      "name": "望寮",
      "seq": 11
    }
  },
  {
    "type": "Feature",
    "geometry": {
      "type": "Point",
      "coordinates": [
        120.6896,
        24.2476
      ]
    },
    "properties": {
      "id": "2700",
      "name": "紅瓦厝口",
      "seq": 12
    }
  },
  {
    "type": "Feature",
    "geometry": {
      "type": "Point",
      "coordinates": [
        120.68563,
        24.24668
      ]
    },
    "properties": {
      "id": "2486",
      "name": "社口",
      "seq": 13
    }
  },
  {
    "type": "Feature",
    "geometry": {
      "type": "Point",
      "coordinates": [
        120.68146,
        24.24731
      ]
    },
    "properties": {
      "id": "2836",
      "name": "神岡國中",
      "seq": 14
    }
  },
  {
    "type": "Feature",
    "geometry": {
      "type": "Point",
      "coordinates": [
        120.67946,
        24.24901
      ]
    },
    "properties": {
      "id": "3656",
      "name": "福隆新村",
      "seq": 15
    }
  },
  {
    "type": "Feature",
    "geometry": {
      "type": "Point",
      "coordinates": [
        120.67622,
        24.25099
      ]
    },
    "properties": {
      "id": "3655",
      "name": "福華公司",
      "seq": 16
    }
  },
  {
    "type": "Feature",
    "geometry": {
      "type": "Point",
      "coordinates": [
        120.67387,
        24.25294
      ]
    },
    "properties": {
      "id": "3556",
      "name": "電信局",
      "seq": 17
    }
  },
  {
    "type": "Feature",
    "geometry": {
      "type": "Point",
      "coordinates": [
        120.67224,
        24.25521
      ]
    },
    "properties": {
      "id": "3460",
      "name": "中山溝心路口",
      "seq": 18
    }
  },
  {
    "type": "Feature",
    "geometry": {
      "type": "Point",
      "coordinates": [
        120.66832,
        24.25732
      ]
    },
    "properties": {
      "id": "1783",
      "name": "北庄",
      "seq": 19
    }
  },
  {
    "type": "Feature",
    "geometry": {
      "type": "Point",
      "coordinates": [
        120.66294,
        24.25812
      ]
    },
    "properties": {
      "id": "3066",
      "name": "庄頭",
      "seq": 20
    }
  },
  {
    "type": "Feature",
    "geometry": {
      "type": "Point",
      "coordinates": [
        120.66141,
        24.25771
      ]
    },
    "properties": {
      "id": "2837",
      "name": "神岡區公所",
      "seq": 21
    }
  },
  {
    "type": "Feature",
    "geometry": {
      "type": "Point",
      "coordinates": [
        120.6593,
        24.25703
      ]
    },
    "properties": {
      "id": "2835",
      "name": "神岡",
      "seq": 22
    }
  },
  {
    "type": "Feature",
    "geometry": {
      "type": "Point",
      "coordinates": [
        120.65858,
        24.25847
      ]
    },
    "properties": {
      "id": "2838",
      "name": "神岡農會",
      "seq": 23
    }
  },
  {
    "type": "Feature",
    "geometry": {
      "type": "Point",
      "coordinates": [
        120.65861,
        24.26062
      ]
    },
    "properties": {
      "id": "4962",
      "name": "神圳國中",
      "seq": 24
    }
  },
  {
    "type": "Feature",
    "geometry": {
      "type": "Point",
      "coordinates": [
        120.65766,
        24.26399
      ]
    },
    "properties": {
      "id": "2094",
      "name": "圳前里",
      "seq": 25
    }
  },
  {
    "type": "Feature",
    "geometry": {
      "type": "Point",
      "coordinates": [
        120.65595,
        24.26742
      ]
    },
    "properties": {
      "id": "3111",
      "name": "頂圳前",
      "seq": 26
    }
  },
  {
    "type": "Feature",
    "geometry": {
      "type": "Point",
      "coordinates": [
        120.65642,
        24.26864
      ]
    },
    "properties": {
      "id": "4755",
      "name": "圳堵里口",
      "seq": 27
    }
  },
  {
    "type": "Feature",
    "geometry": {
      "type": "Point",
      "coordinates": [
        120.65336,
        24.27158
      ]
    },
    "properties": {
      "id": "4953",
      "name": "成都家園",
      "seq": 28
    }
  },
  {
    "type": "Feature",
    "geometry": {
      "type": "Point",
      "coordinates": [
        120.64878,
        24.26985
      ]
    },
    "properties": {
      "id": "2024",
      "name": "示範公墓",
      "seq": 29
    }
  },
  {
    "type": "Feature",
    "geometry": {
      "type": "Point",
      "coordinates": [
        120.63344,
        24.27265
      ]
    },
    "properties": {
      "id": "2384",
      "name": "東山廟前",
      "seq": 31
    }
  },
  {
    "type": "Feature",
    "geometry": {
      "type": "Point",
      "coordinates": [
        120.63173,
        24.27325
      ]
    },
    "properties": {
      "id": "2381",
      "name": "東山",
      "seq": 32
    }
  },
  {
    "type": "Feature",
    "geometry": {
      "type": "Point",
      "coordinates": [
        120.63191,
        24.2748
      ]
    },
    "properties": {
      "id": "3568",
      "name": "僑昌公司",
      "seq": 33
    }
  },
  {
    "type": "Feature",
    "geometry": {
      "type": "Point",
      "coordinates": [
        120.6311,
        24.27668
      ]
    },
    "properties": {
      "id": "3393",
      "name": "新村",
      "seq": 34
    }
  },
  {
    "type": "Feature",
    "geometry": {
      "type": "Point",
      "coordinates": [
        120.62979,
        24.27808
      ]
    },
    "properties": {
      "id": "1775",
      "name": "北東山",
      "seq": 35
    }
  },
  {
    "type": "Feature",
    "geometry": {
      "type": "Point",
      "coordinates": [
        120.63013,
        24.28281
      ]
    },
    "properties": {
      "id": "4954",
      "name": "榮憶公司",
      "seq": 36
    }
  },
  {
    "type": "Feature",
    "geometry": {
      "type": "Point",
      "coordinates": [
        120.63268,
        24.28923
      ]
    },
    "properties": {
      "id": "2951",
      "name": "基登公司",
      "seq": 37
    }
  },
  {
    "type": "Feature",
    "geometry": {
      "type": "Point",
      "coordinates": [
        120.63278,
        24.29185
      ]
    },
    "properties": {
      "id": "3918",
      "name": "舊庄",
      "seq": 38
    }
  },
  {
    "type": "Feature",
    "geometry": {
      "type": "Point",
      "coordinates": [
        120.63047,
        24.29275
      ]
    },
    "properties": {
      "id": "1215",
      "name": "下舊庄",
      "seq": 39
    }
  },
  {
    "type": "Feature",
    "geometry": {
      "type": "Point",
      "coordinates": [
        120.62546,
        24.29249
      ]
    },
    "properties": {
      "id": "2271",
      "name": "良逸公司",
      "seq": 40
    }
  },
  {
    "type": "Feature",
    "geometry": {
      "type": "Point",
      "coordinates": [
        120.61939,
        24.29252
      ]
    },
    "properties": {
      "id": "2807",
      "name": "海風里",
      "seq": 41
    }
  },
  {
    "type": "Feature",
    "geometry": {
      "type": "Point",
      "coordinates": [
        120.61558,
        24.28907
      ]
    },
    "properties": {
      "id": "3448",
      "name": "楊厝里",
      "seq": 42
    }
  },
  {
    "type": "Feature",
    "geometry": {
      "type": "Point",
      "coordinates": [
        120.6133,
        24.28594
      ]
    },
    "properties": {
      "id": "1203",
      "name": "下楊厝里",
      "seq": 43
    }
  },
  {
    "type": "Feature",
    "geometry": {
      "type": "Point",
      "coordinates": [
        120.61289,
        24.27944
      ]
    },
    "properties": {
      "id": "4955",
      "name": "許厝寮",
      "seq": 44
    }
  },
  {
    "type": "Feature",
    "geometry": {
      "type": "Point",
      "coordinates": [
        120.61116,
        24.27616
      ]
    },
    "properties": {
      "id": "3119",
      "name": "頂吳厝里",
      "seq": 45
    }
  },
  {
    "type": "Feature",
    "geometry": {
      "type": "Point",
      "coordinates": [
        120.60769,
        24.26934
      ]
    },
    "properties": {
      "id": "3434",
      "name": "新興社區",
      "seq": 46
    }
  },
  {
    "type": "Feature",
    "geometry": {
      "type": "Point",
      "coordinates": [
        120.60631,
        24.2666
      ]
    },
    "properties": {
      "id": "2223",
      "name": "吳厝里",
      "seq": 47
    }
  },
  {
    "type": "Feature",
    "geometry": {
      "type": "Point",
      "coordinates": [
        120.60402,
        24.26215
      ]
    },
    "properties": {
      "id": "3295",
      "name": "澔明公司",
      "seq": 48
    }
  },
  {
    "type": "Feature",
    "geometry": {
      "type": "Point",
      "coordinates": [
        120.60226,
        24.25887
      ]
    },
    "properties": {
      "id": "5847",
      "name": "西勢營門",
      "seq": 49
    }
  },
  {
    "type": "Feature",
    "geometry": {
      "type": "Point",
      "coordinates": [
        120.60128,
        24.25815
      ]
    },
    "properties": {
      "id": "5662",
      "name": "中航和睦路口",
      "seq": 50
    }
  },
  {
    "type": "Feature",
    "geometry": {
      "type": "Point",
      "coordinates": [
        120.60025,
        24.25619
      ]
    },
    "properties": {
      "id": "5381",
      "name": "西勢十巷口",
      "seq": 51
    }
  },
  {
    "type": "Feature",
    "geometry": {
      "type": "Point",
      "coordinates": [
        120.59915,
        24.25382
      ]
    },
    "properties": {
      "id": "0135",
      "name": "臺中航空站",
      "seq": 52
    }
  },
  {
    "type": "Feature",
    "geometry": {
      "type": "Point",
      "coordinates": [
        120.60021,
        24.25603
      ]
    },
    "properties": {
      "id": "5381",
      "name": "西勢十巷口",
      "seq": 53
    }
  },
  {
    "type": "Feature",
    "geometry": {
      "type": "Point",
      "coordinates": [
        120.6012,
        24.25803
      ]
    },
    "properties": {
      "id": "5662",
      "name": "中航和睦路口",
      "seq": 54
    }
  },
  {
    "type": "Feature",
    "geometry": {
      "type": "Point",
      "coordinates": [
        120.5987,
        24.25982
      ]
    },
    "properties": {
      "id": "4101",
      "name": "西勢里",
      "seq": 55
    }
  },
  {
    "type": "Feature",
    "geometry": {
      "type": "Point",
      "coordinates": [
        120.59513,
        24.26084
      ]
    },
    "properties": {
      "id": "4083",
      "name": "公館國小",
      "seq": 56
    }
  },
  {
    "type": "Feature",
    "geometry": {
      "type": "Point",
      "coordinates": [
        120.58787,
        24.26416
      ]
    },
    "properties": {
      "id": "5033",
      "name": "國仕加油站",
      "seq": 57
    }
  },
  {
    "type": "Feature",
    "geometry": {
      "type": "Point",
      "coordinates": [
        120.58224,
        24.26578
      ]
    },
    "properties": {
      "id": "4137",
      "name": "嘉陽高中",
      "seq": 58
    }
  },
  {
    "type": "Feature",
    "geometry": {
      "type": "Point",
      "coordinates": [
        120.57435,
        24.2661
      ]
    },
    "properties": {
      "id": "5568",
      "name": "清水高中(學園街)",
      "seq": 60
    }
  },
  {
    "type": "Feature",
    "geometry": {
      "type": "Point",
      "coordinates": [
        120.57516,
        24.2683
      ]
    },
    "properties": {
      "id": "5141",
      "name": "華南銀行(清水分行)",
      "seq": 61
    }
  },
  {
    "type": "Feature",
    "geometry": {
      "type": "Point",
      "coordinates": [
        120.57594,
        24.2703
      ]
    },
    "properties": {
      "id": "3013",
      "name": "清水",
      "seq": 62
    }
  },
  {
    "type": "Feature",
    "geometry": {
      "type": "Point",
      "coordinates": [
        120.57687,
        24.27284
      ]
    },
    "properties": {
      "id": "4521",
      "name": "中山董公街口",
      "seq": 63
    }
  },
  {
    "type": "Feature",
    "geometry": {
      "type": "Point",
      "coordinates": [
        120.57725,
        24.27531
      ]
    },
    "properties": {
      "id": "4442",
      "name": "中山高美路口",
      "seq": 64
    }
  },
  {
    "type": "Feature",
    "geometry": {
      "type": "Point",
      "coordinates": [
        120.57505,
        24.2757
      ]
    },
    "properties": {
      "id": "4956",
      "name": "西寧國小",
      "seq": 65
    }
  },
  {
    "type": "Feature",
    "geometry": {
      "type": "Point",
      "coordinates": [
        120.57207,
        24.27509
      ]
    },
    "properties": {
      "id": "5228",
      "name": "五權東鎮新路口",
      "seq": 66
    }
  },
  {
    "type": "Feature",
    "geometry": {
      "type": "Point",
      "coordinates": [
        120.57054,
        24.27595
      ]
    },
    "properties": {
      "id": "5961",
      "name": "五權民有路口",
      "seq": 67
    }
  },
  {
    "type": "Feature",
    "geometry": {
      "type": "Point",
      "coordinates": [
        120.56798,
        24.27697
      ]
    },
    "properties": {
      "id": "5227",
      "name": "五權民享路口",
      "seq": 68
    }
  },
  {
    "type": "Feature",
    "geometry": {
      "type": "Point",
      "coordinates": [
        120.56472,
        24.27708
      ]
    },
    "properties": {
      "id": "5777",
      "name": "五權華江北街口",
      "seq": 69
    }
  },
  {
    "type": "Feature",
    "geometry": {
      "type": "Point",
      "coordinates": [
        120.56125,
        24.27753
      ]
    },
    "properties": {
      "id": "0096",
      "name": "慈濟靜思堂(海濱路)",
      "seq": 70
    }
  },
  {
    "type": "Feature",
    "geometry": {
      "type": "Point",
      "coordinates": [
        120.55948,
        24.27949
      ]
    },
    "properties": {
      "id": "5047",
      "name": "上武鹿",
      "seq": 71
    }
  },
  {
    "type": "Feature",
    "geometry": {
      "type": "Point",
      "coordinates": [
        120.55645,
        24.27995
      ]
    },
    "properties": {
      "id": "2476",
      "name": "武鹿",
      "seq": 72
    }
  },
  {
    "type": "Feature",
    "geometry": {
      "type": "Point",
      "coordinates": [
        120.55417,
        24.27987
      ]
    },
    "properties": {
      "id": "1159",
      "name": "下武鹿",
      "seq": 73
    }
  },
  {
    "type": "Feature",
    "geometry": {
      "type": "Point",
      "coordinates": [
        120.55201,
        24.28078
      ]
    },
    "properties": {
      "id": "2143",
      "name": "竹仔寮",
      "seq": 74
    }
  },
  {
    "type": "Feature",
    "geometry": {
      "type": "Point",
      "coordinates": [
        120.54845,
        24.28245
      ]
    },
    "properties": {
      "id": "6031",
      "name": "漁港港埠路口",
      "seq": 75
    }
  },
  {
    "type": "Feature",
    "geometry": {
      "type": "Point",
      "coordinates": [
        120.54556,
        24.28552
      ]
    },
    "properties": {
      "id": "3143",
      "name": "頂海濱里",
      "seq": 76
    }
  },
  {
    "type": "Feature",
    "geometry": {
      "type": "Point",
      "coordinates": [
        120.54428,
        24.28662
      ]
    },
    "properties": {
      "id": "2812",
      "name": "海濱里",
      "seq": 77
    }
  },
  {
    "type": "Feature",
    "geometry": {
      "type": "Point",
      "coordinates": [
        120.53974,
        24.28838
      ]
    },
    "properties": {
      "id": "5063",
      "name": "臺中港北堤",
      "seq": 78
    }
  },
  {
    "type": "Feature",
    "geometry": {
      "type": "Point",
      "coordinates": [
        120.5379,
        24.28528
      ]
    },
    "properties": {
      "id": "3763",
      "name": "賢德大樓",
      "seq": 79
    }
  },
  {
    "type": "Feature",
    "geometry": {
      "type": "Point",
      "coordinates": [
        120.53703,
        24.28326
      ]
    },
    "properties": {
      "id": "3729",
      "name": "德豐大樓",
      "seq": 80
    }
  },
  {
    "type": "Feature",
    "geometry": {
      "type": "Point",
      "coordinates": [
        120.53637,
        24.28169
      ]
    },
    "properties": {
      "id": "2180",
      "name": "西瓜寮",
      "seq": 81
    }
  },
  {
    "type": "Feature",
    "geometry": {
      "type": "Point",
      "coordinates": [
        120.53504,
        24.27858
      ]
    },
    "properties": {
      "id": "2657",
      "name": "後營門口",
      "seq": 82
    }
  },
  {
    "type": "Feature",
    "geometry": {
      "type": "Point",
      "coordinates": [
        120.53417,
        24.27653
      ]
    },
    "properties": {
      "id": "2996",
      "name": "梧棟",
      "seq": 83
    }
  },
  {
    "type": "Feature",
    "geometry": {
      "type": "Point",
      "coordinates": [
        120.5331,
        24.27372
      ]
    },
    "properties": {
      "id": "5066",
      "name": "環球大樓",
      "seq": 84
    }
  },
  {
    "type": "Feature",
    "geometry": {
      "type": "Point",
      "coordinates": [
        120.53229,
        24.27162
      ]
    },
    "properties": {
      "id": "5058",
      "name": "舶來品商圈",
      "seq": 85
    }
  },
  {
    "type": "Feature",
    "geometry": {
      "type": "Point",
      "coordinates": [
        120.53144,
        24.26981
      ]
    },
    "properties": {
      "id": "4397",
      "name": "港灣技術中心",
      "seq": 86
    }
  },
  {
    "type": "Feature",
    "geometry": {
      "type": "Point",
      "coordinates": [
        120.52987,
        24.26109
      ]
    },
    "properties": {
      "id": "4374",
      "name": "大智梧北路口",
      "seq": 87
    }
  },
  {
    "type": "Feature",
    "geometry": {
      "type": "Point",
      "coordinates": [
        120.53213,
        24.26035
      ]
    },
    "properties": {
      "id": "4668",
      "name": "頂寮里",
      "seq": 88
    }
  },
  {
    "type": "Feature",
    "geometry": {
      "type": "Point",
      "coordinates": [
        120.53495,
        24.25932
      ]
    },
    "properties": {
      "id": "4840",
      "name": "國都飯店",
      "seq": 89
    }
  },
  {
    "type": "Feature",
    "geometry": {
      "type": "Point",
      "coordinates": [
        120.53645,
        24.25985
      ]
    },
    "properties": {
      "id": "5065",
      "name": "臺銀中港分行",
      "seq": 90
    }
  },
  {
    "type": "Feature",
    "geometry": {
      "type": "Point",
      "coordinates": [
        120.53737,
        24.26212
      ]
    },
    "properties": {
      "id": "5064",
      "name": "臺中港郵局",
      "seq": 91
    }
  },
  {
    "type": "Feature",
    "geometry": {
      "type": "Point",
      "coordinates": [
        120.53737,
        24.26212
      ]
    },
    "properties": {
      "id": "5064",
      "name": "臺中港郵局",
      "seq": 1
    }
  },
  {
    "type": "Feature",
    "geometry": {
      "type": "Point",
      "coordinates": [
        120.53645,
        24.25985
      ]
    },
    "properties": {
      "id": "5065",
      "name": "臺銀中港分行",
      "seq": 2
    }
  },
  {
    "type": "Feature",
    "geometry": {
      "type": "Point",
      "coordinates": [
        120.53495,
        24.25932
      ]
    },
    "properties": {
      "id": "4840",
      "name": "國都飯店",
      "seq": 3
    }
  },
  {
    "type": "Feature",
    "geometry": {
      "type": "Point",
      "coordinates": [
        120.53213,
        24.26035
      ]
    },
    "properties": {
      "id": "4668",
      "name": "頂寮里",
      "seq": 4
    }
  },
  {
    "type": "Feature",
    "geometry": {
      "type": "Point",
      "coordinates": [
        120.52987,
        24.26109
      ]
    },
    "properties": {
      "id": "4374",
      "name": "大智梧北路口",
      "seq": 5
    }
  },
  {
    "type": "Feature",
    "geometry": {
      "type": "Point",
      "coordinates": [
        120.53144,
        24.26981
      ]
    },
    "properties": {
      "id": "4397",
      "name": "港灣技術中心",
      "seq": 6
    }
  },
  {
    "type": "Feature",
    "geometry": {
      "type": "Point",
      "coordinates": [
        120.53229,
        24.27162
      ]
    },
    "properties": {
      "id": "5058",
      "name": "舶來品商圈",
      "seq": 7
    }
  },
  {
    "type": "Feature",
    "geometry": {
      "type": "Point",
      "coordinates": [
        120.5331,
        24.27372
      ]
    },
    "properties": {
      "id": "5066",
      "name": "環球大樓",
      "seq": 8
    }
  },
  {
    "type": "Feature",
    "geometry": {
      "type": "Point",
      "coordinates": [
        120.53417,
        24.27653
      ]
    },
    "properties": {
      "id": "2996",
      "name": "梧棟",
      "seq": 9
    }
  },
  {
    "type": "Feature",
    "geometry": {
      "type": "Point",
      "coordinates": [
        120.53504,
        24.27858
      ]
    },
    "properties": {
      "id": "2657",
      "name": "後營門口",
      "seq": 10
    }
  },
  {
    "type": "Feature",
    "geometry": {
      "type": "Point",
      "coordinates": [
        120.53637,
        24.28169
      ]
    },
    "properties": {
      "id": "2180",
      "name": "西瓜寮",
      "seq": 11
    }
  },
  {
    "type": "Feature",
    "geometry": {
      "type": "Point",
      "coordinates": [
        120.53703,
        24.28326
      ]
    },
    "properties": {
      "id": "3729",
      "name": "德豐大樓",
      "seq": 12
    }
  },
  {
    "type": "Feature",
    "geometry": {
      "type": "Point",
      "coordinates": [
        120.5379,
        24.28528
      ]
    },
    "properties": {
      "id": "3763",
      "name": "賢德大樓",
      "seq": 13
    }
  },
  {
    "type": "Feature",
    "geometry": {
      "type": "Point",
      "coordinates": [
        120.53974,
        24.28838
      ]
    },
    "properties": {
      "id": "5063",
      "name": "臺中港北堤",
      "seq": 14
    }
  },
  {
    "type": "Feature",
    "geometry": {
      "type": "Point",
      "coordinates": [
        120.54428,
        24.28662
      ]
    },
    "properties": {
      "id": "2812",
      "name": "海濱里",
      "seq": 15
    }
  },
  {
    "type": "Feature",
    "geometry": {
      "type": "Point",
      "coordinates": [
        120.54556,
        24.28552
      ]
    },
    "properties": {
      "id": "3143",
      "name": "頂海濱里",
      "seq": 16
    }
  },
  {
    "type": "Feature",
    "geometry": {
      "type": "Point",
      "coordinates": [
        120.54814,
        24.28247
      ]
    },
    "properties": {
      "id": "6031",
      "name": "漁港港埠路口",
      "seq": 17
    }
  },
  {
    "type": "Feature",
    "geometry": {
      "type": "Point",
      "coordinates": [
        120.55201,
        24.28078
      ]
    },
    "properties": {
      "id": "2143",
      "name": "竹仔寮",
      "seq": 18
    }
  },
  {
    "type": "Feature",
    "geometry": {
      "type": "Point",
      "coordinates": [
        120.55417,
        24.27987
      ]
    },
    "properties": {
      "id": "1159",
      "name": "下武鹿",
      "seq": 19
    }
  },
  {
    "type": "Feature",
    "geometry": {
      "type": "Point",
      "coordinates": [
        120.55645,
        24.27995
      ]
    },
    "properties": {
      "id": "2476",
      "name": "武鹿",
      "seq": 20
    }
  },
  {
    "type": "Feature",
    "geometry": {
      "type": "Point",
      "coordinates": [
        120.55948,
        24.27949
      ]
    },
    "properties": {
      "id": "5047",
      "name": "上武鹿",
      "seq": 21
    }
  },
  {
    "type": "Feature",
    "geometry": {
      "type": "Point",
      "coordinates": [
        120.56125,
        24.27753
      ]
    },
    "properties": {
      "id": "0096",
      "name": "慈濟靜思堂(海濱路)",
      "seq": 22
    }
  },
  {
    "type": "Feature",
    "geometry": {
      "type": "Point",
      "coordinates": [
        120.56472,
        24.27708
      ]
    },
    "properties": {
      "id": "5777",
      "name": "五權華江北街口",
      "seq": 23
    }
  },
  {
    "type": "Feature",
    "geometry": {
      "type": "Point",
      "coordinates": [
        120.56798,
        24.27697
      ]
    },
    "properties": {
      "id": "5227",
      "name": "五權民享路口",
      "seq": 24
    }
  },
  {
    "type": "Feature",
    "geometry": {
      "type": "Point",
      "coordinates": [
        120.57084,
        24.27597
      ]
    },
    "properties": {
      "id": "5961",
      "name": "五權民有路口",
      "seq": 25
    }
  },
  {
    "type": "Feature",
    "geometry": {
      "type": "Point",
      "coordinates": [
        120.57207,
        24.27509
      ]
    },
    "properties": {
      "id": "5228",
      "name": "五權東鎮新路口",
      "seq": 26
    }
  },
  {
    "type": "Feature",
    "geometry": {
      "type": "Point",
      "coordinates": [
        120.5736,
        24.27699
      ]
    },
    "properties": {
      "id": "4956",
      "name": "西寧國小",
      "seq": 27
    }
  },
  {
    "type": "Feature",
    "geometry": {
      "type": "Point",
      "coordinates": [
        120.57725,
        24.27531
      ]
    },
    "properties": {
      "id": "4442",
      "name": "中山高美路口",
      "seq": 28
    }
  },
  {
    "type": "Feature",
    "geometry": {
      "type": "Point",
      "coordinates": [
        120.57687,
        24.27284
      ]
    },
    "properties": {
      "id": "4521",
      "name": "中山董公街口",
      "seq": 29
    }
  },
  {
    "type": "Feature",
    "geometry": {
      "type": "Point",
      "coordinates": [
        120.57594,
        24.2703
      ]
    },
    "properties": {
      "id": "3013",
      "name": "清水",
      "seq": 30
    }
  },
  {
    "type": "Feature",
    "geometry": {
      "type": "Point",
      "coordinates": [
        120.57516,
        24.2683
      ]
    },
    "properties": {
      "id": "5141",
      "name": "華南銀行(清水分行)",
      "seq": 31
    }
  },
  {
    "type": "Feature",
    "geometry": {
      "type": "Point",
      "coordinates": [
        120.57435,
        24.2661
      ]
    },
    "properties": {
      "id": "5568",
      "name": "清水高中(學園街)",
      "seq": 32
    }
  },
  {
    "type": "Feature",
    "geometry": {
      "type": "Point",
      "coordinates": [
        120.58224,
        24.26578
      ]
    },
    "properties": {
      "id": "4137",
      "name": "嘉陽高中",
      "seq": 34
    }
  },
  {
    "type": "Feature",
    "geometry": {
      "type": "Point",
      "coordinates": [
        120.58787,
        24.26416
      ]
    },
    "properties": {
      "id": "5033",
      "name": "國仕加油站",
      "seq": 35
    }
  },
  {
    "type": "Feature",
    "geometry": {
      "type": "Point",
      "coordinates": [
        120.59513,
        24.26084
      ]
    },
    "properties": {
      "id": "4083",
      "name": "公館國小",
      "seq": 36
    }
  },
  {
    "type": "Feature",
    "geometry": {
      "type": "Point",
      "coordinates": [
        120.5987,
        24.25982
      ]
    },
    "properties": {
      "id": "4101",
      "name": "西勢里",
      "seq": 37
    }
  },
  {
    "type": "Feature",
    "geometry": {
      "type": "Point",
      "coordinates": [
        120.60128,
        24.25815
      ]
    },
    "properties": {
      "id": "5662",
      "name": "中航和睦路口",
      "seq": 38
    }
  },
  {
    "type": "Feature",
    "geometry": {
      "type": "Point",
      "coordinates": [
        120.60025,
        24.25619
      ]
    },
    "properties": {
      "id": "5381",
      "name": "西勢十巷口",
      "seq": 39
    }
  },
  {
    "type": "Feature",
    "geometry": {
      "type": "Point",
      "coordinates": [
        120.59915,
        24.25382
      ]
    },
    "properties": {
      "id": "0135",
      "name": "臺中航空站",
      "seq": 40
    }
  },
  {
    "type": "Feature",
    "geometry": {
      "type": "Point",
      "coordinates": [
        120.60021,
        24.25603
      ]
    },
    "properties": {
      "id": "5381",
      "name": "西勢十巷口",
      "seq": 41
    }
  },
  {
    "type": "Feature",
    "geometry": {
      "type": "Point",
      "coordinates": [
        120.6012,
        24.25803
      ]
    },
    "properties": {
      "id": "5662",
      "name": "中航和睦路口",
      "seq": 42
    }
  },
  {
    "type": "Feature",
    "geometry": {
      "type": "Point",
      "coordinates": [
        120.60226,
        24.25887
      ]
    },
    "properties": {
      "id": "5847",
      "name": "西勢營門",
      "seq": 43
    }
  },
  {
    "type": "Feature",
    "geometry": {
      "type": "Point",
      "coordinates": [
        120.60415,
        24.26225
      ]
    },
    "properties": {
      "id": "3295",
      "name": "澔明公司",
      "seq": 44
    }
  },
  {
    "type": "Feature",
    "geometry": {
      "type": "Point",
      "coordinates": [
        120.60616,
        24.26621
      ]
    },
    "properties": {
      "id": "2223",
      "name": "吳厝里",
      "seq": 45
    }
  },
  {
    "type": "Feature",
    "geometry": {
      "type": "Point",
      "coordinates": [
        120.60769,
        24.26934
      ]
    },
    "properties": {
      "id": "3434",
      "name": "新興社區",
      "seq": 46
    }
  },
  {
    "type": "Feature",
    "geometry": {
      "type": "Point",
      "coordinates": [
        120.61116,
        24.27616
      ]
    },
    "properties": {
      "id": "3119",
      "name": "頂吳厝里",
      "seq": 47
    }
  },
  {
    "type": "Feature",
    "geometry": {
      "type": "Point",
      "coordinates": [
        120.61362,
        24.28076
      ]
    },
    "properties": {
      "id": "4955",
      "name": "許厝寮",
      "seq": 48
    }
  },
  {
    "type": "Feature",
    "geometry": {
      "type": "Point",
      "coordinates": [
        120.6133,
        24.28594
      ]
    },
    "properties": {
      "id": "1203",
      "name": "下楊厝里",
      "seq": 49
    }
  },
  {
    "type": "Feature",
    "geometry": {
      "type": "Point",
      "coordinates": [
        120.61539,
        24.28876
      ]
    },
    "properties": {
      "id": "3448",
      "name": "楊厝里",
      "seq": 50
    }
  },
  {
    "type": "Feature",
    "geometry": {
      "type": "Point",
      "coordinates": [
        120.61939,
        24.29252
      ]
    },
    "properties": {
      "id": "2807",
      "name": "海風里",
      "seq": 51
    }
  },
  {
    "type": "Feature",
    "geometry": {
      "type": "Point",
      "coordinates": [
        120.62546,
        24.29249
      ]
    },
    "properties": {
      "id": "2271",
      "name": "良逸公司",
      "seq": 52
    }
  },
  {
    "type": "Feature",
    "geometry": {
      "type": "Point",
      "coordinates": [
        120.63014,
        24.29281
      ]
    },
    "properties": {
      "id": "1215",
      "name": "下舊庄",
      "seq": 53
    }
  },
  {
    "type": "Feature",
    "geometry": {
      "type": "Point",
      "coordinates": [
        120.63278,
        24.29185
      ]
    },
    "properties": {
      "id": "3918",
      "name": "舊庄",
      "seq": 54
    }
  },
  {
    "type": "Feature",
    "geometry": {
      "type": "Point",
      "coordinates": [
        120.63268,
        24.28923
      ]
    },
    "properties": {
      "id": "2951",
      "name": "基登公司",
      "seq": 55
    }
  },
  {
    "type": "Feature",
    "geometry": {
      "type": "Point",
      "coordinates": [
        120.63288,
        24.29056
      ]
    },
    "properties": {
      "id": "4954",
      "name": "榮憶公司",
      "seq": 56
    }
  },
  {
    "type": "Feature",
    "geometry": {
      "type": "Point",
      "coordinates": [
        120.62979,
        24.27808
      ]
    },
    "properties": {
      "id": "1775",
      "name": "北東山",
      "seq": 57
    }
  },
  {
    "type": "Feature",
    "geometry": {
      "type": "Point",
      "coordinates": [
        120.6311,
        24.27668
      ]
    },
    "properties": {
      "id": "3393",
      "name": "新村",
      "seq": 58
    }
  },
  {
    "type": "Feature",
    "geometry": {
      "type": "Point",
      "coordinates": [
        120.63191,
        24.2748
      ]
    },
    "properties": {
      "id": "3568",
      "name": "僑昌公司",
      "seq": 59
    }
  },
  {
    "type": "Feature",
    "geometry": {
      "type": "Point",
      "coordinates": [
        120.63173,
        24.27325
      ]
    },
    "properties": {
      "id": "2381",
      "name": "東山",
      "seq": 60
    }
  },
  {
    "type": "Feature",
    "geometry": {
      "type": "Point",
      "coordinates": [
        120.63344,
        24.27265
      ]
    },
    "properties": {
      "id": "2384",
      "name": "東山廟前",
      "seq": 61
    }
  },
  {
    "type": "Feature",
    "geometry": {
      "type": "Point",
      "coordinates": [
        120.64878,
        24.26985
      ]
    },
    "properties": {
      "id": "2024",
      "name": "示範公墓",
      "seq": 63
    }
  },
  {
    "type": "Feature",
    "geometry": {
      "type": "Point",
      "coordinates": [
        120.65138,
        24.27059
      ]
    },
    "properties": {
      "id": "4953",
      "name": "成都家園",
      "seq": 64
    }
  },
  {
    "type": "Feature",
    "geometry": {
      "type": "Point",
      "coordinates": [
        120.65642,
        24.26864
      ]
    },
    "properties": {
      "id": "4755",
      "name": "圳堵里口",
      "seq": 65
    }
  },
  {
    "type": "Feature",
    "geometry": {
      "type": "Point",
      "coordinates": [
        120.65595,
        24.26742
      ]
    },
    "properties": {
      "id": "3111",
      "name": "頂圳前",
      "seq": 66
    }
  },
  {
    "type": "Feature",
    "geometry": {
      "type": "Point",
      "coordinates": [
        120.65766,
        24.26399
      ]
    },
    "properties": {
      "id": "2094",
      "name": "圳前里",
      "seq": 67
    }
  },
  {
    "type": "Feature",
    "geometry": {
      "type": "Point",
      "coordinates": [
        120.65861,
        24.26062
      ]
    },
    "properties": {
      "id": "4962",
      "name": "神圳國中",
      "seq": 68
    }
  },
  {
    "type": "Feature",
    "geometry": {
      "type": "Point",
      "coordinates": [
        120.65858,
        24.25847
      ]
    },
    "properties": {
      "id": "2838",
      "name": "神岡農會",
      "seq": 69
    }
  },
  {
    "type": "Feature",
    "geometry": {
      "type": "Point",
      "coordinates": [
        120.6593,
        24.25703
      ]
    },
    "properties": {
      "id": "2835",
      "name": "神岡",
      "seq": 70
    }
  },
  {
    "type": "Feature",
    "geometry": {
      "type": "Point",
      "coordinates": [
        120.66141,
        24.25771
      ]
    },
    "properties": {
      "id": "2837",
      "name": "神岡區公所",
      "seq": 71
    }
  },
  {
    "type": "Feature",
    "geometry": {
      "type": "Point",
      "coordinates": [
        120.66265,
        24.258
      ]
    },
    "properties": {
      "id": "3066",
      "name": "庄頭",
      "seq": 72
    }
  },
  {
    "type": "Feature",
    "geometry": {
      "type": "Point",
      "coordinates": [
        120.66832,
        24.25732
      ]
    },
    "properties": {
      "id": "1783",
      "name": "北庄",
      "seq": 73
    }
  },
  {
    "type": "Feature",
    "geometry": {
      "type": "Point",
      "coordinates": [
        120.67175,
        24.25574
      ]
    },
    "properties": {
      "id": "3460",
      "name": "中山溝心路口",
      "seq": 74
    }
  },
  {
    "type": "Feature",
    "geometry": {
      "type": "Point",
      "coordinates": [
        120.67346,
        24.2535
      ]
    },
    "properties": {
      "id": "3556",
      "name": "電信局",
      "seq": 75
    }
  },
  {
    "type": "Feature",
    "geometry": {
      "type": "Point",
      "coordinates": [
        120.67622,
        24.25099
      ]
    },
    "properties": {
      "id": "3655",
      "name": "福華公司",
      "seq": 76
    }
  },
  {
    "type": "Feature",
    "geometry": {
      "type": "Point",
      "coordinates": [
        120.67946,
        24.24901
      ]
    },
    "properties": {
      "id": "3656",
      "name": "福隆新村",
      "seq": 77
    }
  },
  {
    "type": "Feature",
    "geometry": {
      "type": "Point",
      "coordinates": [
        120.68146,
        24.24731
      ]
    },
    "properties": {
      "id": "2836",
      "name": "神岡國中",
      "seq": 78
    }
  },
  {
    "type": "Feature",
    "geometry": {
      "type": "Point",
      "coordinates": [
        120.68563,
        24.24668
      ]
    },
    "properties": {
      "id": "2486",
      "name": "社口",
      "seq": 79
    }
  },
  {
    "type": "Feature",
    "geometry": {
      "type": "Point",
      "coordinates": [
        120.6896,
        24.2476
      ]
    },
    "properties": {
      "id": "2700",
      "name": "紅瓦厝口",
      "seq": 80
    }
  },
  {
    "type": "Feature",
    "geometry": {
      "type": "Point",
      "coordinates": [
        120.69323,
        24.24841
      ]
    },
    "properties": {
      "id": "2993",
      "name": "望寮",
      "seq": 81
    }
  },
  {
    "type": "Feature",
    "geometry": {
      "type": "Point",
      "coordinates": [
        120.69799,
        24.2487
      ]
    },
    "properties": {
      "id": "5438",
      "name": "岸裡國小",
      "seq": 82
    }
  },
  {
    "type": "Feature",
    "geometry": {
      "type": "Point",
      "coordinates": [
        120.70015,
        24.24901
      ]
    },
    "properties": {
      "id": "4498",
      "name": "臺豐社區",
      "seq": 83
    }
  },
  {
    "type": "Feature",
    "geometry": {
      "type": "Point",
      "coordinates": [
        120.70229,
        24.24951
      ]
    },
    "properties": {
      "id": "2489",
      "name": "社皮鐵路巷",
      "seq": 84
    }
  },
  {
    "type": "Feature",
    "geometry": {
      "type": "Point",
      "coordinates": [
        120.70434,
        24.24962
      ]
    },
    "properties": {
      "id": "2349",
      "name": "忠勤新村",
      "seq": 85
    }
  },
  {
    "type": "Feature",
    "geometry": {
      "type": "Point",
      "coordinates": [
        120.70672,
        24.24999
      ]
    },
    "properties": {
      "id": "1065",
      "name": "三光新村",
      "seq": 86
    }
  },
  {
    "type": "Feature",
    "geometry": {
      "type": "Point",
      "coordinates": [
        120.70953,
        24.25042
      ]
    },
    "properties": {
      "id": "4448",
      "name": "中正圓環西路口",
      "seq": 87
    }
  },
  {
    "type": "Feature",
    "geometry": {
      "type": "Point",
      "coordinates": [
        120.712,
        24.25079
      ]
    },
    "properties": {
      "id": "3357",
      "name": "慈龍寺",
      "seq": 88
    }
  },
  {
    "type": "Feature",
    "geometry": {
      "type": "Point",
      "coordinates": [
        120.71526,
        24.25136
      ]
    },
    "properties": {
      "id": "3939",
      "name": "豐原郵局",
      "seq": 89
    }
  },
  {
    "type": "Feature",
    "geometry": {
      "type": "Point",
      "coordinates": [
        120.7184,
        24.25178
      ]
    },
    "properties": {
      "id": "3343",
      "name": "媽祖廟",
      "seq": 90
    }
  },
  {
    "type": "Feature",
    "geometry": {
      "type": "Point",
      "coordinates": [
        120.71986,
        24.25233
      ]
    },
    "properties": {
      "id": "2309",
      "name": "和平街",
      "seq": 91
    }
  },
  {
    "type": "Feature",
    "geometry": {
      "type": "Point",
      "coordinates": [
        120.72154,
        24.2538
      ]
    },
    "properties": {
      "id": "3935",
      "name": "豐原",
      "seq": 92
    }
  }
]
