<?xml version="1.0" encoding="UTF-8" standalone="yes"?>
<BusDynInfo><EssentialInfo><Location><name>TCBUS</name><CenterName>Maxwin</CenterName></Location><UpdateTime>2014-12-20 07:54:18</UpdateTime><CoordinateSystem/></EssentialInfo>
<BusInfo><Stop Id="5471" routeId="111" nameZh="清水火車站" seqNo="1" pgp="0" terminal="0" districtId="1" GoBack="1" latitude="24.26341" longitude="120.57005" inDis="50" outDis="50" oid="314200099" /><Stop Id="0314" routeId="111" nameZh="清水高中(中山路)" seqNo="2" pgp="0" terminal="0" districtId="1" GoBack="1" latitude="24.26615" longitude="120.57421" inDis="50" outDis="50" oid="14243" /><Stop Id="5568" routeId="111" nameZh="清水高中(學園街)" seqNo="3" pgp="0" terminal="0" districtId="1" GoBack="1" latitude="24.26615" longitude="120.57492" inDis="50" outDis="50" oid="318546054" /><Stop Id="0296" routeId="111" nameZh="牛罵頭遺址" seqNo="4" pgp="0" terminal="0" districtId="1" GoBack="1" latitude="24.26804" longitude="120.58021" inDis="50" outDis="50" oid="318517261" /><Stop Id="0297" routeId="111" nameZh="鰲峰山公園" seqNo="5" pgp="0" terminal="0" districtId="1" GoBack="1" latitude="24.26888" longitude="120.58162" inDis="50" outDis="50" oid="318517257" /><Stop Id="0298" routeId="111" nameZh="清水鬼洞" seqNo="6" pgp="0" terminal="0" districtId="1" GoBack="1" latitude="24.272" longitude="120.58161" inDis="50" outDis="50" oid="318517259" /><Stop Id="0297" routeId="111" nameZh="鰲峰山公園" seqNo="7" pgp="0" terminal="0" districtId="1" GoBack="1" latitude="24.26911" longitude="120.58184" inDis="50" outDis="50" oid="318517260" /><Stop Id="0296" routeId="111" nameZh="牛罵頭遺址" seqNo="8" pgp="0" terminal="0" districtId="1" GoBack="1" latitude="24.26815" longitude="120.58026" inDis="50" outDis="50" oid="318517256" /><Stop Id="5568" routeId="111" nameZh="清水高中(學園街)" seqNo="9" pgp="0" terminal="0" districtId="1" GoBack="1" latitude="24.26615" longitude="120.57492" inDis="50" outDis="50" oid="316572735" /><Stop Id="5141" routeId="111" nameZh="華南銀行(清水分行)" seqNo="10" pgp="0" terminal="0" districtId="1" GoBack="1" latitude="24.2679" longitude="120.57506" inDis="50" outDis="50" oid="10590" /><Stop Id="1615" routeId="111" nameZh="分局前" seqNo="11" pgp="0" terminal="0" districtId="1" GoBack="1" latitude="24.26922" longitude="120.57503" inDis="50" outDis="50" oid="5423" /><Stop Id="5655" routeId="111" nameZh="鰲峰西社路口" seqNo="12" pgp="0" terminal="0" districtId="1" GoBack="1" latitude="24.26923" longitude="120.57004" inDis="50" outDis="50" oid="317714376" /><Stop Id="2486" routeId="111" nameZh="社口" seqNo="13" pgp="0" terminal="0" districtId="1" GoBack="1" latitude="24.26845" longitude="120.56832" inDis="50" outDis="50" oid="5940" /><Stop Id="3700" routeId="111" nameZh="銀聯二村" seqNo="14" pgp="0" terminal="0" districtId="1" GoBack="1" latitude="24.26832" longitude="120.56469" inDis="50" outDis="50" oid="10898" /><Stop Id="3017" routeId="111" nameZh="清水國中" seqNo="15" pgp="0" terminal="0" districtId="1" GoBack="1" latitude="24.26801" longitude="120.56356" inDis="50" outDis="50" oid="10847" /><Stop Id="5720" routeId="111" nameZh="清水第二市場" seqNo="16" pgp="0" terminal="0" districtId="1" GoBack="1" latitude="24.2681" longitude="120.56073" inDis="50" outDis="50" oid="320604380" /><Stop Id="4904" routeId="111" nameZh="港區藝術中心" seqNo="17" pgp="0" terminal="0" districtId="1" GoBack="1" latitude="24.2698" longitude="120.55958" inDis="50" outDis="50" oid="15814" /><Stop Id="4891" routeId="111" nameZh="秀水里" seqNo="18" pgp="0" terminal="0" districtId="1" GoBack="1" latitude="24.27207" longitude="120.55687" inDis="50" outDis="50" oid="318517255" /><Stop Id="5767" routeId="111" nameZh="首園" seqNo="19" pgp="0" terminal="0" districtId="1" GoBack="1" latitude="24.27298" longitude="120.55443" inDis="50" outDis="50" oid="318517254" /><Stop Id="5719" routeId="111" nameZh="武鹿里" seqNo="20" pgp="0" terminal="0" districtId="1" GoBack="1" latitude="24.27403" longitude="120.55141" inDis="50" outDis="50" oid="320604383" /><Stop Id="0300" routeId="111" nameZh="甲桂林社區" seqNo="21" pgp="0" terminal="0" districtId="1" GoBack="1" latitude="24.27477" longitude="120.54947" inDis="50" outDis="50" oid="318517253" /><Stop Id="0301" routeId="111" nameZh="港埠中清路口" seqNo="22" pgp="0" terminal="0" districtId="1" GoBack="1" latitude="24.27927" longitude="120.54869" inDis="50" outDis="50" oid="318517252" /><Stop Id="0302" routeId="111" nameZh="港埠五權路口" seqNo="23" pgp="0" terminal="0" districtId="1" GoBack="1" latitude="24.28189" longitude="120.54931" inDis="50" outDis="50" oid="318517251" /><Stop Id="0303" routeId="111" nameZh="港埠海濱路口" seqNo="24" pgp="0" terminal="0" districtId="1" GoBack="1" latitude="24.28493" longitude="120.55005" inDis="50" outDis="50" oid="318517250" /><Stop Id="0304" routeId="111" nameZh="港埠臨海路口" seqNo="25" pgp="0" terminal="0" districtId="1" GoBack="1" latitude="24.29235" longitude="120.55188" inDis="50" outDis="50" oid="318517248" /><Stop Id="0306" routeId="111" nameZh="長明公司" seqNo="26" pgp="0" terminal="0" districtId="1" GoBack="1" latitude="24.29666" longitude="120.55224" inDis="50" outDis="50" oid="318517247" /><Stop Id="5760" routeId="111" nameZh="高美濕地遊客中心" seqNo="27" pgp="0" terminal="0" districtId="1" GoBack="1" latitude="24.29965" longitude="120.54647" inDis="50" outDis="50" oid="318517246" /><Stop Id="0308" routeId="111" nameZh="18號風車" seqNo="28" pgp="0" terminal="0" districtId="1" GoBack="1" latitude="24.30382" longitude="120.5447" inDis="50" outDis="50" oid="318517245" /><Stop Id="0309" routeId="111" nameZh="9號風車" seqNo="29" pgp="0" terminal="0" districtId="1" GoBack="1" latitude="24.31245" longitude="120.52956" inDis="50" outDis="50" oid="318517244" /><Stop Id="4394" routeId="111" nameZh="梧棲觀光漁港" seqNo="30" pgp="0" terminal="0" districtId="1" GoBack="1" latitude="24.2923" longitude="120.52527" inDis="50" outDis="50" oid="13525" /><Stop Id="4394" routeId="111" nameZh="梧棲觀光漁港" seqNo="1" pgp="0" terminal="0" districtId="1" GoBack="2" latitude="24.2923" longitude="120.52527" inDis="50" outDis="50" oid="13525" /><Stop Id="0309" routeId="111" nameZh="9號風車" seqNo="2" pgp="0" terminal="0" districtId="1" GoBack="2" latitude="24.31129" longitude="120.52684" inDis="50" outDis="50" oid="318517272" /><Stop Id="0308" routeId="111" nameZh="18號風車" seqNo="3" pgp="0" terminal="0" districtId="1" GoBack="2" latitude="24.30372" longitude="120.54456" inDis="50" outDis="50" oid="318517271" /><Stop Id="5760" routeId="111" nameZh="高美濕地遊客中心" seqNo="4" pgp="0" terminal="0" districtId="1" GoBack="2" latitude="24.29961" longitude="120.54646" inDis="50" outDis="50" oid="318517270" /><Stop Id="0306" routeId="111" nameZh="長明公司" seqNo="5" pgp="0" terminal="0" districtId="1" GoBack="2" latitude="24.29651" longitude="120.55237" inDis="50" outDis="50" oid="318517269" /><Stop Id="0304" routeId="111" nameZh="港埠臨海路口" seqNo="6" pgp="0" terminal="0" districtId="1" GoBack="2" latitude="24.29261" longitude="120.55165" inDis="50" outDis="50" oid="318517268" /><Stop Id="0303" routeId="111" nameZh="港埠海濱路口" seqNo="7" pgp="0" terminal="0" districtId="1" GoBack="2" latitude="24.28558" longitude="120.54987" inDis="50" outDis="50" oid="318517267" /><Stop Id="0302" routeId="111" nameZh="港埠五權路口" seqNo="8" pgp="0" terminal="0" districtId="1" GoBack="2" latitude="24.28194" longitude="120.54897" inDis="50" outDis="50" oid="318517266" /><Stop Id="0301" routeId="111" nameZh="港埠中清路口" seqNo="9" pgp="0" terminal="0" districtId="1" GoBack="2" latitude="24.27907" longitude="120.54827" inDis="50" outDis="50" oid="318517265" /><Stop Id="0300" routeId="111" nameZh="甲桂林社區" seqNo="10" pgp="0" terminal="0" districtId="1" GoBack="2" latitude="24.27469" longitude="120.5493" inDis="50" outDis="50" oid="318517264" /><Stop Id="5719" routeId="111" nameZh="武鹿里" seqNo="11" pgp="0" terminal="0" districtId="1" GoBack="2" latitude="24.27393" longitude="120.5514" inDis="50" outDis="50" oid="320604382" /><Stop Id="0299" routeId="111" nameZh="首園" seqNo="12" pgp="0" terminal="0" districtId="1" GoBack="2" latitude="24.27293" longitude="120.55441" inDis="50" outDis="50" oid="318517263" /><Stop Id="4891" routeId="111" nameZh="秀水里" seqNo="13" pgp="0" terminal="0" districtId="1" GoBack="2" latitude="24.27207" longitude="120.55687" inDis="50" outDis="50" oid="318517255" /><Stop Id="4904" routeId="111" nameZh="港區藝術中心" seqNo="14" pgp="0" terminal="0" districtId="1" GoBack="2" latitude="24.2698" longitude="120.55958" inDis="50" outDis="50" oid="15814" /><Stop Id="5720" routeId="111" nameZh="清水第二市場" seqNo="15" pgp="0" terminal="0" districtId="1" GoBack="2" latitude="24.26786" longitude="120.56079" inDis="50" outDis="50" oid="320604381" /><Stop Id="3017" routeId="111" nameZh="清水國中" seqNo="16" pgp="0" terminal="0" districtId="1" GoBack="2" latitude="24.26778" longitude="120.56271" inDis="50" outDis="50" oid="14875" /><Stop Id="3700" routeId="111" nameZh="銀聯二村" seqNo="17" pgp="0" terminal="0" districtId="1" GoBack="2" latitude="24.26832" longitude="120.5648" inDis="50" outDis="50" oid="14947" /><Stop Id="2486" routeId="111" nameZh="社口" seqNo="18" pgp="0" terminal="0" districtId="1" GoBack="2" latitude="24.26845" longitude="120.56825" inDis="50" outDis="50" oid="14946" /><Stop Id="5655" routeId="111" nameZh="鰲峰西社路口" seqNo="19" pgp="0" terminal="0" districtId="1" GoBack="2" latitude="24.26923" longitude="120.57004" inDis="50" outDis="50" oid="317714376" /><Stop Id="1615" routeId="111" nameZh="分局前" seqNo="20" pgp="0" terminal="0" districtId="1" GoBack="2" latitude="24.26919" longitude="120.57531" inDis="50" outDis="50" oid="14944" /><Stop Id="5141" routeId="111" nameZh="華南銀行(清水分行)" seqNo="21" pgp="0" terminal="0" districtId="1" GoBack="2" latitude="24.2683" longitude="120.57516" inDis="50" outDis="50" oid="14057" /><Stop Id="5568" routeId="111" nameZh="清水高中(學園街)" seqNo="22" pgp="0" terminal="0" districtId="1" GoBack="2" latitude="24.26615" longitude="120.57492" inDis="50" outDis="50" oid="316572735" /><Stop Id="0296" routeId="111" nameZh="牛罵頭遺址" seqNo="23" pgp="0" terminal="0" districtId="1" GoBack="2" latitude="24.26804" longitude="120.58021" inDis="50" outDis="50" oid="318517261" /><Stop Id="0297" routeId="111" nameZh="鰲峰山公園" seqNo="24" pgp="0" terminal="0" districtId="1" GoBack="2" latitude="24.26888" longitude="120.58162" inDis="50" outDis="50" oid="318517257" /><Stop Id="0298" routeId="111" nameZh="清水鬼洞" seqNo="25" pgp="0" terminal="0" districtId="1" GoBack="2" latitude="24.272" longitude="120.58161" inDis="50" outDis="50" oid="318517259" /><Stop Id="0297" routeId="111" nameZh="鰲峰山公園" seqNo="26" pgp="0" terminal="0" districtId="1" GoBack="2" latitude="24.26911" longitude="120.58184" inDis="50" outDis="50" oid="318517260" /><Stop Id="0296" routeId="111" nameZh="牛罵頭遺址" seqNo="27" pgp="0" terminal="0" districtId="1" GoBack="2" latitude="24.26815" longitude="120.58026" inDis="50" outDis="50" oid="318517256" /><Stop Id="5568" routeId="111" nameZh="清水高中(學園街)" seqNo="28" pgp="0" terminal="0" districtId="1" GoBack="2" latitude="24.26615" longitude="120.57492" inDis="50" outDis="50" oid="318546054" /><Stop Id="0314" routeId="111" nameZh="清水高中(中山路)" seqNo="29" pgp="0" terminal="0" districtId="1" GoBack="2" latitude="24.2658" longitude="120.5742" inDis="50" outDis="50" oid="15186" /><Stop Id="5471" routeId="111" nameZh="清水火車站" seqNo="30" pgp="0" terminal="0" districtId="1" GoBack="2" latitude="24.26341" longitude="120.57005" inDis="50" outDis="50" oid="314200099" /></BusInfo></BusDynInfo>