<?xml version="1.0" encoding="UTF-8" standalone="yes"?>
<BusDynInfo><EssentialInfo><Location><name>TCBUS</name><CenterName>Maxwin</CenterName></Location><UpdateTime>2014-12-20 08:03:45</UpdateTime><CoordinateSystem/></EssentialInfo>
<BusInfo><Stop Id="3017" routeId="164" nameZh="清水國中" seqNo="1" pgp="0" terminal="0" districtId="1" GoBack="1" latitude="24.26778" longitude="120.56252" inDis="50" outDis="50" oid="2000" /><Stop Id="4137" routeId="164" nameZh="嘉陽高中" seqNo="2" pgp="0" terminal="0" districtId="1" GoBack="1" latitude="24.2659" longitude="120.58249" inDis="50" outDis="50" oid="2001" /><Stop Id="4083" routeId="164" nameZh="公館國小" seqNo="3" pgp="0" terminal="0" districtId="1" GoBack="1" latitude="24.26088" longitude="120.59534" inDis="50" outDis="50" oid="2002" /><Stop Id="4101" routeId="164" nameZh="西勢里" seqNo="4" pgp="0" terminal="0" districtId="1" GoBack="1" latitude="24.25996" longitude="120.59853" inDis="50" outDis="50" oid="2033" /><Stop Id="4790" routeId="164" nameZh="友仁公司" seqNo="6" pgp="0" terminal="0" districtId="1" GoBack="1" latitude="24.25929" longitude="120.60197" inDis="50" outDis="50" oid="2004" /><Stop Id="3295" routeId="164" nameZh="澔明公司" seqNo="7" pgp="0" terminal="0" districtId="1" GoBack="1" latitude="24.26222" longitude="120.60407" inDis="50" outDis="50" oid="2005" /><Stop Id="2223" routeId="164" nameZh="吳厝里" seqNo="8" pgp="0" terminal="0" districtId="1" GoBack="1" latitude="24.2666" longitude="120.60642" inDis="50" outDis="50" oid="2006" /><Stop Id="3434" routeId="164" nameZh="新興社區" seqNo="9" pgp="0" terminal="0" districtId="1" GoBack="1" latitude="24.2694" longitude="120.60777" inDis="50" outDis="50" oid="2007" /><Stop Id="3119" routeId="164" nameZh="頂吳厝里" seqNo="10" pgp="0" terminal="0" districtId="1" GoBack="1" latitude="24.27625" longitude="120.6111" inDis="50" outDis="50" oid="2008" /><Stop Id="3071" routeId="164" nameZh="許厝里" seqNo="11" pgp="0" terminal="0" districtId="1" GoBack="1" latitude="24.27944" longitude="120.61287" inDis="50" outDis="50" oid="2009" /><Stop Id="1203" routeId="164" nameZh="下楊厝里" seqNo="12" pgp="0" terminal="0" districtId="1" GoBack="1" latitude="24.28542" longitude="120.61334" inDis="50" outDis="50" oid="2010" /><Stop Id="3448" routeId="164" nameZh="楊厝里" seqNo="13" pgp="0" terminal="0" districtId="1" GoBack="1" latitude="24.28931" longitude="120.61558" inDis="50" outDis="50" oid="2011" /><Stop Id="4781" routeId="164" nameZh="三元宮" seqNo="14" pgp="0" terminal="0" districtId="1" GoBack="1" latitude="24.29099" longitude="120.61354" inDis="50" outDis="50" oid="2012" /><Stop Id="3448" routeId="164" nameZh="楊厝里" seqNo="1" pgp="0" terminal="0" districtId="1" GoBack="2" latitude="24.28928" longitude="120.61588" inDis="50" outDis="50" oid="2018" /><Stop Id="1203" routeId="164" nameZh="下楊厝里" seqNo="2" pgp="0" terminal="0" districtId="1" GoBack="2" latitude="24.28537" longitude="120.61336" inDis="50" outDis="50" oid="2019" /><Stop Id="3071" routeId="164" nameZh="許厝里" seqNo="3" pgp="0" terminal="0" districtId="1" GoBack="2" latitude="24.27969" longitude="120.61307" inDis="50" outDis="50" oid="2020" /><Stop Id="3119" routeId="164" nameZh="頂吳厝里" seqNo="4" pgp="0" terminal="0" districtId="1" GoBack="2" latitude="24.27619" longitude="120.61122" inDis="50" outDis="50" oid="2021" /><Stop Id="3434" routeId="164" nameZh="新興社區" seqNo="5" pgp="0" terminal="0" districtId="1" GoBack="2" latitude="24.26899" longitude="120.60756" inDis="50" outDis="50" oid="2022" /><Stop Id="2223" routeId="164" nameZh="吳厝里" seqNo="6" pgp="0" terminal="0" districtId="1" GoBack="2" latitude="24.26658" longitude="120.60629" inDis="50" outDis="50" oid="2023" /><Stop Id="3295" routeId="164" nameZh="澔明公司" seqNo="7" pgp="0" terminal="0" districtId="1" GoBack="2" latitude="24.26231" longitude="120.60411" inDis="50" outDis="50" oid="2024" /><Stop Id="4790" routeId="164" nameZh="友仁公司" seqNo="8" pgp="0" terminal="0" districtId="1" GoBack="2" latitude="24.25926" longitude="120.602" inDis="50" outDis="50" oid="2025" /><Stop Id="4101" routeId="164" nameZh="西勢里" seqNo="10" pgp="0" terminal="0" districtId="1" GoBack="2" latitude="24.25989" longitude="120.59843" inDis="50" outDis="50" oid="2060" /><Stop Id="4083" routeId="164" nameZh="公館國小" seqNo="11" pgp="0" terminal="0" districtId="1" GoBack="2" latitude="24.2609" longitude="120.59535" inDis="50" outDis="50" oid="2027" /><Stop Id="4137" routeId="164" nameZh="嘉陽高中" seqNo="12" pgp="0" terminal="0" districtId="1" GoBack="2" latitude="24.26616" longitude="120.58273" inDis="50" outDis="50" oid="2028" /><Stop Id="3017" routeId="164" nameZh="清水國中" seqNo="13" pgp="0" terminal="0" districtId="1" GoBack="2" latitude="24.26786" longitude="120.56293" inDis="50" outDis="50" oid="2029" /></BusInfo></BusDynInfo>