<?xml version="1.0" encoding="UTF-8" standalone="yes"?>
<BusDynInfo><EssentialInfo><Location><name>TCBUS</name><CenterName>Maxwin</CenterName></Location><UpdateTime>2014-12-20 08:22:19</UpdateTime><CoordinateSystem/></EssentialInfo>
<BusInfo><Stop Id="0051" routeId="235" nameZh="豐原(北)" seqNo="1" pgp="0" terminal="0" districtId="1" GoBack="1" latitude="24.2538" longitude="120.72154" inDis="70" outDis="70" oid="318039375" /><Stop Id="5632" routeId="235" nameZh="豐中大順街口" seqNo="2" pgp="0" terminal="0" districtId="1" GoBack="1" latitude="24.25757" longitude="120.7216" inDis="50" outDis="50" oid="317638566" /><Stop Id="4493" routeId="235" nameZh="新惠生醫院" seqNo="3" pgp="0" terminal="0" districtId="1" GoBack="1" latitude="24.25808" longitude="120.71947" inDis="50" outDis="50" oid="13860" /><Stop Id="4439" routeId="235" nameZh="大湳里活動中心" seqNo="4" pgp="0" terminal="0" districtId="1" GoBack="1" latitude="24.25671" longitude="120.71692" inDis="50" outDis="50" oid="13843" /><Stop Id="4473" routeId="235" nameZh="圓環北中山路口" seqNo="5" pgp="0" terminal="0" districtId="1" GoBack="1" latitude="24.25583" longitude="120.71299" inDis="50" outDis="50" oid="13846" /><Stop Id="4475" routeId="235" nameZh="圓環西成功路口" seqNo="6" pgp="0" terminal="0" districtId="1" GoBack="1" latitude="24.25512" longitude="120.71098" inDis="50" outDis="50" oid="13848" /><Stop Id="5585" routeId="235" nameZh="成功圓環西路口" seqNo="7" pgp="0" terminal="0" districtId="1" GoBack="1" latitude="24.25497" longitude="120.70905" inDis="50" outDis="50" oid="129901841" /><Stop Id="5584" routeId="235" nameZh="豐原果菜市場" seqNo="8" pgp="0" terminal="0" districtId="1" GoBack="1" latitude="24.25301" longitude="120.70567" inDis="50" outDis="50" oid="129901839" /><Stop Id="1065" routeId="235" nameZh="三光新村" seqNo="9" pgp="0" terminal="0" districtId="1" GoBack="1" latitude="24.24999" longitude="120.70672" inDis="50" outDis="50" oid="5072" /><Stop Id="4486" routeId="235" nameZh="圓環南中正路口" seqNo="10" pgp="0" terminal="0" districtId="1" GoBack="1" latitude="24.24999" longitude="120.70919" inDis="50" outDis="50" oid="13858" /><Stop Id="4487" routeId="235" nameZh="圓環南永安街口" seqNo="11" pgp="0" terminal="0" districtId="1" GoBack="1" latitude="24.24765" longitude="120.71011" inDis="50" outDis="50" oid="13859" /><Stop Id="5602" routeId="235" nameZh="圓環南中興路口" seqNo="12" pgp="0" terminal="0" districtId="1" GoBack="1" latitude="24.24597" longitude="120.71168" inDis="50" outDis="50" oid="13861" /><Stop Id="4485" routeId="235" nameZh="圓環南中山路口" seqNo="13" pgp="0" terminal="0" districtId="1" GoBack="1" latitude="24.24498" longitude="120.71415" inDis="50" outDis="50" oid="13857" /><Stop Id="4483" routeId="235" nameZh="圓環東自強南街口" seqNo="14" pgp="0" terminal="0" districtId="1" GoBack="1" latitude="24.24392" longitude="120.71716" inDis="50" outDis="50" oid="13855" /><Stop Id="4479" routeId="235" nameZh="圓環東田心路口" seqNo="15" pgp="0" terminal="0" districtId="1" GoBack="1" latitude="24.24335" longitude="120.71926" inDis="50" outDis="50" oid="13851" /><Stop Id="5040" routeId="235" nameZh="圓環東保康路口" seqNo="16" pgp="0" terminal="0" districtId="1" GoBack="1" latitude="24.24361" longitude="120.72169" inDis="50" outDis="50" oid="309850683" /><Stop Id="4482" routeId="235" nameZh="圓環東安康路口" seqNo="17" pgp="0" terminal="0" districtId="1" GoBack="1" latitude="24.24482" longitude="120.7238" inDis="50" outDis="50" oid="13854" /><Stop Id="4484" routeId="235" nameZh="圓環東南陽路口" seqNo="18" pgp="0" terminal="0" districtId="1" GoBack="1" latitude="24.246" longitude="120.72562" inDis="50" outDis="50" oid="13856" /><Stop Id="4480" routeId="235" nameZh="圓環東同安街口" seqNo="19" pgp="0" terminal="0" districtId="1" GoBack="1" latitude="24.24764" longitude="120.72677" inDis="50" outDis="50" oid="13852" /><Stop Id="4481" routeId="235" nameZh="圓環東向陽路口" seqNo="20" pgp="0" terminal="0" districtId="1" GoBack="1" latitude="24.25077" longitude="120.72855" inDis="50" outDis="50" oid="13853" /><Stop Id="5544" routeId="235" nameZh="葫蘆墩文化中心" seqNo="21" pgp="0" terminal="0" districtId="1" GoBack="1" latitude="24.25308" longitude="120.72991" inDis="50" outDis="50" oid="316462695" /><Stop Id="4478" routeId="235" nameZh="圓環東水源路口" seqNo="22" pgp="0" terminal="0" districtId="1" GoBack="1" latitude="24.25577" longitude="120.72975" inDis="50" outDis="50" oid="13802" /><Stop Id="4474" routeId="235" nameZh="圓環北角潭路口" seqNo="23" pgp="0" terminal="0" districtId="1" GoBack="1" latitude="24.25995" longitude="120.7262" inDis="50" outDis="50" oid="13847" /><Stop Id="4472" routeId="235" nameZh="圓環北大順街口" seqNo="24" pgp="0" terminal="0" districtId="1" GoBack="1" latitude="24.2607" longitude="120.72385" inDis="50" outDis="50" oid="13845" /><Stop Id="4451" routeId="235" nameZh="北環福德祠" seqNo="25" pgp="0" terminal="0" districtId="1" GoBack="1" latitude="24.25953" longitude="120.72096" inDis="50" outDis="50" oid="13844" /><Stop Id="4912" routeId="235" nameZh="豐原(南)" seqNo="26" pgp="0" terminal="0" districtId="1" GoBack="1" latitude="24.25381" longitude="120.72155" inDis="50" outDis="50" oid="307461463" /><Stop Id="4912" routeId="235" nameZh="豐原(南)" seqNo="1" pgp="0" terminal="0" districtId="1" GoBack="2" latitude="24.2538" longitude="120.72154" inDis="70" outDis="70" oid="307500848" /><Stop Id="5632" routeId="235" nameZh="豐中大順街口" seqNo="2" pgp="0" terminal="0" districtId="1" GoBack="2" latitude="24.25766" longitude="120.72158" inDis="50" outDis="50" oid="D879241FDACA4623BB99AF053F6889DA" /><Stop Id="4451" routeId="235" nameZh="北環福德祠" seqNo="3" pgp="0" terminal="0" districtId="1" GoBack="2" latitude="24.25953" longitude="120.72096" inDis="50" outDis="50" oid="13844" /><Stop Id="4472" routeId="235" nameZh="圓環北大順街口" seqNo="4" pgp="0" terminal="0" districtId="1" GoBack="2" latitude="24.2607" longitude="120.72385" inDis="50" outDis="50" oid="13845" /><Stop Id="4474" routeId="235" nameZh="圓環北角潭路口" seqNo="5" pgp="0" terminal="0" districtId="1" GoBack="2" latitude="24.25995" longitude="120.7262" inDis="50" outDis="50" oid="13847" /><Stop Id="4478" routeId="235" nameZh="圓環東水源路口" seqNo="6" pgp="0" terminal="0" districtId="1" GoBack="2" latitude="24.25577" longitude="120.72975" inDis="50" outDis="50" oid="13802" /><Stop Id="5544" routeId="235" nameZh="葫蘆墩文化中心" seqNo="7" pgp="0" terminal="0" districtId="1" GoBack="2" latitude="24.25308" longitude="120.72991" inDis="50" outDis="50" oid="316462695" /><Stop Id="4481" routeId="235" nameZh="圓環東向陽路口" seqNo="8" pgp="0" terminal="0" districtId="1" GoBack="2" latitude="24.25077" longitude="120.72855" inDis="50" outDis="50" oid="13853" /><Stop Id="4480" routeId="235" nameZh="圓環東同安街口" seqNo="9" pgp="0" terminal="0" districtId="1" GoBack="2" latitude="24.24764" longitude="120.72677" inDis="50" outDis="50" oid="13852" /><Stop Id="4484" routeId="235" nameZh="圓環東南陽路口" seqNo="10" pgp="0" terminal="0" districtId="1" GoBack="2" latitude="24.246" longitude="120.72562" inDis="50" outDis="50" oid="13856" /><Stop Id="4482" routeId="235" nameZh="圓環東安康路口" seqNo="11" pgp="0" terminal="0" districtId="1" GoBack="2" latitude="24.24482" longitude="120.7238" inDis="50" outDis="50" oid="13854" /><Stop Id="5040" routeId="235" nameZh="圓環東保康路口" seqNo="12" pgp="0" terminal="0" districtId="1" GoBack="2" latitude="24.24361" longitude="120.72169" inDis="50" outDis="50" oid="309850683" /><Stop Id="4479" routeId="235" nameZh="圓環東田心路口" seqNo="13" pgp="0" terminal="0" districtId="1" GoBack="2" latitude="24.24335" longitude="120.71926" inDis="50" outDis="50" oid="13851" /><Stop Id="4483" routeId="235" nameZh="圓環東自強南街口" seqNo="14" pgp="0" terminal="0" districtId="1" GoBack="2" latitude="24.24392" longitude="120.71716" inDis="50" outDis="50" oid="13855" /><Stop Id="4485" routeId="235" nameZh="圓環南中山路口" seqNo="15" pgp="0" terminal="0" districtId="1" GoBack="2" latitude="24.24498" longitude="120.71415" inDis="50" outDis="50" oid="13857" /><Stop Id="5602" routeId="235" nameZh="圓環南中興路口" seqNo="16" pgp="0" terminal="0" districtId="1" GoBack="2" latitude="24.24597" longitude="120.71168" inDis="50" outDis="50" oid="13861" /><Stop Id="4487" routeId="235" nameZh="圓環南永安街口" seqNo="17" pgp="0" terminal="0" districtId="1" GoBack="2" latitude="24.24765" longitude="120.71011" inDis="50" outDis="50" oid="13859" /><Stop Id="4486" routeId="235" nameZh="圓環南中正路口" seqNo="18" pgp="0" terminal="0" districtId="1" GoBack="2" latitude="24.24999" longitude="120.70919" inDis="50" outDis="50" oid="13858" /><Stop Id="1065" routeId="235" nameZh="三光新村" seqNo="19" pgp="0" terminal="0" districtId="1" GoBack="2" latitude="24.24999" longitude="120.70672" inDis="50" outDis="50" oid="5072" /><Stop Id="5584" routeId="235" nameZh="豐原果菜市場" seqNo="20" pgp="0" terminal="0" districtId="1" GoBack="2" latitude="24.25301" longitude="120.70567" inDis="50" outDis="50" oid="129901839" /><Stop Id="5585" routeId="235" nameZh="成功圓環西路口" seqNo="21" pgp="0" terminal="0" districtId="1" GoBack="2" latitude="24.25497" longitude="120.70905" inDis="50" outDis="50" oid="129901841" /><Stop Id="4475" routeId="235" nameZh="圓環西成功路口" seqNo="22" pgp="0" terminal="0" districtId="1" GoBack="2" latitude="24.25512" longitude="120.71098" inDis="50" outDis="50" oid="13848" /><Stop Id="4473" routeId="235" nameZh="圓環北中山路口" seqNo="23" pgp="0" terminal="0" districtId="1" GoBack="2" latitude="24.25583" longitude="120.71299" inDis="50" outDis="50" oid="13846" /><Stop Id="4439" routeId="235" nameZh="大湳里活動中心" seqNo="24" pgp="0" terminal="0" districtId="1" GoBack="2" latitude="24.25671" longitude="120.71692" inDis="50" outDis="50" oid="13843" /><Stop Id="4493" routeId="235" nameZh="新惠生醫院" seqNo="25" pgp="0" terminal="0" districtId="1" GoBack="2" latitude="24.25808" longitude="120.71947" inDis="50" outDis="50" oid="13860" /><Stop Id="5632" routeId="235" nameZh="豐中大順街口" seqNo="26" pgp="0" terminal="0" districtId="1" GoBack="2" latitude="24.25757" longitude="120.7216" inDis="50" outDis="50" oid="317638566" /><Stop Id="3935" routeId="235" nameZh="豐原" seqNo="27" pgp="0" terminal="0" districtId="1" GoBack="2" latitude="24.25379" longitude="120.72155" inDis="50" outDis="50" oid="307500849" /></BusInfo></BusDynInfo>