<?xml version="1.0" encoding="UTF-8" standalone="yes"?>
<BusDynInfo><EssentialInfo><Location><name>TCBUS</name><CenterName>Maxwin</CenterName></Location><UpdateTime>2014-12-20 07:33:41</UpdateTime><CoordinateSystem/></EssentialInfo>
<BusInfo><Stop Id="2161" routeId="49" nameZh="老虎城" seqNo="1" pgp="0" terminal="0" districtId="1" GoBack="1" latitude="24.16527" longitude="120.63921" inDis="50" outDis="50" oid="4C03451AA49A4FBEA3A63B800DA6535C" /><Stop Id="3059" routeId="49" nameZh="朝馬轉運站(朝富路)" seqNo="3" pgp="0" terminal="0" districtId="1" GoBack="1" latitude="24.16743" longitude="120.63806" inDis="50" outDis="50" oid="79A938593E784303A0C01B7F06874293" /><Stop Id="4642" routeId="49" nameZh="朝馬黎明路口" seqNo="4" pgp="0" terminal="0" districtId="1" GoBack="1" latitude="24.16952" longitude="120.6353" inDis="50" outDis="50" oid="A4A41F83E5A5474D86125F3D12593B71" /><Stop Id="4648" routeId="49" nameZh="朝馬環中路口" seqNo="5" pgp="0" terminal="0" districtId="1" GoBack="1" latitude="24.17008" longitude="120.63312" inDis="50" outDis="50" oid="FEBAA532442846889FA0DB15758845C7" /><Stop Id="5106" routeId="49" nameZh="安和朝馬路口" seqNo="7" pgp="0" terminal="0" districtId="1" GoBack="1" latitude="24.17466" longitude="120.62252" inDis="50" outDis="50" oid="CFF2B1C135AB4FC8A4DB332DCEB1C42D" /><Stop Id="0285" routeId="49" nameZh="安和福玄路口" seqNo="8" pgp="0" terminal="0" districtId="1" GoBack="1" latitude="24.1767" longitude="120.62353" inDis="50" outDis="50" oid="319311016" /><Stop Id="5149" routeId="49" nameZh="福安里(臺灣大道)" seqNo="9" pgp="0" terminal="0" districtId="1" GoBack="1" latitude="24.17849" longitude="120.62485" inDis="50" outDis="50" oid="12822" /><Stop Id="3060" routeId="49" nameZh="統聯轉運站" seqNo="10" pgp="0" terminal="0" districtId="1" GoBack="1" latitude="24.18027" longitude="120.62115" inDis="50" outDis="50" oid="5895E8E9A1724775B8C9B2DAAE89E467" /><Stop Id="0008" routeId="49" nameZh="中港新城" seqNo="11" pgp="0" terminal="0" districtId="1" GoBack="1" latitude="24.18096" longitude="120.61973" inDis="50" outDis="50" oid="BE81766516684826A52A06D04BA5DB15" /><Stop Id="0430" routeId="49" nameZh="中港澄清醫院" seqNo="12" pgp="0" terminal="0" districtId="1" GoBack="1" latitude="24.18287" longitude="120.61599" inDis="50" outDis="50" oid="E6CD05B258B7439F8899AB1D01C0620E" /><Stop Id="0507" routeId="49" nameZh="臺中世貿中心" seqNo="13" pgp="0" terminal="0" districtId="1" GoBack="1" latitude="24.18002" longitude="120.61478" inDis="50" outDis="50" oid="408D89C31130404FB7ECE67BBA298BA6" /><Stop Id="0605" routeId="49" nameZh="安和國中" seqNo="14" pgp="0" terminal="0" districtId="1" GoBack="1" latitude="24.17538" longitude="120.61414" inDis="50" outDis="50" oid="970B36C0EEC64389B36E6FD9CFE5B425" /><Stop Id="5651" routeId="49" nameZh="發展署中彰投分署" seqNo="15" pgp="0" terminal="0" districtId="1" GoBack="1" latitude="24.17043" longitude="120.61029" inDis="50" outDis="50" oid="CD57AC6DDE414AD39D932A306D8A13AA" /><Stop Id="0396" routeId="49" nameZh="工業區服務中心" seqNo="16" pgp="0" terminal="0" districtId="1" GoBack="1" latitude="24.16944" longitude="120.60804" inDis="50" outDis="50" oid="1EAC59A7DB404E3F9CACCDDB5EBA5BF0" /><Stop Id="3898" routeId="49" nameZh="聯強國際" seqNo="17" pgp="0" terminal="0" districtId="1" GoBack="1" latitude="24.15967" longitude="120.6033" inDis="50" outDis="50" oid="EC9E532A018040EBB17EFDD0F897F9D8" /><Stop Id="0536" routeId="49" nameZh="臺灣油壓" seqNo="18" pgp="0" terminal="0" districtId="1" GoBack="1" latitude="24.17194" longitude="120.60507" inDis="50" outDis="50" oid="000F105067514A8F93B1CE3B3729CF4F" /><Stop Id="0872" routeId="49" nameZh="裕力公司" seqNo="19" pgp="0" terminal="0" districtId="1" GoBack="1" latitude="24.17499" longitude="120.60367" inDis="50" outDis="50" oid="774BD6A5291047CE8C5FE80F9D51E233" /><Stop Id="4021" routeId="49" nameZh="大新公司" seqNo="20" pgp="0" terminal="0" districtId="1" GoBack="1" latitude="24.17485" longitude="120.60164" inDis="50" outDis="50" oid="D9AC9B2B7685483194D172E82163FA36" /><Stop Id="0554" routeId="49" nameZh="弘達公司" seqNo="21" pgp="0" terminal="0" districtId="1" GoBack="1" latitude="24.17369" longitude="120.59914" inDis="50" outDis="50" oid="3F152FDE2DC74677AF246AF2258E785C" /><Stop Id="0391" routeId="49" nameZh="工業十四路口" seqNo="22" pgp="0" terminal="0" districtId="1" GoBack="1" latitude="24.17581" longitude="120.59461" inDis="50" outDis="50" oid="4FA64F59E57D449490E065473A7D54F1" /><Stop Id="0392" routeId="49" nameZh="工業十六路口" seqNo="23" pgp="0" terminal="0" districtId="1" GoBack="1" latitude="24.17968" longitude="120.59369" inDis="50" outDis="50" oid="80F3CF9C1BEA4ADCB52211A39E1EC349" /><Stop Id="2333" routeId="49" nameZh="尚銘公司" seqNo="24" pgp="0" terminal="0" districtId="1" GoBack="1" latitude="24.17686" longitude="120.59146" inDis="50" outDis="50" oid="2B988886060F4D5DA4CFC5765C2E0620" /><Stop Id="0425" routeId="49" nameZh="中國生產力公司" seqNo="25" pgp="0" terminal="1" districtId="1" GoBack="1" latitude="24.17546" longitude="120.58915" inDis="50" outDis="50" oid="4A774A58B5A14188B0F9DCE3CF7AEA92" /><Stop Id="0425" routeId="49" nameZh="中國生產力公司" seqNo="1" pgp="0" terminal="0" districtId="1" GoBack="2" latitude="24.17546" longitude="120.58915" inDis="50" outDis="50" oid="4A774A58B5A14188B0F9DCE3CF7AEA92" /><Stop Id="0594" routeId="49" nameZh="匠澤公司" seqNo="2" pgp="0" terminal="0" districtId="1" GoBack="2" latitude="24.17034" longitude="120.59086" inDis="50" outDis="50" oid="D3DEFDC5BF504AB794274E8314E302DF" /><Stop Id="5663" routeId="49" nameZh="臺中酒廠(工業二十八路)" seqNo="3" pgp="0" terminal="0" districtId="1" GoBack="2" latitude="24.16444" longitude="120.59782" inDis="50" outDis="50" oid="B74DA808FB864F0490677A6F78CA8701" /><Stop Id="0947" routeId="49" nameZh="環隆科技" seqNo="4" pgp="0" terminal="0" districtId="1" GoBack="2" latitude="24.16299" longitude="120.59988" inDis="50" outDis="50" oid="0B91C25F70DA43EB8347BA87684D26E5" /><Stop Id="5266" routeId="49" nameZh="臺灣薄膜" seqNo="5" pgp="0" terminal="0" districtId="1" GoBack="2" latitude="24.15995" longitude="120.60186" inDis="50" outDis="50" oid="8A991358FE3841198C4AFA9C1C0A0770" /><Stop Id="3898" routeId="49" nameZh="聯強國際" seqNo="6" pgp="0" terminal="0" districtId="1" GoBack="2" latitude="24.15967" longitude="120.6033" inDis="50" outDis="50" oid="EC9E532A018040EBB17EFDD0F897F9D8" /><Stop Id="5531" routeId="49" nameZh="五權西工業23路口" seqNo="7" pgp="0" terminal="0" districtId="1" GoBack="2" latitude="24.16138" longitude="120.60555" inDis="50" outDis="50" oid="F9D0C595D31C4AC7A815D20CAF17B3FC" /><Stop Id="0396" routeId="49" nameZh="工業區服務中心" seqNo="8" pgp="0" terminal="0" districtId="1" GoBack="2" latitude="24.16907" longitude="120.6085" inDis="50" outDis="50" oid="6FC150CFA58A42DD94B41BCE2D94F243" /><Stop Id="5651" routeId="49" nameZh="發展署中彰投分署" seqNo="9" pgp="0" terminal="0" districtId="1" GoBack="2" latitude="24.17031" longitude="120.61035" inDis="50" outDis="50" oid="75BE9A5D28D7414FA6E19A1B492F2F55" /><Stop Id="0605" routeId="49" nameZh="安和國中" seqNo="10" pgp="0" terminal="0" districtId="1" GoBack="2" latitude="24.17544" longitude="120.61416" inDis="50" outDis="50" oid="E7124CAAB0684F2EA3F2431EEF843306" /><Stop Id="0507" routeId="49" nameZh="臺中世貿中心" seqNo="11" pgp="0" terminal="0" districtId="1" GoBack="2" latitude="24.18016" longitude="120.61487" inDis="50" outDis="50" oid="85E56A14762C466599F7ECB233EEEF9B" /><Stop Id="0430" routeId="49" nameZh="中港澄清醫院" seqNo="12" pgp="0" terminal="0" districtId="1" GoBack="2" latitude="24.18271" longitude="120.61576" inDis="50" outDis="50" oid="E7BAE6A5CD024CC195C52481D0D83117" /><Stop Id="0008" routeId="49" nameZh="中港新城" seqNo="13" pgp="0" terminal="0" districtId="1" GoBack="2" latitude="24.18145" longitude="120.6183" inDis="50" outDis="50" oid="320062561" /><Stop Id="3060" routeId="49" nameZh="統聯轉運站" seqNo="14" pgp="0" terminal="0" districtId="1" GoBack="2" latitude="24.17983" longitude="120.62232" inDis="50" outDis="50" oid="04CD0ACF4D084074A490CB8D9F5C27B4" /><Stop Id="5149" routeId="49" nameZh="福安里(臺灣大道)" seqNo="15" pgp="0" terminal="0" districtId="1" GoBack="2" latitude="24.1787" longitude="120.62374" inDis="50" outDis="50" oid="319908747" /><Stop Id="0285" routeId="49" nameZh="安和福玄路口" seqNo="16" pgp="0" terminal="0" districtId="1" GoBack="2" latitude="24.1768" longitude="120.623" inDis="50" outDis="50" oid="319311017" /><Stop Id="5106" routeId="49" nameZh="安和朝馬路口" seqNo="17" pgp="0" terminal="0" districtId="1" GoBack="2" latitude="24.1748" longitude="120.62243" inDis="50" outDis="50" oid="F7DDB5F0EE6348F4B255E082575BC2F8" /><Stop Id="4648" routeId="49" nameZh="朝馬環中路口" seqNo="19" pgp="0" terminal="0" districtId="1" GoBack="2" latitude="24.17035" longitude="120.63201" inDis="50" outDis="50" oid="1326DE5530084B19A185FC4791E1E14E" /><Stop Id="4642" routeId="49" nameZh="朝馬黎明路口" seqNo="20" pgp="0" terminal="0" districtId="1" GoBack="2" latitude="24.16944" longitude="120.63523" inDis="50" outDis="50" oid="195251E612404519A2429D988EEE2375" /><Stop Id="3059" routeId="49" nameZh="朝馬轉運站(朝富路)" seqNo="21" pgp="0" terminal="0" districtId="1" GoBack="2" latitude="24.16725" longitude="120.63804" inDis="50" outDis="50" oid="30670191484F4700825D064225592A96" /><Stop Id="2161" routeId="49" nameZh="老虎城" seqNo="22" pgp="0" terminal="0" districtId="1" GoBack="2" latitude="24.16527" longitude="120.63921" inDis="50" outDis="50" oid="4C03451AA49A4FBEA3A63B800DA6535C" /></BusInfo></BusDynInfo>