<?xml version="1.0" encoding="UTF-8" standalone="yes"?>
<BusDynInfo><EssentialInfo><Location><name>TCBUS</name><CenterName>Maxwin</CenterName></Location><UpdateTime>2014-12-20 07:38:25</UpdateTime><CoordinateSystem/></EssentialInfo>
<BusInfo><Stop Id="4618" routeId="58區2" nameZh="明德高中(明德街)" seqNo="1" pgp="0" terminal="0" districtId="1" GoBack="1" latitude="24.12079" longitude="120.68407" inDis="50" outDis="50" oid="13310" /><Stop Id="0255" routeId="58區2" nameZh="南門仔" seqNo="2" pgp="0" terminal="0" districtId="1" GoBack="1" latitude="24.12529" longitude="120.68425" inDis="50" outDis="50" oid="12392" /><Stop Id="5607" routeId="58區2" nameZh="興大附農(臺中路)" seqNo="3" pgp="0" terminal="0" districtId="1" GoBack="1" latitude="24.1286" longitude="120.68488" inDis="50" outDis="50" oid="12355" /><Stop Id="0257" routeId="58區2" nameZh="臺中國小" seqNo="4" pgp="0" terminal="0" districtId="1" GoBack="1" latitude="24.13137" longitude="120.68459" inDis="50" outDis="50" oid="12356" /><Stop Id="0049" routeId="58區2" nameZh="第三市場(臺中家商)" seqNo="5" pgp="0" terminal="0" districtId="1" GoBack="1" latitude="24.13371" longitude="120.68341" inDis="50" outDis="50" oid="13317" /><Stop Id="1824" routeId="58區2" nameZh="臺中火車站" seqNo="6" pgp="0" terminal="0" districtId="1" GoBack="1" latitude="24.13734" longitude="120.6847" inDis="50" outDis="50" oid="13282" /><Stop Id="0402" routeId="58區2" nameZh="干城站" seqNo="7" pgp="0" terminal="0" districtId="1" GoBack="1" latitude="24.14082" longitude="120.6861" inDis="50" outDis="50" oid="12493" /><Stop Id="4544" routeId="58區2" nameZh="臺中公園(雙十路)" seqNo="8" pgp="0" terminal="0" districtId="1" GoBack="1" latitude="24.1441" longitude="120.68611" inDis="50" outDis="50" oid="13290" /><Stop Id="1513" routeId="58區2" nameZh="中興堂" seqNo="9" pgp="0" terminal="0" districtId="1" GoBack="1" latitude="24.14626" longitude="120.68448" inDis="50" outDis="50" oid="15989" /><Stop Id="0045" routeId="58區2" nameZh="國立臺中科技大學" seqNo="10" pgp="0" terminal="0" districtId="1" GoBack="1" latitude="24.14918" longitude="120.6838" inDis="50" outDis="50" oid="13292" /><Stop Id="0046" routeId="58區2" nameZh="中友百貨" seqNo="11" pgp="0" terminal="0" districtId="1" GoBack="1" latitude="24.15241" longitude="120.68516" inDis="50" outDis="50" oid="12314" /><Stop Id="0203" routeId="58區2" nameZh="市立殯儀館" seqNo="12" pgp="0" terminal="0" districtId="1" GoBack="1" latitude="24.15651" longitude="120.68538" inDis="50" outDis="50" oid="12359" /><Stop Id="4607" routeId="58區2" nameZh="新民高中(崇德路)" seqNo="13" pgp="0" terminal="0" districtId="1" GoBack="1" latitude="24.15953" longitude="120.68505" inDis="50" outDis="50" oid="13321" /><Stop Id="4576" routeId="58區2" nameZh="崇德德化街口" seqNo="14" pgp="0" terminal="0" districtId="1" GoBack="1" latitude="24.16169" longitude="120.68507" inDis="50" outDis="50" oid="12429" /><Stop Id="0098" routeId="58區2" nameZh="崇德橋" seqNo="15" pgp="0" terminal="0" districtId="1" GoBack="1" latitude="24.16474" longitude="120.68503" inDis="50" outDis="50" oid="12406" /><Stop Id="3511" routeId="58區2" nameZh="聖德禪寺" seqNo="16" pgp="0" terminal="0" districtId="1" GoBack="1" latitude="24.16818" longitude="120.68529" inDis="50" outDis="50" oid="13323" /><Stop Id="1768" routeId="58區2" nameZh="崇德北平路口" seqNo="17" pgp="0" terminal="0" districtId="1" GoBack="1" latitude="24.17052" longitude="120.68535" inDis="50" outDis="50" oid="12339" /><Stop Id="4339" routeId="58區2" nameZh="崇德文心路口" seqNo="18" pgp="0" terminal="0" districtId="1" GoBack="1" latitude="24.1717" longitude="120.68539" inDis="50" outDis="50" oid="301782125" /><Stop Id="0199" routeId="58區2" nameZh="崇德瀋陽路口" seqNo="19" pgp="0" terminal="0" districtId="1" GoBack="1" latitude="24.17308" longitude="120.6855" inDis="50" outDis="50" oid="12452" /><Stop Id="5131" routeId="58區2" nameZh="崇德國中(民俗公園)" seqNo="20" pgp="0" terminal="0" districtId="1" GoBack="1" latitude="24.17488" longitude="120.68571" inDis="50" outDis="50" oid="13301" /><Stop Id="0196" routeId="58區2" nameZh="崇德一路口" seqNo="21" pgp="0" terminal="0" districtId="1" GoBack="1" latitude="24.17686" longitude="120.68575" inDis="50" outDis="50" oid="12401" /><Stop Id="0195" routeId="58區2" nameZh="崇德五路口" seqNo="22" pgp="0" terminal="0" districtId="1" GoBack="1" latitude="24.17879" longitude="120.68588" inDis="50" outDis="50" oid="12404" /><Stop Id="0194" routeId="58區2" nameZh="北屯區行政大樓" seqNo="23" pgp="0" terminal="0" districtId="1" GoBack="1" latitude="24.18243" longitude="120.68619" inDis="50" outDis="50" oid="12338" /><Stop Id="1393" routeId="58區2" nameZh="崇德山西路口" seqNo="24" pgp="0" terminal="0" districtId="1" GoBack="1" latitude="24.18506" longitude="120.68618" inDis="50" outDis="50" oid="12310" /><Stop Id="2958" routeId="58區2" nameZh="崇德九路口" seqNo="25" pgp="0" terminal="0" districtId="1" GoBack="1" latitude="24.18759" longitude="120.68619" inDis="50" outDis="50" oid="B38650F6D9E54C1E841E05929BD8D9B2" /><Stop Id="2959" routeId="58區2" nameZh="崇德十路口" seqNo="26" pgp="0" terminal="0" districtId="1" GoBack="1" latitude="24.18955" longitude="120.6863" inDis="50" outDis="50" oid="12402" /><Stop Id="4252" routeId="58區2" nameZh="崇德豐樂路口" seqNo="27" pgp="0" terminal="0" districtId="1" GoBack="1" latitude="24.19293" longitude="120.68638" inDis="50" outDis="50" oid="13341" /><Stop Id="3818" routeId="58區2" nameZh="錦村市場" seqNo="28" pgp="0" terminal="0" districtId="1" GoBack="1" latitude="24.19613" longitude="120.6865" inDis="50" outDis="50" oid="12448" /><Stop Id="4359" routeId="58區2" nameZh="臺中洲際棒球場" seqNo="29" pgp="0" terminal="0" districtId="1" GoBack="1" latitude="24.19932" longitude="120.68656" inDis="50" outDis="50" oid="13294" /><Stop Id="4647" routeId="58區2" nameZh="崇德環中路口" seqNo="30" pgp="0" terminal="0" districtId="1" GoBack="1" latitude="24.20251" longitude="120.68662" inDis="50" outDis="50" oid="12450" /><Stop Id="4406" routeId="58區2" nameZh="中油鴻陞加油站" seqNo="31" pgp="0" terminal="0" districtId="1" GoBack="1" latitude="24.20622" longitude="120.68662" inDis="50" outDis="50" oid="13257" /><Stop Id="4301" routeId="58區2" nameZh="崇德大豐一路口" seqNo="32" pgp="0" terminal="0" districtId="1" GoBack="1" latitude="24.21086" longitude="120.68678" inDis="50" outDis="50" oid="12403" /><Stop Id="4300" routeId="58區2" nameZh="崇德雅潭路口" seqNo="33" pgp="0" terminal="0" districtId="1" GoBack="1" latitude="24.21531" longitude="120.68802" inDis="50" outDis="50" oid="13316" /><Stop Id="4303" routeId="58區2" nameZh="雅潭大豐路口" seqNo="34" pgp="0" terminal="0" districtId="1" GoBack="1" latitude="24.21589" longitude="120.69051" inDis="50" outDis="50" oid="12415" /><Stop Id="4222" routeId="58區2" nameZh="北基加油站雅潭站" seqNo="35" pgp="0" terminal="0" districtId="1" GoBack="1" latitude="24.216" longitude="120.69414" inDis="50" outDis="50" oid="12340" /><Stop Id="4242" routeId="58區2" nameZh="潭秀國中" seqNo="36" pgp="0" terminal="0" districtId="1" GoBack="1" latitude="24.21634" longitude="120.69991" inDis="50" outDis="50" oid="13333" /><Stop Id="4235" routeId="58區2" nameZh="雅潭中山路口" seqNo="37" pgp="0" terminal="0" districtId="1" GoBack="1" latitude="24.2158" longitude="120.70421" inDis="40" outDis="40" oid="12416" /><Stop Id="4240" routeId="58區2" nameZh="潭子火車站" seqNo="38" pgp="0" terminal="0" districtId="1" GoBack="1" latitude="24.21274" longitude="120.70532" inDis="50" outDis="50" oid="13328" /><Stop Id="3742" routeId="58區2" nameZh="潭子區公所" seqNo="39" pgp="0" terminal="0" districtId="1" GoBack="1" latitude="24.21022" longitude="120.70537" inDis="50" outDis="50" oid="303235815" /><Stop Id="4370" routeId="58區2" nameZh="中山圓通南路口" seqNo="40" pgp="0" terminal="0" districtId="1" GoBack="1" latitude="24.20789" longitude="120.70526" inDis="50" outDis="50" oid="303235813" /><Stop Id="4369" routeId="58區2" nameZh="圓通南興華一路口" seqNo="41" pgp="0" terminal="0" districtId="1" GoBack="1" latitude="24.20734" longitude="120.70284" inDis="50" outDis="50" oid="303235811" /><Stop Id="4368" routeId="58區2" nameZh="潭子勝利運動公園" seqNo="42" pgp="0" terminal="0" districtId="1" GoBack="1" latitude="24.20943" longitude="120.70097" inDis="50" outDis="50" oid="303235809" /><Stop Id="4368" routeId="58區2" nameZh="潭子勝利運動公園" seqNo="1" pgp="0" terminal="0" districtId="1" GoBack="2" latitude="24.20943" longitude="120.70097" inDis="50" outDis="50" oid="303235808" /><Stop Id="4369" routeId="58區2" nameZh="圓通南興華一路口" seqNo="2" pgp="0" terminal="0" districtId="1" GoBack="2" latitude="24.20734" longitude="120.70284" inDis="50" outDis="50" oid="303235810" /><Stop Id="4370" routeId="58區2" nameZh="中山圓通南路口" seqNo="3" pgp="0" terminal="0" districtId="1" GoBack="2" latitude="24.20789" longitude="120.70521" inDis="50" outDis="50" oid="303235812" /><Stop Id="3742" routeId="58區2" nameZh="潭子區公所" seqNo="4" pgp="0" terminal="0" districtId="1" GoBack="2" latitude="24.21024" longitude="120.70544" inDis="50" outDis="50" oid="303235814" /><Stop Id="4240" routeId="58區2" nameZh="潭子火車站" seqNo="5" pgp="0" terminal="0" districtId="1" GoBack="2" latitude="24.21274" longitude="120.70532" inDis="50" outDis="50" oid="13328" /><Stop Id="4235" routeId="58區2" nameZh="雅潭中山路口" seqNo="6" pgp="0" terminal="0" districtId="1" GoBack="2" latitude="24.2158" longitude="120.70421" inDis="40" outDis="40" oid="12416" /><Stop Id="4242" routeId="58區2" nameZh="潭秀國中" seqNo="7" pgp="0" terminal="0" districtId="1" GoBack="2" latitude="24.21634" longitude="120.69991" inDis="50" outDis="50" oid="13333" /><Stop Id="4222" routeId="58區2" nameZh="北基加油站雅潭站 " seqNo="8" pgp="0" terminal="0" districtId="1" GoBack="2" latitude="24.216" longitude="120.69414" inDis="50" outDis="50" oid="303337559" /><Stop Id="4303" routeId="58區2" nameZh="雅潭大豐路口" seqNo="9" pgp="0" terminal="0" districtId="1" GoBack="2" latitude="24.21589" longitude="120.69051" inDis="50" outDis="50" oid="12415" /><Stop Id="4300" routeId="58區2" nameZh="崇德雅潭路口" seqNo="10" pgp="0" terminal="0" districtId="1" GoBack="2" latitude="24.21531" longitude="120.68802" inDis="50" outDis="50" oid="13316" /><Stop Id="4301" routeId="58區2" nameZh="崇德大豐一路口" seqNo="11" pgp="0" terminal="0" districtId="1" GoBack="2" latitude="24.21086" longitude="120.68678" inDis="50" outDis="50" oid="12403" /><Stop Id="4406" routeId="58區2" nameZh="中油鴻陞加油站" seqNo="12" pgp="0" terminal="0" districtId="1" GoBack="2" latitude="24.20622" longitude="120.68662" inDis="50" outDis="50" oid="13257" /><Stop Id="4647" routeId="58區2" nameZh="崇德環中路口" seqNo="13" pgp="0" terminal="0" districtId="1" GoBack="2" latitude="24.20251" longitude="120.68662" inDis="50" outDis="50" oid="12450" /><Stop Id="4359" routeId="58區2" nameZh="臺中洲際棒球場" seqNo="14" pgp="0" terminal="0" districtId="1" GoBack="2" latitude="24.19932" longitude="120.68656" inDis="50" outDis="50" oid="13294" /><Stop Id="3818" routeId="58區2" nameZh="錦村市場" seqNo="15" pgp="0" terminal="0" districtId="1" GoBack="2" latitude="24.19613" longitude="120.6865" inDis="50" outDis="50" oid="12448" /><Stop Id="4252" routeId="58區2" nameZh="崇德豐樂路口" seqNo="16" pgp="0" terminal="0" districtId="1" GoBack="2" latitude="24.19293" longitude="120.68638" inDis="50" outDis="50" oid="13341" /><Stop Id="2959" routeId="58區2" nameZh="崇德十路口" seqNo="17" pgp="0" terminal="0" districtId="1" GoBack="2" latitude="24.18955" longitude="120.6863" inDis="50" outDis="50" oid="12402" /><Stop Id="2958" routeId="58區2" nameZh="崇德九路口" seqNo="18" pgp="0" terminal="0" districtId="1" GoBack="2" latitude="24.18756" longitude="120.68622" inDis="50" outDis="50" oid="DD047587CF8A4CD88A0A329373FBC18B" /><Stop Id="1393" routeId="58區2" nameZh="崇德山西路口" seqNo="19" pgp="0" terminal="0" districtId="1" GoBack="2" latitude="24.18506" longitude="120.68618" inDis="50" outDis="50" oid="12310" /><Stop Id="0194" routeId="58區2" nameZh="北屯區行政大樓" seqNo="20" pgp="0" terminal="0" districtId="1" GoBack="2" latitude="24.18243" longitude="120.68619" inDis="50" outDis="50" oid="12338" /><Stop Id="0195" routeId="58區2" nameZh="崇德五路口" seqNo="21" pgp="0" terminal="0" districtId="1" GoBack="2" latitude="24.17879" longitude="120.68588" inDis="50" outDis="50" oid="12404" /><Stop Id="0196" routeId="58區2" nameZh="崇德一路口" seqNo="22" pgp="0" terminal="0" districtId="1" GoBack="2" latitude="24.17701" longitude="120.68577" inDis="50" outDis="50" oid="6A2D5559ADA34ACBA7ECFB3EFBE252FC" /><Stop Id="5131" routeId="58區2" nameZh="崇德國中(民俗公園)" seqNo="23" pgp="0" terminal="0" districtId="1" GoBack="2" latitude="24.17516" longitude="120.68564" inDis="50" outDis="50" oid="1F2714EF98D045458EC7DF003836A6F7" /><Stop Id="0199" routeId="58區2" nameZh="崇德瀋陽路口" seqNo="24" pgp="0" terminal="0" districtId="1" GoBack="2" latitude="24.17308" longitude="120.6855" inDis="50" outDis="50" oid="12452" /><Stop Id="4339" routeId="58區2" nameZh="崇德文心路口" seqNo="25" pgp="0" terminal="0" districtId="1" GoBack="2" latitude="24.1717" longitude="120.68539" inDis="50" outDis="50" oid="301782125" /><Stop Id="1768" routeId="58區2" nameZh="崇德北平路口" seqNo="26" pgp="0" terminal="0" districtId="1" GoBack="2" latitude="24.17052" longitude="120.68535" inDis="50" outDis="50" oid="12339" /><Stop Id="3511" routeId="58區2" nameZh="聖德禪寺" seqNo="27" pgp="0" terminal="0" districtId="1" GoBack="2" latitude="24.16818" longitude="120.68529" inDis="50" outDis="50" oid="13323" /><Stop Id="0098" routeId="58區2" nameZh="崇德橋" seqNo="28" pgp="0" terminal="0" districtId="1" GoBack="2" latitude="24.16474" longitude="120.68503" inDis="50" outDis="50" oid="12406" /><Stop Id="4576" routeId="58區2" nameZh="崇德德化街口" seqNo="29" pgp="0" terminal="0" districtId="1" GoBack="2" latitude="24.16169" longitude="120.68507" inDis="50" outDis="50" oid="12429" /><Stop Id="4607" routeId="58區2" nameZh="新民高中(崇德路)" seqNo="30" pgp="0" terminal="0" districtId="1" GoBack="2" latitude="24.15953" longitude="120.68505" inDis="50" outDis="50" oid="13321" /><Stop Id="0203" routeId="58區2" nameZh="市立殯儀館" seqNo="31" pgp="0" terminal="0" districtId="1" GoBack="2" latitude="24.15651" longitude="120.68538" inDis="50" outDis="50" oid="12359" /><Stop Id="0047" routeId="58區2" nameZh="一心市場" seqNo="32" pgp="0" terminal="0" districtId="1" GoBack="2" latitude="24.15417" longitude="120.68591" inDis="50" outDis="50" oid="069F77FABB4D46339035176855001608" /><Stop Id="0046" routeId="58區2" nameZh="中友百貨" seqNo="33" pgp="0" terminal="0" districtId="1" GoBack="2" latitude="24.15241" longitude="120.68516" inDis="50" outDis="50" oid="12314" /><Stop Id="0045" routeId="58區2" nameZh="國立臺中科技大學" seqNo="34" pgp="0" terminal="0" districtId="1" GoBack="2" latitude="24.14918" longitude="120.6838" inDis="50" outDis="50" oid="13292" /><Stop Id="1513" routeId="58區2" nameZh="中興堂" seqNo="35" pgp="0" terminal="0" districtId="1" GoBack="2" latitude="24.14621" longitude="120.68463" inDis="50" outDis="50" oid="16096" /><Stop Id="4544" routeId="58區2" nameZh="臺中公園(雙十路)" seqNo="36" pgp="0" terminal="0" districtId="1" GoBack="2" latitude="24.1441" longitude="120.68611" inDis="50" outDis="50" oid="13290" /><Stop Id="0402" routeId="58區2" nameZh="干城站" seqNo="37" pgp="0" terminal="0" districtId="1" GoBack="2" latitude="24.14082" longitude="120.6861" inDis="50" outDis="50" oid="12493" /><Stop Id="1824" routeId="58區2" nameZh="臺中火車站" seqNo="38" pgp="0" terminal="0" districtId="1" GoBack="2" latitude="24.13734" longitude="120.6847" inDis="50" outDis="50" oid="13282" /><Stop Id="0049" routeId="58區2" nameZh="第三市場(臺中家商)" seqNo="39" pgp="0" terminal="0" districtId="1" GoBack="2" latitude="24.13371" longitude="120.68341" inDis="50" outDis="50" oid="13317" /><Stop Id="0257" routeId="58區2" nameZh="臺中國小" seqNo="40" pgp="0" terminal="0" districtId="1" GoBack="2" latitude="24.13137" longitude="120.68459" inDis="50" outDis="50" oid="12356" /><Stop Id="5607" routeId="58區2" nameZh="興大附農(臺中路)" seqNo="41" pgp="0" terminal="0" districtId="1" GoBack="2" latitude="24.1286" longitude="120.68488" inDis="50" outDis="50" oid="12355" /><Stop Id="0255" routeId="58區2" nameZh="南門仔" seqNo="42" pgp="0" terminal="0" districtId="1" GoBack="2" latitude="24.12529" longitude="120.68425" inDis="50" outDis="50" oid="12392" /><Stop Id="0254" routeId="58區2" nameZh="明德高中" seqNo="43" pgp="0" terminal="0" districtId="1" GoBack="2" latitude="24.1228" longitude="120.68416" inDis="50" outDis="50" oid="6690" /></BusInfo></BusDynInfo>