<?xml version="1.0" encoding="UTF-8" standalone="yes"?>
<BusDynInfo><EssentialInfo><Location><name>TCBUS</name><CenterName>Maxwin</CenterName></Location><UpdateTime>2014-12-20 07:35:43</UpdateTime><CoordinateSystem/></EssentialInfo>
<BusInfo><Stop Id="4351" routeId="53區2" nameZh="太原火車站" seqNo="1" pgp="0" terminal="0" districtId="1" GoBack="1" latitude="24.16612" longitude="120.70017" inDis="50" outDis="50" oid="13263" /><Stop Id="0218" routeId="53區2" nameZh="三川福德祠" seqNo="2" pgp="0" terminal="0" districtId="1" GoBack="1" latitude="24.16469" longitude="120.70361" inDis="50" outDis="50" oid="13059" /><Stop Id="0470" routeId="53區2" nameZh="太原二號橋" seqNo="3" pgp="0" terminal="0" districtId="1" GoBack="1" latitude="24.16468" longitude="120.70621" inDis="50" outDis="90" oid="68D7F787D67B43BB8D728BAE37A2CBD8" /><Stop Id="4320" routeId="53區2" nameZh="東山高中" seqNo="4" pgp="0" terminal="0" districtId="1" GoBack="1" latitude="24.16588" longitude="120.71184" inDis="50" outDis="50" oid="301532257" /><Stop Id="5105" routeId="53區2" nameZh="景賢八路口" seqNo="5" pgp="0" terminal="0" districtId="1" GoBack="1" latitude="24.16728" longitude="120.70941" inDis="30" outDis="80" oid="310603462" /><Stop Id="4319" routeId="53區2" nameZh="三甲公園" seqNo="6" pgp="0" terminal="0" districtId="1" GoBack="1" latitude="24.1673" longitude="120.70687" inDis="50" outDis="50" oid="13061" /><Stop Id="5712" routeId="53區2" nameZh="三和/東光里" seqNo="7" pgp="0" terminal="0" districtId="1" GoBack="1" latitude="24.16955" longitude="120.70446" inDis="50" outDis="50" oid="13064" /><Stop Id="4312" routeId="53區2" nameZh="東光國小" seqNo="8" pgp="0" terminal="0" districtId="1" GoBack="1" latitude="24.16988" longitude="120.70255" inDis="50" outDis="50" oid="13175" /><Stop Id="0222" routeId="53區2" nameZh="聯安醫院" seqNo="9" pgp="0" terminal="0" districtId="1" GoBack="1" latitude="24.17035" longitude="120.69875" inDis="50" outDis="50" oid="13242" /><Stop Id="0102" routeId="53區2" nameZh="四維國小" seqNo="10" pgp="0" terminal="0" districtId="1" GoBack="1" latitude="24.17093" longitude="120.6959" inDis="50" outDis="50" oid="13297" /><Stop Id="5780" routeId="53區2" nameZh="文心興安路口" seqNo="11" pgp="0" terminal="0" districtId="1" GoBack="1" latitude="24.17109" longitude="120.69447" inDis="50" outDis="50" oid="320882893" /><Stop Id="4274" routeId="53區2" nameZh="文心昌平路口" seqNo="12" pgp="0" terminal="0" districtId="1" GoBack="1" latitude="24.17132" longitude="120.69167" inDis="50" outDis="50" oid="13274" /><Stop Id="4283" routeId="53區2" nameZh="文心熱河路口" seqNo="13" pgp="0" terminal="0" districtId="1" GoBack="1" latitude="24.17184" longitude="120.68764" inDis="50" outDis="50" oid="13280" /><Stop Id="4279" routeId="53區2" nameZh="文心崇德路口" seqNo="14" pgp="0" terminal="0" districtId="1" GoBack="1" latitude="24.17209" longitude="120.68595" inDis="50" outDis="50" oid="13126" /><Stop Id="0224" routeId="53區2" nameZh="文心國小" seqNo="15" pgp="0" terminal="0" districtId="1" GoBack="1" latitude="24.17241" longitude="120.68246" inDis="50" outDis="50" oid="13278" /><Stop Id="4280" routeId="53區2" nameZh="文心梅川西路口" seqNo="16" pgp="0" terminal="0" districtId="1" GoBack="1" latitude="24.1729" longitude="120.67993" inDis="50" outDis="50" oid="13128" /><Stop Id="4277" routeId="53區2" nameZh="文心山西路口" seqNo="17" pgp="0" terminal="0" districtId="1" GoBack="1" latitude="24.17347" longitude="120.67656" inDis="50" outDis="50" oid="13117" /><Stop Id="4276" routeId="53區2" nameZh="文心青島東街口" seqNo="18" pgp="0" terminal="0" districtId="1" GoBack="1" latitude="24.17376" longitude="120.67447" inDis="50" outDis="50" oid="12539" /><Stop Id="4265" routeId="53區2" nameZh="文心中清路口" seqNo="19" pgp="0" terminal="0" districtId="1" GoBack="1" latitude="24.1738" longitude="120.67166" inDis="50" outDis="50" oid="13266" /><Stop Id="5201" routeId="53區2" nameZh="文心中清西一街口" seqNo="20" pgp="0" terminal="0" districtId="1" GoBack="1" latitude="24.17376" longitude="120.67057" inDis="50" outDis="50" oid="312331410" /><Stop Id="4355" routeId="53區2" nameZh="文心陝西路口" seqNo="21" pgp="0" terminal="0" districtId="1" GoBack="1" latitude="24.17328" longitude="120.66832" inDis="50" outDis="50" oid="13277" /><Stop Id="0229" routeId="53區2" nameZh="臺灣日報" seqNo="22" pgp="0" terminal="0" districtId="1" GoBack="1" latitude="24.17277" longitude="120.66561" inDis="50" outDis="50" oid="13296" /><Stop Id="0230" routeId="53區2" nameZh="重慶國小" seqNo="23" pgp="0" terminal="0" districtId="1" GoBack="1" latitude="24.17225" longitude="120.66342" inDis="50" outDis="50" oid="13312" /><Stop Id="4275" routeId="53區2" nameZh="文心河南路口" seqNo="24" pgp="0" terminal="0" districtId="1" GoBack="1" latitude="24.17149" longitude="120.66069" inDis="50" outDis="50" oid="13275" /><Stop Id="4612" routeId="53區2" nameZh="文華高中(文心路)" seqNo="25" pgp="0" terminal="0" districtId="1" GoBack="1" latitude="24.17101" longitude="120.65914" inDis="50" outDis="50" oid="13281" /><Stop Id="4271" routeId="53區2" nameZh="文心甘肅路口" seqNo="26" pgp="0" terminal="0" districtId="1" GoBack="1" latitude="24.16903" longitude="120.65563" inDis="50" outDis="50" oid="13271" /><Stop Id="4273" routeId="53區2" nameZh="文心西屯路口" seqNo="27" pgp="0" terminal="0" districtId="1" GoBack="1" latitude="24.16614" longitude="120.65221" inDis="50" outDis="50" oid="13273" /><Stop Id="4269" routeId="53區2" nameZh="文心四川路口" seqNo="28" pgp="0" terminal="0" districtId="1" GoBack="1" latitude="24.16388" longitude="120.65057" inDis="50" outDis="50" oid="13269" /><Stop Id="4266" routeId="53區2" nameZh="文心臺灣大道口" seqNo="29" pgp="0" terminal="0" districtId="1" GoBack="1" latitude="24.16128" longitude="120.64866" inDis="50" outDis="50" oid="13267" /><Stop Id="0019" routeId="53區2" nameZh="市警局" seqNo="30" pgp="0" terminal="0" districtId="1" GoBack="1" latitude="24.15938" longitude="120.64751" inDis="50" outDis="50" oid="13298" /><Stop Id="1433" routeId="53區2" nameZh="中央健保局(文心路)" seqNo="31" pgp="0" terminal="0" districtId="1" GoBack="1" latitude="24.15762" longitude="120.64682" inDis="50" outDis="50" oid="13256" /><Stop Id="4270" routeId="53區2" nameZh="文心市政路口" seqNo="32" pgp="0" terminal="0" districtId="1" GoBack="1" latitude="24.15461" longitude="120.64672" inDis="50" outDis="50" oid="13270" /><Stop Id="4268" routeId="53區2" nameZh="文心公益路口" seqNo="33" pgp="0" terminal="0" districtId="1" GoBack="1" latitude="24.15048" longitude="120.64669" inDis="50" outDis="50" oid="13268" /><Stop Id="4356" routeId="53區2" nameZh="文心森林公園" seqNo="34" pgp="0" terminal="0" districtId="1" GoBack="1" latitude="24.14631" longitude="120.6465" inDis="75" outDis="75" oid="10994" /><Stop Id="4356" routeId="53區2" nameZh="文心森林公園" seqNo="1" pgp="0" terminal="0" districtId="1" GoBack="2" latitude="24.14631" longitude="120.6465" inDis="75" outDis="75" oid="10994" /><Stop Id="4268" routeId="53區2" nameZh="文心公益路口" seqNo="2" pgp="0" terminal="0" districtId="1" GoBack="2" latitude="24.15048" longitude="120.64669" inDis="50" outDis="50" oid="13268" /><Stop Id="4270" routeId="53區2" nameZh="文心市政路口" seqNo="3" pgp="0" terminal="0" districtId="1" GoBack="2" latitude="24.15461" longitude="120.64672" inDis="50" outDis="50" oid="13270" /><Stop Id="1433" routeId="53區2" nameZh="中央健保局(文心路)" seqNo="4" pgp="0" terminal="0" districtId="1" GoBack="2" latitude="24.15762" longitude="120.64682" inDis="50" outDis="50" oid="13256" /><Stop Id="0019" routeId="53區2" nameZh="市警局" seqNo="5" pgp="0" terminal="0" districtId="1" GoBack="2" latitude="24.15938" longitude="120.64751" inDis="50" outDis="50" oid="13298" /><Stop Id="4266" routeId="53區2" nameZh="文心臺灣大道口" seqNo="6" pgp="0" terminal="0" districtId="1" GoBack="2" latitude="24.16128" longitude="120.64866" inDis="50" outDis="50" oid="13267" /><Stop Id="4269" routeId="53區2" nameZh="文心四川路口" seqNo="7" pgp="0" terminal="0" districtId="1" GoBack="2" latitude="24.16388" longitude="120.65057" inDis="50" outDis="50" oid="13269" /><Stop Id="4273" routeId="53區2" nameZh="文心西屯路口" seqNo="8" pgp="0" terminal="0" districtId="1" GoBack="2" latitude="24.16614" longitude="120.65221" inDis="50" outDis="50" oid="13273" /><Stop Id="4271" routeId="53區2" nameZh="文心甘肅路口" seqNo="9" pgp="0" terminal="0" districtId="1" GoBack="2" latitude="24.16903" longitude="120.65563" inDis="50" outDis="50" oid="13271" /><Stop Id="4612" routeId="53區2" nameZh="文華高中(文心路)" seqNo="10" pgp="0" terminal="0" districtId="1" GoBack="2" latitude="24.17101" longitude="120.65914" inDis="50" outDis="50" oid="13281" /><Stop Id="4275" routeId="53區2" nameZh="文心河南路口" seqNo="11" pgp="0" terminal="0" districtId="1" GoBack="2" latitude="24.17149" longitude="120.66069" inDis="50" outDis="50" oid="13275" /><Stop Id="0230" routeId="53區2" nameZh="重慶國小" seqNo="12" pgp="0" terminal="0" districtId="1" GoBack="2" latitude="24.17225" longitude="120.66342" inDis="50" outDis="50" oid="13312" /><Stop Id="0229" routeId="53區2" nameZh="臺灣日報" seqNo="13" pgp="0" terminal="0" districtId="1" GoBack="2" latitude="24.17277" longitude="120.66561" inDis="50" outDis="50" oid="13296" /><Stop Id="4355" routeId="53區2" nameZh="文心陝西路口" seqNo="14" pgp="0" terminal="0" districtId="1" GoBack="2" latitude="24.17328" longitude="120.66832" inDis="50" outDis="50" oid="13277" /><Stop Id="4265" routeId="53區2" nameZh="文心中清路口" seqNo="15" pgp="0" terminal="0" districtId="1" GoBack="2" latitude="24.1738" longitude="120.67166" inDis="50" outDis="50" oid="13266" /><Stop Id="4276" routeId="53區2" nameZh="文心青島東街口" seqNo="16" pgp="0" terminal="0" districtId="1" GoBack="2" latitude="24.17376" longitude="120.67447" inDis="50" outDis="50" oid="12539" /><Stop Id="4277" routeId="53區2" nameZh="文心山西路口" seqNo="17" pgp="0" terminal="0" districtId="1" GoBack="2" latitude="24.17352" longitude="120.67568" inDis="50" outDis="50" oid="13118" /><Stop Id="4280" routeId="53區2" nameZh="文心梅川西路口" seqNo="18" pgp="0" terminal="0" districtId="1" GoBack="2" latitude="24.17296" longitude="120.67927" inDis="50" outDis="50" oid="13127" /><Stop Id="0224" routeId="53區2" nameZh="文心國小" seqNo="19" pgp="0" terminal="0" districtId="1" GoBack="2" latitude="24.17241" longitude="120.68246" inDis="50" outDis="50" oid="13278" /><Stop Id="4279" routeId="53區2" nameZh="文心崇德路口" seqNo="20" pgp="0" terminal="0" districtId="1" GoBack="2" latitude="24.17195" longitude="120.68599" inDis="50" outDis="50" oid="13125" /><Stop Id="4283" routeId="53區2" nameZh="文心熱河路口" seqNo="21" pgp="0" terminal="0" districtId="1" GoBack="2" latitude="24.17184" longitude="120.68764" inDis="50" outDis="50" oid="13280" /><Stop Id="4274" routeId="53區2" nameZh="文心昌平路口" seqNo="22" pgp="0" terminal="0" districtId="1" GoBack="2" latitude="24.17132" longitude="120.69167" inDis="50" outDis="50" oid="13274" /><Stop Id="5780" routeId="53區2" nameZh="文心興安路口" seqNo="23" pgp="0" terminal="0" districtId="1" GoBack="2" latitude="24.17109" longitude="120.69447" inDis="50" outDis="50" oid="320882893" /><Stop Id="0102" routeId="53區2" nameZh="四維國小" seqNo="24" pgp="0" terminal="0" districtId="1" GoBack="2" latitude="24.17093" longitude="120.6959" inDis="50" outDis="50" oid="13297" /><Stop Id="0222" routeId="53區2" nameZh="聯安醫院" seqNo="25" pgp="0" terminal="0" districtId="1" GoBack="2" latitude="24.1703" longitude="120.6983" inDis="50" outDis="50" oid="13241" /><Stop Id="4312" routeId="53區2" nameZh="東光國小" seqNo="26" pgp="0" terminal="0" districtId="1" GoBack="2" latitude="24.16978" longitude="120.70266" inDis="50" outDis="50" oid="13176" /><Stop Id="5712" routeId="53區2" nameZh="三和/東光里" seqNo="27" pgp="0" terminal="0" districtId="1" GoBack="2" latitude="24.16955" longitude="120.70432" inDis="50" outDis="50" oid="13063" /><Stop Id="4319" routeId="53區2" nameZh="三甲公園" seqNo="28" pgp="0" terminal="0" districtId="1" GoBack="2" latitude="24.16726" longitude="120.70687" inDis="50" outDis="50" oid="13062" /><Stop Id="5105" routeId="53區2" nameZh="景賢八路口" seqNo="29" pgp="0" terminal="0" districtId="1" GoBack="2" latitude="24.16725" longitude="120.7096" inDis="30" outDis="80" oid="310603463" /><Stop Id="4320" routeId="53區2" nameZh="東山高中" seqNo="30" pgp="0" terminal="0" districtId="1" GoBack="2" latitude="24.16596" longitude="120.71168" inDis="50" outDis="50" oid="301532258" /><Stop Id="0470" routeId="53區2" nameZh="太原二號橋" seqNo="31" pgp="0" terminal="0" districtId="1" GoBack="2" latitude="24.16468" longitude="120.70621" inDis="50" outDis="90" oid="68D7F787D67B43BB8D728BAE37A2CBD8" /><Stop Id="0218" routeId="53區2" nameZh="三川福德祠" seqNo="32" pgp="0" terminal="0" districtId="1" GoBack="2" latitude="24.16498" longitude="120.70346" inDis="50" outDis="50" oid="13060" /><Stop Id="4351" routeId="53區2" nameZh="太原火車站" seqNo="33" pgp="0" terminal="0" districtId="1" GoBack="2" latitude="24.16612" longitude="120.70017" inDis="50" outDis="50" oid="13263" /></BusInfo></BusDynInfo>