<?xml version="1.0" encoding="UTF-8" standalone="yes"?>
<BusDynInfo><EssentialInfo><Location><name>TCBUS</name><CenterName>Maxwin</CenterName></Location><UpdateTime>2014-12-20 07:29:38</UpdateTime><CoordinateSystem/></EssentialInfo>
<BusInfo><Stop Id="5404" routeId="31" nameZh="公共資訊圖書館(五權南路)" seqNo="1" pgp="0" terminal="0" districtId="1" GoBack="1" latitude="24.12787" longitude="120.66931" inDis="50" outDis="50" oid="319048636" /><Stop Id="5075" routeId="31" nameZh="建成學府路口" seqNo="2" pgp="0" terminal="0" districtId="1" GoBack="1" latitude="24.12642" longitude="120.67406" inDis="50" outDis="50" oid="319048638" /><Stop Id="4008" routeId="31" nameZh="靈山寺" seqNo="3" pgp="0" terminal="0" districtId="1" GoBack="1" latitude="24.12747" longitude="120.68028" inDis="50" outDis="50" oid="319048640" /><Stop Id="0039" routeId="31" nameZh="建成正氣街口" seqNo="4" pgp="0" terminal="0" districtId="1" GoBack="1" latitude="24.1289" longitude="120.68366" inDis="50" outDis="50" oid="319048641" /><Stop Id="0257" routeId="31" nameZh="臺中國小" seqNo="5" pgp="0" terminal="0" districtId="1" GoBack="1" latitude="24.13026" longitude="120.68502" inDis="50" outDis="50" oid="319048643" /><Stop Id="0049" routeId="31" nameZh="第三市場" seqNo="6" pgp="0" terminal="0" districtId="1" GoBack="1" latitude="24.13301" longitude="120.68366" inDis="50" outDis="50" oid="319048644" /><Stop Id="1824" routeId="31" nameZh="臺中火車站" seqNo="7" pgp="0" terminal="0" districtId="1" GoBack="1" latitude="24.13727" longitude="120.68472" inDis="50" outDis="50" oid="6F7F784B5BA84037A7D8181BF07C70AB" /><Stop Id="0402" routeId="31" nameZh="干城站" seqNo="8" pgp="0" terminal="0" districtId="1" GoBack="1" latitude="24.14102" longitude="120.6861" inDis="50" outDis="50" oid="D77C3E3DA90642AC830801F340F34159" /><Stop Id="4561" routeId="31" nameZh="立體停車場(雙十路)" seqNo="9" pgp="0" terminal="0" districtId="1" GoBack="1" latitude="24.14252" longitude="120.68596" inDis="50" outDis="50" oid="0022B7C06A80418BBA89212B3ADBDD97" /><Stop Id="4544" routeId="31" nameZh="臺中公園(雙十路)" seqNo="10" pgp="0" terminal="0" districtId="1" GoBack="1" latitude="24.14403" longitude="120.68614" inDis="50" outDis="50" oid="91B1DF0DB92C4F8FA1C6280986FF3ED4" /><Stop Id="1513" routeId="31" nameZh="中興堂" seqNo="11" pgp="0" terminal="0" districtId="1" GoBack="1" latitude="24.14626" longitude="120.68448" inDis="50" outDis="50" oid="15989" /><Stop Id="0045" routeId="31" nameZh="國立臺中科技大學" seqNo="13" pgp="0" terminal="0" districtId="1" GoBack="1" latitude="24.14947" longitude="120.68393" inDis="50" outDis="50" oid="1CA787B4C30F485F858D2360F25F7CFD" /><Stop Id="0046" routeId="31" nameZh="中友百貨" seqNo="14" pgp="0" terminal="0" districtId="1" GoBack="1" latitude="24.15255" longitude="120.68515" inDis="50" outDis="50" oid="90D329D3774E449E93465A2C79B26E49" /><Stop Id="0047" routeId="31" nameZh="一心市場" seqNo="15" pgp="0" terminal="0" districtId="1" GoBack="1" latitude="24.1542" longitude="120.68587" inDis="50" outDis="50" oid="440182AB60EB47DE9C20088B26C06B38" /><Stop Id="0934" routeId="31" nameZh="三民錦中街口" seqNo="16" pgp="0" terminal="0" districtId="1" GoBack="1" latitude="24.15528" longitude="120.68695" inDis="50" outDis="50" oid="0D7AF382298E449C9856AF45F92F27F9" /><Stop Id="4399" routeId="31" nameZh="新民高中(三民路)" seqNo="17" pgp="0" terminal="0" districtId="1" GoBack="1" latitude="24.1564" longitude="120.68828" inDis="50" outDis="50" oid="9E07578DA6CC4E36B10F1953E1046FE2" /><Stop Id="0960" routeId="31" nameZh="寶覺寺" seqNo="18" pgp="0" terminal="0" districtId="1" GoBack="1" latitude="24.15782" longitude="120.68995" inDis="50" outDis="50" oid="00AAF13CB7D745549395E40254A524B8" /><Stop Id="0892" routeId="31" nameZh="監理站" seqNo="19" pgp="0" terminal="0" districtId="1" GoBack="1" latitude="24.16106" longitude="120.69227" inDis="50" outDis="50" oid="089488E06ED24244AB819A82EA914A84" /><Stop Id="5405" routeId="31" nameZh="北屯國小(北屯路)" seqNo="20" pgp="0" terminal="0" districtId="1" GoBack="1" latitude="24.16309" longitude="120.69324" inDis="50" outDis="50" oid="80179D31FC044AF38858CCBA96E2B954" /><Stop Id="0492" routeId="31" nameZh="北屯" seqNo="21" pgp="0" terminal="0" districtId="1" GoBack="1" latitude="24.1652" longitude="120.69443" inDis="50" outDis="50" oid="0540B5464AC34D1CBD17C45D22CFAD22" /><Stop Id="5511" routeId="31" nameZh="三光國中" seqNo="22" pgp="0" terminal="0" districtId="1" GoBack="1" latitude="24.16807" longitude="120.69624" inDis="50" outDis="50" oid="555B9DB2007346FBA2B3E43D588D234E" /><Stop Id="0103" routeId="31" nameZh="大坑口" seqNo="23" pgp="0" terminal="0" districtId="1" GoBack="1" latitude="24.16969" longitude="120.69729" inDis="50" outDis="50" oid="78642445804241DAB4DFF14E0ED022F4" /><Stop Id="0222" routeId="31" nameZh="聯安醫院" seqNo="24" pgp="0" terminal="0" districtId="1" GoBack="1" latitude="24.17028" longitude="120.69869" inDis="50" outDis="50" oid="8C794757C8114AE386681C2F89424BD4" /><Stop Id="4312" routeId="31" nameZh="東光國小" seqNo="25" pgp="0" terminal="0" districtId="1" GoBack="1" latitude="24.1697" longitude="120.70282" inDis="50" outDis="50" oid="1B901BA1522342C6B291FF3F2BAD4FF1" /><Stop Id="5712" routeId="31" nameZh="三和/東光里" seqNo="26" pgp="0" terminal="0" districtId="1" GoBack="1" latitude="24.16954" longitude="120.7048" inDis="50" outDis="50" oid="12466" /><Stop Id="0679" routeId="31" nameZh="玫瑰新村" seqNo="27" pgp="0" terminal="0" districtId="1" GoBack="1" latitude="24.16958" longitude="120.70674" inDis="50" outDis="50" oid="9531DC4BF7AC49B2AFF479EF2A78FBDF" /><Stop Id="0484" routeId="31" nameZh="水景里" seqNo="28" pgp="0" terminal="0" districtId="1" GoBack="1" latitude="24.17038" longitude="120.70838" inDis="50" outDis="50" oid="A87912B50E4A4649B6FB858EFEFDE870" /><Stop Id="0325" routeId="31" nameZh="三和社區" seqNo="29" pgp="0" terminal="0" districtId="1" GoBack="1" latitude="24.17121" longitude="120.70955" inDis="50" outDis="50" oid="5E433C61BEA54B929D20998EC66C9701" /><Stop Id="0485" routeId="31" nameZh="水景頭" seqNo="30" pgp="0" terminal="0" districtId="1" GoBack="1" latitude="24.17208" longitude="120.71109" inDis="50" outDis="50" oid="9F1F4990B4274AA58FE4FDDCC065572B" /><Stop Id="0365" routeId="31" nameZh="大華新村" seqNo="31" pgp="0" terminal="0" districtId="1" GoBack="1" latitude="24.17379" longitude="120.7144" inDis="50" outDis="50" oid="9FB1B9553F9B46F8A46ED08B7E06D199" /><Stop Id="0703" routeId="31" nameZh="建功國小" seqNo="32" pgp="0" terminal="0" districtId="1" GoBack="1" latitude="24.17548" longitude="120.71734" inDis="50" outDis="50" oid="C0EFA6C4CC5942D0B63F4701C4FAED72" /><Stop Id="0727" routeId="31" nameZh="軍功里" seqNo="33" pgp="0" terminal="0" districtId="1" GoBack="1" latitude="24.17592" longitude="120.71975" inDis="50" outDis="50" oid="0C4C3C8D3F8543E1A17A7067876D0B9F" /><Stop Id="4592" routeId="31" nameZh="和平里(東山路)" seqNo="34" pgp="0" terminal="0" districtId="1" GoBack="1" latitude="24.17601" longitude="120.72206" inDis="50" outDis="50" oid="82C506ADC0684953B8927446D5F8ACF8" /><Stop Id="0687" routeId="31" nameZh="長興塑膠" seqNo="35" pgp="0" terminal="0" districtId="1" GoBack="1" latitude="24.17614" longitude="120.72449" inDis="50" outDis="50" oid="D623B2E968C946C3A40B727BFB1A6E70" /><Stop Id="0555" routeId="31" nameZh="正覺寺" seqNo="36" pgp="0" terminal="0" districtId="1" GoBack="1" latitude="24.17648" longitude="120.72693" inDis="50" outDis="50" oid="6FCE754723804DE48AF88CFCEE991590" /><Stop Id="0854" routeId="31" nameZh="圓山新村" seqNo="37" pgp="0" terminal="0" districtId="1" GoBack="1" latitude="24.17701" longitude="120.73186" inDis="50" outDis="50" oid="FD55E5863A334BA9AF6F9FCF5D358A3F" /><Stop Id="0534" routeId="31" nameZh="台電東山所" seqNo="38" pgp="0" terminal="0" districtId="1" GoBack="1" latitude="24.17712" longitude="120.73464" inDis="50" outDis="50" oid="5D4D302C932648E181F496617EA83F9A" /><Stop Id="0768" routeId="31" nameZh="梨仔園" seqNo="39" pgp="0" terminal="0" districtId="1" GoBack="1" latitude="24.17767" longitude="120.73565" inDis="50" outDis="50" oid="B1CEF38D8B1843AF87DA3AD1E7AC4707" /><Stop Id="0784" routeId="31" nameZh="逢甲橋" seqNo="40" pgp="0" terminal="0" districtId="1" GoBack="1" latitude="24.17842" longitude="120.73721" inDis="50" outDis="50" oid="311262894" /><Stop Id="0350" routeId="31" nameZh="大坑圓環" seqNo="41" pgp="0" terminal="0" districtId="1" GoBack="1" latitude="24.17913" longitude="120.74022" inDis="50" outDis="50" oid="D7BB8235142546DAA450E82AAA9D9201" /><Stop Id="0871" routeId="31" nameZh="聖壽宮" seqNo="42" pgp="0" terminal="0" districtId="1" GoBack="1" latitude="24.18355" longitude="120.74387" inDis="50" outDis="50" oid="F3E08A866A4B44C3936A084C5D4B6DEB" /><Stop Id="0770" routeId="31" nameZh="清水橋" seqNo="43" pgp="0" terminal="0" districtId="1" GoBack="1" latitude="24.18674" longitude="120.74436" inDis="50" outDis="50" oid="2DF488CA9FEB42CCBB96EE8A411A0024" /><Stop Id="0688" routeId="31" nameZh="青山社區" seqNo="44" pgp="0" terminal="0" districtId="1" GoBack="1" latitude="24.18815" longitude="120.74522" inDis="50" outDis="50" oid="313421899" /><Stop Id="0939" routeId="31" nameZh="龜山農場" seqNo="45" pgp="0" terminal="0" districtId="1" GoBack="1" latitude="24.18979" longitude="120.74628" inDis="50" outDis="50" oid="28B8BC3D1C814087858C7C2843FC1468" /><Stop Id="0501" routeId="31" nameZh="天星大飯店" seqNo="46" pgp="0" terminal="0" districtId="1" GoBack="1" latitude="24.1929" longitude="120.74724" inDis="50" outDis="50" oid="B2F7095DAC964859B0A47E010EA3D7C2" /><Stop Id="0839" routeId="31" nameZh="貴城山莊" seqNo="47" pgp="0" terminal="0" districtId="1" GoBack="1" latitude="24.19385" longitude="120.74753" inDis="50" outDis="50" oid="285C915CFDA44CECBB68F1E6C4C0364D" /><Stop Id="5085" routeId="31" nameZh="大坑國小" seqNo="48" pgp="0" terminal="0" districtId="1" GoBack="1" latitude="24.19584" longitude="120.74754" inDis="50" outDis="50" oid="5678" /><Stop Id="4526" routeId="31" nameZh="普陀精舍" seqNo="49" pgp="0" terminal="0" districtId="1" GoBack="1" latitude="24.19831" longitude="120.75035" inDis="50" outDis="50" oid="305531050" /><Stop Id="5164" routeId="31" nameZh="觀光果園" seqNo="50" pgp="0" terminal="0" districtId="1" GoBack="1" latitude="24.19905" longitude="120.75289" inDis="50" outDis="50" oid="C1F4FEC28C14437B978C3F807A0343C5" /><Stop Id="0897" routeId="31" nameZh="福慧寺" seqNo="51" pgp="0" terminal="0" districtId="1" GoBack="1" latitude="24.19986" longitude="120.75624" inDis="50" outDis="50" oid="41C8C39A45FE456AB9090F8DEC205C1E" /><Stop Id="2849" routeId="31" nameZh="荔園" seqNo="52" pgp="0" terminal="0" districtId="1" GoBack="1" latitude="24.19977" longitude="120.76067" inDis="60" outDis="70" oid="3707BAA3DD3B47EBA53154C0C0DFEA85" /><Stop Id="0651" routeId="31" nameZh="東山樂園" seqNo="53" pgp="0" terminal="0" districtId="1" GoBack="1" latitude="24.19928" longitude="120.76311" inDis="50" outDis="50" oid="F4CAF839A6DA4433820670133D484A18" /><Stop Id="5510" routeId="31" nameZh="復興橋" seqNo="54" pgp="0" terminal="0" districtId="1" GoBack="1" latitude="24.19861" longitude="120.76602" inDis="50" outDis="50" oid="4A03173F918D4A9FB054C8A776712B28" /><Stop Id="0323" routeId="31" nameZh="三角埔" seqNo="55" pgp="0" terminal="0" districtId="1" GoBack="1" latitude="24.1983" longitude="120.76704" inDis="60" outDis="70" oid="73B42B8C96664F36B4EE7ACE03FFB6BF" /><Stop Id="4525" routeId="31" nameZh="昌龍橋" seqNo="56" pgp="0" terminal="0" districtId="1" GoBack="1" latitude="24.19736" longitude="120.77346" inDis="50" outDis="50" oid="305530998" /><Stop Id="0560" routeId="31" nameZh="民德橋" seqNo="57" pgp="0" terminal="0" districtId="1" GoBack="1" latitude="24.19863" longitude="120.7763" inDis="50" outDis="50" oid="D1D3911209324AFBA72F2CBA1DA8CC98" /><Stop Id="5614" routeId="31" nameZh="雙連坪" seqNo="58" pgp="0" terminal="0" districtId="1" GoBack="1" latitude="24.19965" longitude="120.77903" inDis="50" outDis="50" oid="5075" /><Stop Id="0578" routeId="31" nameZh="田螺湖" seqNo="59" pgp="0" terminal="0" districtId="1" GoBack="1" latitude="24.20316" longitude="120.78244" inDis="50" outDis="50" oid="55820DEA55D344ED9ED4FD4F04964B2D" /><Stop Id="1972" routeId="31" nameZh="瓦窯" seqNo="60" pgp="0" terminal="0" districtId="1" GoBack="1" latitude="24.20404" longitude="120.78462" inDis="50" outDis="50" oid="8DF53EC04A8A4DC4B3694A300DC4573D" /><Stop Id="0906" routeId="31" nameZh="綠竹市場" seqNo="61" pgp="0" terminal="0" districtId="1" GoBack="1" latitude="24.20536" longitude="120.78586" inDis="50" outDis="50" oid="5B98035B22DB4B31A0564C6B27ECF084" /><Stop Id="0359" routeId="31" nameZh="大崎下" seqNo="62" pgp="0" terminal="0" districtId="1" GoBack="1" latitude="24.20645" longitude="120.78779" inDis="50" outDis="50" oid="C09A297F3E654DE6BF5C207BAB47071D" /><Stop Id="5615" routeId="31" nameZh="單冬" seqNo="63" pgp="0" terminal="0" districtId="1" GoBack="1" latitude="24.20519" longitude="120.7898" inDis="50" outDis="50" oid="5944F41AB0C34A9BB41D59973E7726AE" /><Stop Id="0453" routeId="31" nameZh="內湖" seqNo="64" pgp="0" terminal="0" districtId="1" GoBack="1" latitude="24.2051" longitude="120.79244" inDis="50" outDis="50" oid="7B407465FCC74FFCA4D0870463D01A8B" /><Stop Id="0437" routeId="31" nameZh="中興嶺" seqNo="65" pgp="0" terminal="1" districtId="1" GoBack="1" latitude="24.20586" longitude="120.79404" inDis="50" outDis="50" oid="086127FC365E4462B0FD129BDDCE9356" /><Stop Id="0437" routeId="31" nameZh="中興嶺" seqNo="1" pgp="0" terminal="0" districtId="1" GoBack="2" latitude="24.20585" longitude="120.79406" inDis="50" outDis="50" oid="7017AE504A02466E8CC7A149AA0B8727" /><Stop Id="0453" routeId="31" nameZh="內湖" seqNo="2" pgp="0" terminal="0" districtId="1" GoBack="2" latitude="24.20528" longitude="120.79264" inDis="50" outDis="50" oid="E2329898508B49DE81A09EF8E6E4CD4E" /><Stop Id="5615" routeId="31" nameZh="單冬" seqNo="3" pgp="0" terminal="0" districtId="1" GoBack="2" latitude="24.20536" longitude="120.79011" inDis="50" outDis="50" oid="8697E83D29084C7D92B60671CD511DD9" /><Stop Id="0359" routeId="31" nameZh="大崎下" seqNo="4" pgp="0" terminal="0" districtId="1" GoBack="2" latitude="24.20658" longitude="120.7877" inDis="50" outDis="50" oid="1670B650083F4006B4B9A01F95961DE6" /><Stop Id="0906" routeId="31" nameZh="綠竹市場" seqNo="5" pgp="0" terminal="0" districtId="1" GoBack="2" latitude="24.20556" longitude="120.78595" inDis="50" outDis="50" oid="0AD9E0AA8886423D81A58AC889163BB1" /><Stop Id="1972" routeId="31" nameZh="瓦窯" seqNo="6" pgp="0" terminal="0" districtId="1" GoBack="2" latitude="24.20462" longitude="120.7841" inDis="50" outDis="50" oid="A6BAADAD6E434CD79E3BFA97AE7709D7" /><Stop Id="0578" routeId="31" nameZh="田螺湖" seqNo="7" pgp="0" terminal="0" districtId="1" GoBack="2" latitude="24.20311" longitude="120.78238" inDis="50" outDis="50" oid="192E6A7B0C0447C3BEB686AC7169C611" /><Stop Id="5614" routeId="31" nameZh="雙連坪" seqNo="8" pgp="0" terminal="0" districtId="1" GoBack="2" latitude="24.19965" longitude="120.77903" inDis="50" outDis="50" oid="5075" /><Stop Id="0560" routeId="31" nameZh="民德橋" seqNo="9" pgp="0" terminal="0" districtId="1" GoBack="2" latitude="24.19876" longitude="120.77633" inDis="50" outDis="50" oid="22CDB9EC37654E77B2C5009650D75470" /><Stop Id="4525" routeId="31" nameZh="昌龍橋" seqNo="10" pgp="0" terminal="0" districtId="1" GoBack="2" latitude="24.19773" longitude="120.77328" inDis="50" outDis="50" oid="305531001" /><Stop Id="0323" routeId="31" nameZh="三角埔" seqNo="11" pgp="0" terminal="0" districtId="1" GoBack="2" latitude="24.19834" longitude="120.76693" inDis="60" outDis="75" oid="1256C5BD93BD44E8AC544E1DAEDED5A4" /><Stop Id="5510" routeId="31" nameZh="復興橋" seqNo="12" pgp="0" terminal="0" districtId="1" GoBack="2" latitude="24.19861" longitude="120.76602" inDis="50" outDis="50" oid="4A03173F918D4A9FB054C8A776712B28" /><Stop Id="0651" routeId="31" nameZh="東山樂園" seqNo="13" pgp="0" terminal="0" districtId="1" GoBack="2" latitude="24.19932" longitude="120.76345" inDis="50" outDis="50" oid="09831EC72FFE43449E2FE06E8E82B580" /><Stop Id="2849" routeId="31" nameZh="荔園" seqNo="14" pgp="0" terminal="0" districtId="1" GoBack="2" latitude="24.19977" longitude="120.76067" inDis="60" outDis="70" oid="3707BAA3DD3B47EBA53154C0C0DFEA85" /><Stop Id="0897" routeId="31" nameZh="福慧寺" seqNo="15" pgp="0" terminal="0" districtId="1" GoBack="2" latitude="24.19995" longitude="120.75621" inDis="50" outDis="50" oid="C5B988BAFCBE4D9CB4C8D0B632D97B18" /><Stop Id="5164" routeId="31" nameZh="觀光果園" seqNo="16" pgp="0" terminal="0" districtId="1" GoBack="2" latitude="24.19927" longitude="120.75312" inDis="50" outDis="50" oid="4397AEEE85704A909685DAEC67F8B32C" /><Stop Id="4526" routeId="31" nameZh="普陀精舍" seqNo="17" pgp="0" terminal="0" districtId="1" GoBack="2" latitude="24.19857" longitude="120.75113" inDis="50" outDis="50" oid="305532001" /><Stop Id="5085" routeId="31" nameZh="大坑國小" seqNo="18" pgp="0" terminal="0" districtId="1" GoBack="2" latitude="24.19584" longitude="120.74754" inDis="50" outDis="50" oid="5678" /><Stop Id="0839" routeId="31" nameZh="貴城山莊" seqNo="19" pgp="0" terminal="0" districtId="1" GoBack="2" latitude="24.19384" longitude="120.74745" inDis="50" outDis="50" oid="7A46CFB664524D4589AE957DEC44B336" /><Stop Id="0501" routeId="31" nameZh="天星大飯店" seqNo="20" pgp="0" terminal="0" districtId="1" GoBack="2" latitude="24.19273" longitude="120.74703" inDis="50" outDis="50" oid="97C4E0D49EE8470DAD8CF7E7B57ADA7D" /><Stop Id="0939" routeId="31" nameZh="龜山農場" seqNo="21" pgp="0" terminal="0" districtId="1" GoBack="2" latitude="24.19001" longitude="120.74612" inDis="50" outDis="50" oid="4924BBD4763B46D69F5E799F63F0C615" /><Stop Id="0688" routeId="31" nameZh="青山社區" seqNo="22" pgp="0" terminal="0" districtId="1" GoBack="2" latitude="24.1879" longitude="120.74489" inDis="50" outDis="50" oid="313421900" /><Stop Id="0770" routeId="31" nameZh="清水橋" seqNo="23" pgp="0" terminal="0" districtId="1" GoBack="2" latitude="24.18646" longitude="120.74416" inDis="50" outDis="50" oid="EFD676A6591C42839098ED1D073ED431" /><Stop Id="0871" routeId="31" nameZh="聖壽宮" seqNo="24" pgp="0" terminal="0" districtId="1" GoBack="2" latitude="24.18371" longitude="120.74351" inDis="50" outDis="50" oid="745C35DC3CEA486F951330228A429D96" /><Stop Id="0350" routeId="31" nameZh="大坑圓環" seqNo="25" pgp="0" terminal="0" districtId="1" GoBack="2" latitude="24.17918" longitude="120.73994" inDis="50" outDis="50" oid="4CB47C6234D247E28E65E1777EC6FCF3" /><Stop Id="0784" routeId="31" nameZh="逢甲橋" seqNo="26" pgp="0" terminal="0" districtId="1" GoBack="2" latitude="24.17854" longitude="120.73709" inDis="50" outDis="50" oid="311262895" /><Stop Id="0768" routeId="31" nameZh="梨仔園" seqNo="27" pgp="0" terminal="0" districtId="1" GoBack="2" latitude="24.1778" longitude="120.73565" inDis="50" outDis="50" oid="E118C4FCAFC842C89E7D3832AE40F457" /><Stop Id="0534" routeId="31" nameZh="台電東山所" seqNo="28" pgp="0" terminal="0" districtId="1" GoBack="2" latitude="24.17726" longitude="120.73467" inDis="50" outDis="50" oid="BF049EC4ECBD4C96B966F4835D6683F6" /><Stop Id="0854" routeId="31" nameZh="圓山新村" seqNo="29" pgp="0" terminal="0" districtId="1" GoBack="2" latitude="24.17708" longitude="120.73195" inDis="50" outDis="50" oid="EB1165D97BC44FAE9698AD82A20E9BAE" /><Stop Id="0555" routeId="31" nameZh="正覺寺" seqNo="30" pgp="0" terminal="0" districtId="1" GoBack="2" latitude="24.1767" longitude="120.72754" inDis="50" outDis="50" oid="ADF32186A0E64AF1AD0C5CE642DB3262" /><Stop Id="0687" routeId="31" nameZh="長興塑膠" seqNo="31" pgp="0" terminal="0" districtId="1" GoBack="2" latitude="24.17618" longitude="120.72436" inDis="50" outDis="50" oid="F3C634ED9A2946FCB24612A18EE43CDA" /><Stop Id="4592" routeId="31" nameZh="和平里(東山路)" seqNo="32" pgp="0" terminal="0" districtId="1" GoBack="2" latitude="24.17606" longitude="120.72222" inDis="50" outDis="50" oid="86D8E01EAB1E42DE8B320D95CDA2BAB3" /><Stop Id="0727" routeId="31" nameZh="軍功里" seqNo="33" pgp="0" terminal="0" districtId="1" GoBack="2" latitude="24.17593" longitude="120.71976" inDis="50" outDis="50" oid="049987295F77404ABBC7866DF998A68A" /><Stop Id="0703" routeId="31" nameZh="建功國小" seqNo="34" pgp="0" terminal="0" districtId="1" GoBack="2" latitude="24.17533" longitude="120.71689" inDis="50" outDis="50" oid="B7936F51EE5E4264B036AFE1146ADC93" /><Stop Id="0365" routeId="31" nameZh="大華新村" seqNo="35" pgp="0" terminal="0" districtId="1" GoBack="2" latitude="24.17403" longitude="120.71471" inDis="50" outDis="50" oid="867677A63C2A462EA90F320EDB5B80BF" /><Stop Id="0485" routeId="31" nameZh="水景頭" seqNo="36" pgp="0" terminal="0" districtId="1" GoBack="2" latitude="24.17218" longitude="120.71111" inDis="50" outDis="50" oid="6AF13D6D36DC44BE9D1D97FD893EED95" /><Stop Id="0325" routeId="31" nameZh="三和社區" seqNo="37" pgp="0" terminal="0" districtId="1" GoBack="2" latitude="24.17125" longitude="120.70942" inDis="50" outDis="50" oid="94E8B71B602245B89B50CCA75F090B1D" /><Stop Id="0484" routeId="31" nameZh="水景里" seqNo="38" pgp="0" terminal="0" districtId="1" GoBack="2" latitude="24.17055" longitude="120.70844" inDis="50" outDis="50" oid="A9C8FDB46477456497B860E93743956A" /><Stop Id="0679" routeId="31" nameZh="玫瑰新村" seqNo="39" pgp="0" terminal="0" districtId="1" GoBack="2" latitude="24.16965" longitude="120.70691" inDis="50" outDis="50" oid="A6DFF954403B453B9201AA416C153967" /><Stop Id="5712" routeId="31" nameZh="三和/東光里" seqNo="40" pgp="0" terminal="0" districtId="1" GoBack="2" latitude="24.16949" longitude="120.70477" inDis="50" outDis="50" oid="12467" /><Stop Id="4312" routeId="31" nameZh="東光國小" seqNo="41" pgp="0" terminal="0" districtId="1" GoBack="2" latitude="24.16981" longitude="120.70257" inDis="50" outDis="50" oid="73C7DD3F04804566A211070352FC61D1" /><Stop Id="0222" routeId="31" nameZh="聯安醫院" seqNo="42" pgp="0" terminal="0" districtId="1" GoBack="2" latitude="24.17031" longitude="120.69892" inDis="50" outDis="50" oid="23D973D56D404CB1BBAA92A8378D9EBF" /><Stop Id="0103" routeId="31" nameZh="大坑口" seqNo="43" pgp="0" terminal="0" districtId="1" GoBack="2" latitude="24.16932" longitude="120.69693" inDis="50" outDis="50" oid="7353DFBDE7CA402CB243B9EB78AC48A5" /><Stop Id="5511" routeId="31" nameZh="三光國中" seqNo="44" pgp="0" terminal="0" districtId="1" GoBack="2" latitude="24.1677" longitude="120.69592" inDis="50" outDis="50" oid="726E6A4220304E1D8382C826C92B8BCA" /><Stop Id="0492" routeId="31" nameZh="北屯" seqNo="45" pgp="0" terminal="0" districtId="1" GoBack="2" latitude="24.16527" longitude="120.69435" inDis="50" outDis="50" oid="8D66C0823CB94B1FA8C60FEA8D35FD89" /><Stop Id="5405" routeId="31" nameZh="北屯國小(北屯路)" seqNo="46" pgp="0" terminal="0" districtId="1" GoBack="2" latitude="24.16306" longitude="120.69303" inDis="50" outDis="50" oid="F8C68FA9ECC74B91A0CAED71755EF602" /><Stop Id="0892" routeId="31" nameZh="監理站" seqNo="47" pgp="0" terminal="0" districtId="1" GoBack="2" latitude="24.16089" longitude="120.69211" inDis="50" outDis="50" oid="3382DEDE1BE24C31B33234A3299D6D74" /><Stop Id="0960" routeId="31" nameZh="寶覺寺" seqNo="48" pgp="0" terminal="0" districtId="1" GoBack="2" latitude="24.158" longitude="120.68985" inDis="50" outDis="50" oid="471FEC5CD63E4A648F36E9CB9BD2209C" /><Stop Id="4399" routeId="31" nameZh="新民高中(三民路)" seqNo="49" pgp="0" terminal="0" districtId="1" GoBack="2" latitude="24.15679" longitude="120.68854" inDis="50" outDis="50" oid="5D8465AD704C4BCA9BE028E448E27AA9" /><Stop Id="0934" routeId="31" nameZh="三民錦中街口" seqNo="50" pgp="0" terminal="0" districtId="1" GoBack="2" latitude="24.15556" longitude="120.6871" inDis="50" outDis="50" oid="A369F80BD1F74F92A75B79E3B1367FC9" /><Stop Id="0047" routeId="31" nameZh="一心市場" seqNo="51" pgp="0" terminal="0" districtId="1" GoBack="2" latitude="24.15378" longitude="120.68569" inDis="50" outDis="50" oid="C61571597C6B492B8ADC9237DBB9ECAF" /><Stop Id="0046" routeId="31" nameZh="中友百貨" seqNo="52" pgp="0" terminal="0" districtId="1" GoBack="2" latitude="24.15129" longitude="120.68467" inDis="50" outDis="50" oid="DECC71D306134B6599566738468841EC" /><Stop Id="0045" routeId="31" nameZh="國立臺中科技大學" seqNo="53" pgp="0" terminal="0" districtId="1" GoBack="2" latitude="24.14936" longitude="120.68396" inDis="50" outDis="50" oid="53C0F3A036BD4BA3AE9F0A9D42EE78AB" /><Stop Id="1513" routeId="31" nameZh="中興堂" seqNo="55" pgp="0" terminal="0" districtId="1" GoBack="2" latitude="24.14621" longitude="120.68463" inDis="50" outDis="50" oid="16096" /><Stop Id="4544" routeId="31" nameZh="臺中公園(雙十路)" seqNo="56" pgp="0" terminal="0" districtId="1" GoBack="2" latitude="24.14419" longitude="120.68587" inDis="50" outDis="50" oid="647C7D0AF4404E17A5B3EF2760273201" /><Stop Id="0402" routeId="31" nameZh="干城站" seqNo="57" pgp="0" terminal="0" districtId="1" GoBack="2" latitude="24.14124" longitude="120.68583" inDis="50" outDis="50" oid="EBF8E6E5537E410484A8FEEB69685FE5" /><Stop Id="1824" routeId="31" nameZh="臺中火車站" seqNo="58" pgp="0" terminal="0" districtId="1" GoBack="2" latitude="24.13818" longitude="120.6855" inDis="50" outDis="50" oid="13136" /><Stop Id="0049" routeId="31" nameZh="第三市場" seqNo="59" pgp="0" terminal="0" districtId="1" GoBack="2" latitude="24.13301" longitude="120.68366" inDis="50" outDis="50" oid="319048644" /><Stop Id="0257" routeId="31" nameZh="臺中國小" seqNo="60" pgp="0" terminal="0" districtId="1" GoBack="2" latitude="24.13026" longitude="120.68502" inDis="50" outDis="50" oid="319048643" /><Stop Id="0039" routeId="31" nameZh="建成正氣街口" seqNo="61" pgp="0" terminal="0" districtId="1" GoBack="2" latitude="24.12899" longitude="120.68352" inDis="50" outDis="50" oid="319048645" /><Stop Id="4008" routeId="31" nameZh="靈山寺" seqNo="62" pgp="0" terminal="0" districtId="1" GoBack="2" latitude="24.12765" longitude="120.68024" inDis="50" outDis="50" oid="319048646" /><Stop Id="5075" routeId="31" nameZh="建成學府路口" seqNo="63" pgp="0" terminal="0" districtId="1" GoBack="2" latitude="24.12657" longitude="120.6744" inDis="50" outDis="50" oid="319048647" /><Stop Id="5404" routeId="31" nameZh="公共資訊圖書館(五權南路)" seqNo="64" pgp="0" terminal="0" districtId="1" GoBack="2" latitude="24.12716" longitude="120.66971" inDis="50" outDis="50" oid="319048648" /></BusInfo></BusDynInfo>