[
  {
    "type": "Feature",
    "geometry": {
      "type": "Point",
      "coordinates": [
        120.57674,
        24.22576
      ]
    },
    "properties": {
      "id": "4147",
      "name": "靜宜大學",
      "seq": 1
    }
  },
  {
    "type": "Feature",
    "geometry": {
      "type": "Point",
      "coordinates": [
        120.57823,
        24.22346
      ]
    },
    "properties": {
      "id": "4062",
      "name": "下晉江",
      "seq": 2
    }
  },
  {
    "type": "Feature",
    "geometry": {
      "type": "Point",
      "coordinates": [
        120.57965,
        24.22111
      ]
    },
    "properties": {
      "id": "4111",
      "name": "晉江里",
      "seq": 3
    }
  },
  {
    "type": "Feature",
    "geometry": {
      "type": "Point",
      "coordinates": [
        120.58041,
        24.21735
      ]
    },
    "properties": {
      "id": "4386",
      "name": "弘光科技大學",
      "seq": 4
    }
  },
  {
    "type": "Feature",
    "geometry": {
      "type": "Point",
      "coordinates": [
        120.58078,
        24.21434
      ]
    },
    "properties": {
      "id": "4124",
      "name": "頂六路",
      "seq": 5
    }
  },
  {
    "type": "Feature",
    "geometry": {
      "type": "Point",
      "coordinates": [
        120.58142,
        24.20915
      ]
    },
    "properties": {
      "id": "4136",
      "name": "祿清宮",
      "seq": 6
    }
  },
  {
    "type": "Feature",
    "geometry": {
      "type": "Point",
      "coordinates": [
        120.58064,
        24.19927
      ]
    },
    "properties": {
      "id": "4388",
      "name": "后厝仔",
      "seq": 7
    }
  },
  {
    "type": "Feature",
    "geometry": {
      "type": "Point",
      "coordinates": [
        120.58298,
        24.18753
      ]
    },
    "properties": {
      "id": "4061",
      "name": "下坪頂",
      "seq": 8
    }
  },
  {
    "type": "Feature",
    "geometry": {
      "type": "Point",
      "coordinates": [
        120.58505,
        24.1866
      ]
    },
    "properties": {
      "id": "2325",
      "name": "坪頂",
      "seq": 9
    }
  },
  {
    "type": "Feature",
    "geometry": {
      "type": "Point",
      "coordinates": [
        120.58816,
        24.18523
      ]
    },
    "properties": {
      "id": "5304",
      "name": "東海街口",
      "seq": 10
    }
  },
  {
    "type": "Feature",
    "geometry": {
      "type": "Point",
      "coordinates": [
        120.59128,
        24.1838
      ]
    },
    "properties": {
      "id": "4383",
      "name": "台糖公營學苑",
      "seq": 11
    }
  },
  {
    "type": "Feature",
    "geometry": {
      "type": "Point",
      "coordinates": [
        120.59355,
        24.18267
      ]
    },
    "properties": {
      "id": "0240",
      "name": "東海別墅",
      "seq": 12
    }
  },
  {
    "type": "Feature",
    "geometry": {
      "type": "Point",
      "coordinates": [
        120.59727,
        24.18184
      ]
    },
    "properties": {
      "id": "0526",
      "name": "台中精機",
      "seq": 13
    }
  },
  {
    "type": "Feature",
    "geometry": {
      "type": "Point",
      "coordinates": [
        120.60491,
        24.18349
      ]
    },
    "properties": {
      "id": "5386",
      "name": "臺中榮總(臺灣大道)",
      "seq": 14
    }
  },
  {
    "type": "Feature",
    "geometry": {
      "type": "Point",
      "coordinates": [
        120.60657,
        24.18358
      ]
    },
    "properties": {
      "id": "2378",
      "name": "東大附中",
      "seq": 15
    }
  },
  {
    "type": "Feature",
    "geometry": {
      "type": "Point",
      "coordinates": [
        120.6083,
        24.18401
      ]
    },
    "properties": {
      "id": "0004",
      "name": "普濟寺",
      "seq": 16
    }
  },
  {
    "type": "Feature",
    "geometry": {
      "type": "Point",
      "coordinates": [
        120.61029,
        24.18472
      ]
    },
    "properties": {
      "id": "4335",
      "name": "臺灣大道玉門路口",
      "seq": 17
    }
  },
  {
    "type": "Feature",
    "geometry": {
      "type": "Point",
      "coordinates": [
        120.61257,
        24.18426
      ]
    },
    "properties": {
      "id": "0006",
      "name": "臺中捐血中心",
      "seq": 18
    }
  },
  {
    "type": "Feature",
    "geometry": {
      "type": "Point",
      "coordinates": [
        120.61577,
        24.18271
      ]
    },
    "properties": {
      "id": "0430",
      "name": "中港澄清醫院",
      "seq": 19
    }
  },
  {
    "type": "Feature",
    "geometry": {
      "type": "Point",
      "coordinates": [
        120.61956,
        24.18121
      ]
    },
    "properties": {
      "id": "0008",
      "name": "中港新城",
      "seq": 20
    }
  },
  {
    "type": "Feature",
    "geometry": {
      "type": "Point",
      "coordinates": [
        120.62211,
        24.17938
      ]
    },
    "properties": {
      "id": "3060",
      "name": "統聯轉運站",
      "seq": 21
    }
  },
  {
    "type": "Feature",
    "geometry": {
      "type": "Point",
      "coordinates": [
        120.62374,
        24.1787
      ]
    },
    "properties": {
      "id": "5149",
      "name": "福安里(臺灣大道)",
      "seq": 22
    }
  },
  {
    "type": "Feature",
    "geometry": {
      "type": "Point",
      "coordinates": [
        120.63717,
        24.17059
      ]
    },
    "properties": {
      "id": "0054",
      "name": "朝馬(臺灣大道)",
      "seq": 23
    }
  },
  {
    "type": "Feature",
    "geometry": {
      "type": "Point",
      "coordinates": [
        120.63972,
        24.16843
      ]
    },
    "properties": {
      "id": "0826",
      "name": "秋紅谷(朝陽橋)",
      "seq": 24
    }
  },
  {
    "type": "Feature",
    "geometry": {
      "type": "Point",
      "coordinates": [
        120.64155,
        24.16701
      ]
    },
    "properties": {
      "id": "0015",
      "name": "教師新村",
      "seq": 25
    }
  },
  {
    "type": "Feature",
    "geometry": {
      "type": "Point",
      "coordinates": [
        120.64425,
        24.16532
      ]
    },
    "properties": {
      "id": "0016",
      "name": "新光三越",
      "seq": 26
    }
  },
  {
    "type": "Feature",
    "geometry": {
      "type": "Point",
      "coordinates": [
        120.64815,
        24.16344
      ]
    },
    "properties": {
      "id": "0017",
      "name": "臺中市政府",
      "seq": 27
    }
  },
  {
    "type": "Feature",
    "geometry": {
      "type": "Point",
      "coordinates": [
        120.6502,
        24.16208
      ]
    },
    "properties": {
      "id": "4564",
      "name": "臺灣大道文心路口",
      "seq": 28
    }
  },
  {
    "type": "Feature",
    "geometry": {
      "type": "Point",
      "coordinates": [
        120.65358,
        24.16027
      ]
    },
    "properties": {
      "id": "4566",
      "name": "何厝(臺灣大道)",
      "seq": 29
    }
  },
  {
    "type": "Feature",
    "geometry": {
      "type": "Point",
      "coordinates": [
        120.65687,
        24.15836
      ]
    },
    "properties": {
      "id": "4569",
      "name": "頂何厝(臺灣大道)",
      "seq": 30
    }
  },
  {
    "type": "Feature",
    "geometry": {
      "type": "Point",
      "coordinates": [
        120.65793,
        24.1578
      ]
    },
    "properties": {
      "id": "0087",
      "name": "忠明國小",
      "seq": 31
    }
  },
  {
    "type": "Feature",
    "geometry": {
      "type": "Point",
      "coordinates": [
        120.66207,
        24.15588
      ]
    },
    "properties": {
      "id": "0320",
      "name": "科學博物館(臺灣大道)",
      "seq": 32
    }
  },
  {
    "type": "Feature",
    "geometry": {
      "type": "Point",
      "coordinates": [
        120.66715,
        24.15279
      ]
    },
    "properties": {
      "id": "0419",
      "name": "中正國小",
      "seq": 33
    }
  },
  {
    "type": "Feature",
    "geometry": {
      "type": "Point",
      "coordinates": [
        120.66877,
        24.1516
      ]
    },
    "properties": {
      "id": "4619",
      "name": "臺灣大道民權路口",
      "seq": 34
    }
  },
  {
    "type": "Feature",
    "geometry": {
      "type": "Point",
      "coordinates": [
        120.67157,
        24.14924
      ]
    },
    "properties": {
      "id": "0723",
      "name": "茄苳腳",
      "seq": 35
    }
  },
  {
    "type": "Feature",
    "geometry": {
      "type": "Point",
      "coordinates": [
        120.67463,
        24.14671
      ]
    },
    "properties": {
      "id": "5092",
      "name": "臺灣大道原子街口",
      "seq": 36
    }
  },
  {
    "type": "Feature",
    "geometry": {
      "type": "Point",
      "coordinates": [
        120.67666,
        24.14472
      ]
    },
    "properties": {
      "id": "4375",
      "name": "臺灣大道中華路口",
      "seq": 37
    }
  },
  {
    "type": "Feature",
    "geometry": {
      "type": "Point",
      "coordinates": [
        120.67822,
        24.14366
      ]
    },
    "properties": {
      "id": "4662",
      "name": "仁愛醫院",
      "seq": 38
    }
  },
  {
    "type": "Feature",
    "geometry": {
      "type": "Point",
      "coordinates": [
        120.68009,
        24.14198
      ]
    },
    "properties": {
      "id": "4395",
      "name": "第二市場(臺灣大道)",
      "seq": 39
    }
  },
  {
    "type": "Feature",
    "geometry": {
      "type": "Point",
      "coordinates": [
        120.68254,
        24.13998
      ]
    },
    "properties": {
      "id": "4401",
      "name": "彰化銀行(臺灣大道)",
      "seq": 40
    }
  },
  {
    "type": "Feature",
    "geometry": {
      "type": "Point",
      "coordinates": [
        120.68358,
        24.13897
      ]
    },
    "properties": {
      "id": "0151",
      "name": "第一廣場",
      "seq": 41
    }
  },
  {
    "type": "Feature",
    "geometry": {
      "type": "Point",
      "coordinates": [
        120.6846,
        24.13734
      ]
    },
    "properties": {
      "id": "1824",
      "name": "臺中火車站",
      "seq": 42
    }
  },
  {
    "type": "Feature",
    "geometry": {
      "type": "Point",
      "coordinates": [
        120.68605,
        24.14093
      ]
    },
    "properties": {
      "id": "0402",
      "name": "干城站",
      "seq": 43
    }
  },
  {
    "type": "Feature",
    "geometry": {
      "type": "Point",
      "coordinates": [
        120.68614,
        24.144
      ]
    },
    "properties": {
      "id": "4544",
      "name": "臺中公園(雙十路)",
      "seq": 44
    }
  },
  {
    "type": "Feature",
    "geometry": {
      "type": "Point",
      "coordinates": [
        120.68448,
        24.14626
      ]
    },
    "properties": {
      "id": "1513",
      "name": "中興堂",
      "seq": 45
    }
  },
  {
    "type": "Feature",
    "geometry": {
      "type": "Point",
      "coordinates": [
        120.68403,
        24.14956
      ]
    },
    "properties": {
      "id": "0045",
      "name": "國立臺中科技大學",
      "seq": 46
    }
  },
  {
    "type": "Feature",
    "geometry": {
      "type": "Point",
      "coordinates": [
        120.68517,
        24.15243
      ]
    },
    "properties": {
      "id": "0046",
      "name": "中友百貨",
      "seq": 47
    }
  },
  {
    "type": "Feature",
    "geometry": {
      "type": "Point",
      "coordinates": [
        120.68564,
        24.1563
      ]
    },
    "properties": {
      "id": "0203",
      "name": "市立殯儀館",
      "seq": 48
    }
  },
  {
    "type": "Feature",
    "geometry": {
      "type": "Point",
      "coordinates": [
        120.68736,
        24.15897
      ]
    },
    "properties": {
      "id": "4400",
      "name": "新民高中(健行路)",
      "seq": 49
    }
  },
  {
    "type": "Feature",
    "geometry": {
      "type": "Point",
      "coordinates": [
        120.68736,
        24.15897
      ]
    },
    "properties": {
      "id": "4400",
      "name": "新民高中(健行路)",
      "seq": 1
    }
  },
  {
    "type": "Feature",
    "geometry": {
      "type": "Point",
      "coordinates": [
        120.68989,
        24.15804
      ]
    },
    "properties": {
      "id": "0960",
      "name": "寶覺寺",
      "seq": 2
    }
  },
  {
    "type": "Feature",
    "geometry": {
      "type": "Point",
      "coordinates": [
        120.68848,
        24.15679
      ]
    },
    "properties": {
      "id": "4399",
      "name": "新民高中(三民路)",
      "seq": 3
    }
  },
  {
    "type": "Feature",
    "geometry": {
      "type": "Point",
      "coordinates": [
        120.68573,
        24.15389
      ]
    },
    "properties": {
      "id": "0047",
      "name": "一心市場",
      "seq": 4
    }
  },
  {
    "type": "Feature",
    "geometry": {
      "type": "Point",
      "coordinates": [
        120.68478,
        24.15172
      ]
    },
    "properties": {
      "id": "0046",
      "name": "中友百貨",
      "seq": 5
    }
  },
  {
    "type": "Feature",
    "geometry": {
      "type": "Point",
      "coordinates": [
        120.68403,
        24.14954
      ]
    },
    "properties": {
      "id": "0045",
      "name": "國立臺中科技大學",
      "seq": 6
    }
  },
  {
    "type": "Feature",
    "geometry": {
      "type": "Point",
      "coordinates": [
        120.68463,
        24.14621
      ]
    },
    "properties": {
      "id": "1513",
      "name": "中興堂",
      "seq": 7
    }
  },
  {
    "type": "Feature",
    "geometry": {
      "type": "Point",
      "coordinates": [
        120.68586,
        24.14422
      ]
    },
    "properties": {
      "id": "4544",
      "name": "臺中公園(雙十路)",
      "seq": 8
    }
  },
  {
    "type": "Feature",
    "geometry": {
      "type": "Point",
      "coordinates": [
        120.68576,
        24.1418
      ]
    },
    "properties": {
      "id": "0402",
      "name": "干城站",
      "seq": 9
    }
  },
  {
    "type": "Feature",
    "geometry": {
      "type": "Point",
      "coordinates": [
        120.6845,
        24.13803
      ]
    },
    "properties": {
      "id": "1824",
      "name": "臺中火車站",
      "seq": 10
    }
  },
  {
    "type": "Feature",
    "geometry": {
      "type": "Point",
      "coordinates": [
        120.68358,
        24.13897
      ]
    },
    "properties": {
      "id": "0151",
      "name": "第一廣場",
      "seq": 11
    }
  },
  {
    "type": "Feature",
    "geometry": {
      "type": "Point",
      "coordinates": [
        120.68254,
        24.13998
      ]
    },
    "properties": {
      "id": "4401",
      "name": "彰化銀行(臺灣大道)",
      "seq": 12
    }
  },
  {
    "type": "Feature",
    "geometry": {
      "type": "Point",
      "coordinates": [
        120.68009,
        24.14198
      ]
    },
    "properties": {
      "id": "4395",
      "name": "第二市場(臺灣大道)",
      "seq": 13
    }
  },
  {
    "type": "Feature",
    "geometry": {
      "type": "Point",
      "coordinates": [
        120.67666,
        24.14472
      ]
    },
    "properties": {
      "id": "4375",
      "name": "臺灣大道中華路口",
      "seq": 14
    }
  },
  {
    "type": "Feature",
    "geometry": {
      "type": "Point",
      "coordinates": [
        120.67463,
        24.14671
      ]
    },
    "properties": {
      "id": "5092",
      "name": "臺灣大道原子街口",
      "seq": 15
    }
  },
  {
    "type": "Feature",
    "geometry": {
      "type": "Point",
      "coordinates": [
        120.67148,
        24.14963
      ]
    },
    "properties": {
      "id": "0723",
      "name": "茄苳腳",
      "seq": 16
    }
  },
  {
    "type": "Feature",
    "geometry": {
      "type": "Point",
      "coordinates": [
        120.66941,
        24.1513
      ]
    },
    "properties": {
      "id": "4619",
      "name": "臺灣大道民權路口",
      "seq": 17
    }
  },
  {
    "type": "Feature",
    "geometry": {
      "type": "Point",
      "coordinates": [
        120.66744,
        24.15304
      ]
    },
    "properties": {
      "id": "0419",
      "name": "中正國小",
      "seq": 18
    }
  },
  {
    "type": "Feature",
    "geometry": {
      "type": "Point",
      "coordinates": [
        120.66207,
        24.15588
      ]
    },
    "properties": {
      "id": "0320",
      "name": "科學博物館(臺灣大道)",
      "seq": 19
    }
  },
  {
    "type": "Feature",
    "geometry": {
      "type": "Point",
      "coordinates": [
        120.6585,
        24.15805
      ]
    },
    "properties": {
      "id": "0087",
      "name": "忠明國小",
      "seq": 20
    }
  },
  {
    "type": "Feature",
    "geometry": {
      "type": "Point",
      "coordinates": [
        120.65634,
        24.1592
      ]
    },
    "properties": {
      "id": "4569",
      "name": "頂何厝(臺灣大道)",
      "seq": 21
    }
  },
  {
    "type": "Feature",
    "geometry": {
      "type": "Point",
      "coordinates": [
        120.6542,
        24.16037
      ]
    },
    "properties": {
      "id": "4566",
      "name": "何厝(臺灣大道)",
      "seq": 22
    }
  },
  {
    "type": "Feature",
    "geometry": {
      "type": "Point",
      "coordinates": [
        120.65122,
        24.16189
      ]
    },
    "properties": {
      "id": "4564",
      "name": "臺灣大道文心路口",
      "seq": 23
    }
  },
  {
    "type": "Feature",
    "geometry": {
      "type": "Point",
      "coordinates": [
        120.64703,
        24.16433
      ]
    },
    "properties": {
      "id": "0017",
      "name": "臺中市政府",
      "seq": 24
    }
  },
  {
    "type": "Feature",
    "geometry": {
      "type": "Point",
      "coordinates": [
        120.6443,
        24.16582
      ]
    },
    "properties": {
      "id": "0016",
      "name": "新光三越",
      "seq": 25
    }
  },
  {
    "type": "Feature",
    "geometry": {
      "type": "Point",
      "coordinates": [
        120.64204,
        24.16723
      ]
    },
    "properties": {
      "id": "0015",
      "name": "教師新村",
      "seq": 26
    }
  },
  {
    "type": "Feature",
    "geometry": {
      "type": "Point",
      "coordinates": [
        120.63951,
        24.16882
      ]
    },
    "properties": {
      "id": "0826",
      "name": "秋紅谷(朝陽橋)",
      "seq": 27
    }
  },
  {
    "type": "Feature",
    "geometry": {
      "type": "Point",
      "coordinates": [
        120.63717,
        24.17059
      ]
    },
    "properties": {
      "id": "0054",
      "name": "朝馬(臺灣大道)",
      "seq": 28
    }
  },
  {
    "type": "Feature",
    "geometry": {
      "type": "Point",
      "coordinates": [
        120.62379,
        24.17882
      ]
    },
    "properties": {
      "id": "5149",
      "name": "福安里(臺灣大道)",
      "seq": 29
    }
  },
  {
    "type": "Feature",
    "geometry": {
      "type": "Point",
      "coordinates": [
        120.62195,
        24.18001
      ]
    },
    "properties": {
      "id": "3060",
      "name": "統聯轉運站",
      "seq": 30
    }
  },
  {
    "type": "Feature",
    "geometry": {
      "type": "Point",
      "coordinates": [
        120.62017,
        24.18079
      ]
    },
    "properties": {
      "id": "0008",
      "name": "中港新城",
      "seq": 31
    }
  },
  {
    "type": "Feature",
    "geometry": {
      "type": "Point",
      "coordinates": [
        120.6159,
        24.18301
      ]
    },
    "properties": {
      "id": "0430",
      "name": "中港澄清醫院",
      "seq": 32
    }
  },
  {
    "type": "Feature",
    "geometry": {
      "type": "Point",
      "coordinates": [
        120.6129,
        24.18443
      ]
    },
    "properties": {
      "id": "0006",
      "name": "臺中捐血中心",
      "seq": 33
    }
  },
  {
    "type": "Feature",
    "geometry": {
      "type": "Point",
      "coordinates": [
        120.61029,
        24.18472
      ]
    },
    "properties": {
      "id": "4335",
      "name": "臺灣大道玉門路口",
      "seq": 34
    }
  },
  {
    "type": "Feature",
    "geometry": {
      "type": "Point",
      "coordinates": [
        120.60838,
        24.18431
      ]
    },
    "properties": {
      "id": "0004",
      "name": "普濟寺",
      "seq": 35
    }
  },
  {
    "type": "Feature",
    "geometry": {
      "type": "Point",
      "coordinates": [
        120.60653,
        24.18385
      ]
    },
    "properties": {
      "id": "2378",
      "name": "東大附中",
      "seq": 36
    }
  },
  {
    "type": "Feature",
    "geometry": {
      "type": "Point",
      "coordinates": [
        120.60491,
        24.18349
      ]
    },
    "properties": {
      "id": "5386",
      "name": "臺中榮總(臺灣大道)",
      "seq": 37
    }
  },
  {
    "type": "Feature",
    "geometry": {
      "type": "Point",
      "coordinates": [
        120.59748,
        24.18216
      ]
    },
    "properties": {
      "id": "0526",
      "name": "台中精機",
      "seq": 38
    }
  },
  {
    "type": "Feature",
    "geometry": {
      "type": "Point",
      "coordinates": [
        120.59371,
        24.18296
      ]
    },
    "properties": {
      "id": "0240",
      "name": "東海別墅",
      "seq": 39
    }
  },
  {
    "type": "Feature",
    "geometry": {
      "type": "Point",
      "coordinates": [
        120.59125,
        24.18367
      ]
    },
    "properties": {
      "id": "4383",
      "name": "台糖公營學苑",
      "seq": 40
    }
  },
  {
    "type": "Feature",
    "geometry": {
      "type": "Point",
      "coordinates": [
        120.58816,
        24.18523
      ]
    },
    "properties": {
      "id": "5304",
      "name": "東海街口",
      "seq": 41
    }
  },
  {
    "type": "Feature",
    "geometry": {
      "type": "Point",
      "coordinates": [
        120.58613,
        24.1858
      ]
    },
    "properties": {
      "id": "2325",
      "name": "坪頂",
      "seq": 42
    }
  },
  {
    "type": "Feature",
    "geometry": {
      "type": "Point",
      "coordinates": [
        120.5829,
        24.18729
      ]
    },
    "properties": {
      "id": "4061",
      "name": "下坪頂",
      "seq": 43
    }
  },
  {
    "type": "Feature",
    "geometry": {
      "type": "Point",
      "coordinates": [
        120.58064,
        24.19927
      ]
    },
    "properties": {
      "id": "4388",
      "name": "后厝仔",
      "seq": 44
    }
  },
  {
    "type": "Feature",
    "geometry": {
      "type": "Point",
      "coordinates": [
        120.58154,
        24.21034
      ]
    },
    "properties": {
      "id": "4136",
      "name": "祿清宮",
      "seq": 45
    }
  },
  {
    "type": "Feature",
    "geometry": {
      "type": "Point",
      "coordinates": [
        120.58103,
        24.21321
      ]
    },
    "properties": {
      "id": "4124",
      "name": "頂六路",
      "seq": 46
    }
  },
  {
    "type": "Feature",
    "geometry": {
      "type": "Point",
      "coordinates": [
        120.58048,
        24.21757
      ]
    },
    "properties": {
      "id": "4386",
      "name": "弘光科技大學",
      "seq": 47
    }
  },
  {
    "type": "Feature",
    "geometry": {
      "type": "Point",
      "coordinates": [
        120.5796,
        24.22133
      ]
    },
    "properties": {
      "id": "4111",
      "name": "晉江里",
      "seq": 48
    }
  },
  {
    "type": "Feature",
    "geometry": {
      "type": "Point",
      "coordinates": [
        120.57834,
        24.22331
      ]
    },
    "properties": {
      "id": "4062",
      "name": "下晉江",
      "seq": 49
    }
  },
  {
    "type": "Feature",
    "geometry": {
      "type": "Point",
      "coordinates": [
        120.57674,
        24.22576
      ]
    },
    "properties": {
      "id": "4147",
      "name": "靜宜大學",
      "seq": 50
    }
  }
]
