<?xml version="1.0" encoding="UTF-8" standalone="yes"?>
<BusDynInfo><EssentialInfo><Location><name>TCBUS</name><CenterName>Maxwin</CenterName></Location><UpdateTime>2014-12-20 08:28:44</UpdateTime><CoordinateSystem/></EssentialInfo>
<BusInfo><Stop Id="2428" routeId="266" nameZh="東勢" seqNo="1" pgp="0" terminal="0" districtId="1" GoBack="1" latitude="24.25839" longitude="120.82786" inDis="50" outDis="50" oid="8008" /><Stop Id="2570" routeId="266" nameZh="南平里" seqNo="2" pgp="0" terminal="0" districtId="1" GoBack="1" latitude="24.25515" longitude="120.82934" inDis="50" outDis="80" oid="5987" /><Stop Id="1415" routeId="266" nameZh="中嵙口" seqNo="3" pgp="0" terminal="0" districtId="1" GoBack="1" latitude="24.25251" longitude="120.83003" inDis="50" outDis="80" oid="5302" /><Stop Id="4409" routeId="266" nameZh="東勢南站" seqNo="4" pgp="0" terminal="0" districtId="1" GoBack="1" latitude="24.24998" longitude="120.83063" inDis="50" outDis="80" oid="5889" /><Stop Id="2002" routeId="266" nameZh="石角口" seqNo="5" pgp="0" terminal="0" districtId="1" GoBack="1" latitude="24.24803" longitude="120.83189" inDis="50" outDis="80" oid="5654" /><Stop Id="0312" routeId="266" nameZh="新盛里(東勢高工)" seqNo="6" pgp="0" terminal="0" districtId="1" GoBack="1" latitude="24.24339" longitude="120.83329" inDis="50" outDis="50" oid="13647" /><Stop Id="2229" routeId="266" nameZh="尾社" seqNo="7" pgp="0" terminal="0" districtId="1" GoBack="1" latitude="24.23876" longitude="120.83439" inDis="50" outDis="50" oid="5784" /><Stop Id="1107" routeId="266" nameZh="三鑫公司" seqNo="8" pgp="0" terminal="0" districtId="1" GoBack="1" latitude="24.23498" longitude="120.83546" inDis="50" outDis="50" oid="7903" /><Stop Id="4466" routeId="266" nameZh="東關福山路口" seqNo="9" pgp="0" terminal="0" districtId="1" GoBack="1" latitude="24.23179" longitude="120.83637" inDis="50" outDis="50" oid="6543" /><Stop Id="3391" routeId="266" nameZh="新伯公" seqNo="10" pgp="0" terminal="0" districtId="1" GoBack="1" latitude="24.22845" longitude="120.83723" inDis="50" outDis="50" oid="6427" /><Stop Id="3329" routeId="266" nameZh="詒新" seqNo="11" pgp="0" terminal="0" districtId="1" GoBack="1" latitude="24.22503" longitude="120.83827" inDis="50" outDis="50" oid="8061" /><Stop Id="1167" routeId="266" nameZh="下城里" seqNo="12" pgp="0" terminal="0" districtId="1" GoBack="1" latitude="24.22229" longitude="120.83849" inDis="50" outDis="50" oid="7909" /><Stop Id="1238" routeId="266" nameZh="上城里" seqNo="13" pgp="0" terminal="0" districtId="1" GoBack="1" latitude="24.21803" longitude="120.83825" inDis="50" outDis="50" oid="5183" /><Stop Id="3828" routeId="266" nameZh="頭汴角" seqNo="14" pgp="0" terminal="0" districtId="1" GoBack="1" latitude="24.21252" longitude="120.83881" inDis="50" outDis="50" oid="8096" /><Stop Id="2118" routeId="266" nameZh="成功新村" seqNo="15" pgp="0" terminal="0" districtId="1" GoBack="1" latitude="24.20619" longitude="120.83937" inDis="50" outDis="50" oid="5725" /><Stop Id="1326" routeId="266" nameZh="大茅埔" seqNo="16" pgp="0" terminal="0" districtId="1" GoBack="1" latitude="24.20401" longitude="120.83965" inDis="50" outDis="50" oid="7924" /><Stop Id="3730" routeId="266" nameZh="慶福里" seqNo="17" pgp="0" terminal="0" districtId="1" GoBack="1" latitude="24.19282" longitude="120.83925" inDis="50" outDis="50" oid="6598" /><Stop Id="1170" routeId="266" nameZh="下段" seqNo="18" pgp="0" terminal="0" districtId="1" GoBack="1" latitude="24.18874" longitude="120.84023" inDis="50" outDis="50" oid="7910" /><Stop Id="1239" routeId="266" nameZh="上段" seqNo="19" pgp="0" terminal="0" districtId="1" GoBack="1" latitude="24.184" longitude="120.84056" inDis="50" outDis="50" oid="5184" /><Stop Id="1722" routeId="266" nameZh="水簡頭" seqNo="20" pgp="0" terminal="0" districtId="1" GoBack="1" latitude="24.17564" longitude="120.83894" inDis="50" outDis="50" oid="7944" /><Stop Id="5424" routeId="266" nameZh="龍安橋頭" seqNo="21" pgp="0" terminal="0" districtId="1" GoBack="1" latitude="24.16952" longitude="120.83501" inDis="50" outDis="50" oid="313288974" /><Stop Id="5425" routeId="266" nameZh="龍安" seqNo="22" pgp="0" terminal="0" districtId="1" GoBack="1" latitude="24.16412" longitude="120.83518" inDis="50" outDis="50" oid="313288975" /><Stop Id="5426" routeId="266" nameZh="河排" seqNo="23" pgp="0" terminal="0" districtId="1" GoBack="1" latitude="24.15531" longitude="120.85416" inDis="50" outDis="50" oid="313288979" /><Stop Id="5427" routeId="266" nameZh="福天宮" seqNo="24" pgp="0" terminal="0" districtId="1" GoBack="1" latitude="24.15605" longitude="120.86207" inDis="50" outDis="50" oid="313288980" /><Stop Id="3673" routeId="266" nameZh="福興里" seqNo="25" pgp="0" terminal="0" districtId="1" GoBack="1" latitude="24.15851" longitude="120.86571" inDis="50" outDis="50" oid="313288981" /><Stop Id="3673" routeId="266" nameZh="福興橋" seqNo="26" pgp="0" terminal="0" districtId="1" GoBack="1" latitude="24.16045" longitude="120.86212" inDis="50" outDis="50" oid="313348331" /><Stop Id="1627" routeId="266" nameZh="天冷" seqNo="27" pgp="0" terminal="0" districtId="1" GoBack="1" latitude="24.16097" longitude="120.8604" inDis="50" outDis="50" oid="5432" /><Stop Id="1287" routeId="266" nameZh="大同橋" seqNo="28" pgp="0" terminal="0" districtId="1" GoBack="1" latitude="24.16457" longitude="120.86339" inDis="50" outDis="50" oid="7920" /><Stop Id="3887" routeId="266" nameZh="燥坑" seqNo="29" pgp="0" terminal="0" districtId="1" GoBack="1" latitude="24.16719" longitude="120.86698" inDis="50" outDis="50" oid="8099" /><Stop Id="2312" routeId="266" nameZh="和合" seqNo="30" pgp="0" terminal="0" districtId="1" GoBack="1" latitude="24.16944" longitude="120.86967" inDis="50" outDis="50" oid="5838" /><Stop Id="4464" routeId="266" nameZh="東關和榮路口" seqNo="31" pgp="0" terminal="0" districtId="1" GoBack="1" latitude="24.17065" longitude="120.87264" inDis="50" outDis="50" oid="7997" /><Stop Id="1864" routeId="266" nameZh="外和平" seqNo="32" pgp="0" terminal="0" districtId="1" GoBack="1" latitude="24.17319" longitude="120.87776" inDis="50" outDis="50" oid="5586" /><Stop Id="2307" routeId="266" nameZh="和平" seqNo="33" pgp="0" terminal="0" districtId="1" GoBack="1" latitude="24.17506" longitude="120.88207" inDis="50" outDis="50" oid="7992" /><Stop Id="5043" routeId="266" nameZh="和平區農會" seqNo="34" pgp="0" terminal="0" districtId="1" GoBack="1" latitude="24.17472" longitude="120.88386" inDis="50" outDis="50" oid="13673" /><Stop Id="4463" routeId="266" nameZh="和平衛生所" seqNo="35" pgp="0" terminal="0" districtId="1" GoBack="1" latitude="24.17389" longitude="120.88895" inDis="50" outDis="50" oid="6610" /><Stop Id="0128" routeId="266" nameZh="和平國小" seqNo="36" pgp="0" terminal="0" districtId="1" GoBack="1" latitude="24.17177" longitude="120.89539" inDis="50" outDis="50" oid="5833" /><Stop Id="2611" routeId="266" nameZh="南勢(東關路)" seqNo="37" pgp="0" terminal="0" districtId="1" GoBack="1" latitude="24.16919" longitude="120.89688" inDis="50" outDis="50" oid="6013" /><Stop Id="1141" routeId="266" nameZh="下白鹿" seqNo="38" pgp="0" terminal="0" districtId="1" GoBack="1" latitude="24.16919" longitude="120.90418" inDis="50" outDis="50" oid="7908" /><Stop Id="1998" routeId="266" nameZh="白鹿橋頭" seqNo="39" pgp="0" terminal="0" districtId="1" GoBack="1" latitude="24.17542" longitude="120.9095" inDis="50" outDis="50" oid="7969" /><Stop Id="5747" routeId="266" nameZh="馬鞍壩" seqNo="40" pgp="0" terminal="0" districtId="1" GoBack="1" latitude="24.18374" longitude="120.91257" inDis="50" outDis="50" oid="320569662" /><Stop Id="4003" routeId="266" nameZh="鐵線橋頭" seqNo="41" pgp="0" terminal="0" districtId="1" GoBack="1" latitude="24.18705" longitude="120.91939" inDis="50" outDis="50" oid="6736" /><Stop Id="1997" routeId="266" nameZh="白冷" seqNo="42" pgp="0" terminal="0" districtId="1" GoBack="1" latitude="24.1838" longitude="120.92426" inDis="50" outDis="50" oid="5649" /><Stop Id="1633" routeId="266" nameZh="天輪" seqNo="43" pgp="0" terminal="0" districtId="1" GoBack="1" latitude="24.17859" longitude="120.92889" inDis="50" outDis="50" oid="303690759" /><Stop Id="1634" routeId="266" nameZh="天輪新村" seqNo="44" pgp="0" terminal="0" districtId="1" GoBack="1" latitude="24.1755" longitude="120.93122" inDis="50" outDis="50" oid="5436" /><Stop Id="1358" routeId="266" nameZh="大道院" seqNo="45" pgp="0" terminal="0" districtId="1" GoBack="1" latitude="24.17067" longitude="120.9414" inDis="50" outDis="50" oid="7926" /><Stop Id="3564" routeId="266" nameZh="裡冷" seqNo="46" pgp="0" terminal="0" districtId="1" GoBack="1" latitude="24.16679" longitude="120.94867" inDis="50" outDis="50" oid="8080" /><Stop Id="1265" routeId="266" nameZh="土場" seqNo="47" pgp="0" terminal="0" districtId="1" GoBack="1" latitude="24.16915" longitude="120.95499" inDis="50" outDis="50" oid="7919" /><Stop Id="1188" routeId="266" nameZh="下博愛" seqNo="48" pgp="0" terminal="0" districtId="1" GoBack="1" latitude="24.16843" longitude="120.95944" inDis="50" outDis="50" oid="5144" /><Stop Id="2477" routeId="266" nameZh="武漢技訓中心" seqNo="49" pgp="0" terminal="0" districtId="1" GoBack="1" latitude="24.17199" longitude="120.96393" inDis="50" outDis="50" oid="12293" /><Stop Id="3210" routeId="266" nameZh="博愛" seqNo="50" pgp="0" terminal="0" districtId="1" GoBack="1" latitude="24.17443" longitude="120.97265" inDis="50" outDis="50" oid="6326" /><Stop Id="2468" routeId="266" nameZh="松鶴" seqNo="51" pgp="0" terminal="0" districtId="1" GoBack="1" latitude="24.17936" longitude="120.97911" inDis="50" outDis="50" oid="8011" /><Stop Id="3984" routeId="266" nameZh="麗陽" seqNo="52" pgp="0" terminal="0" districtId="1" GoBack="1" latitude="24.18691" longitude="120.98943" inDis="50" outDis="50" oid="6728" /><Stop Id="4665" routeId="266" nameZh="中麗陽" seqNo="53" pgp="0" terminal="0" districtId="1" GoBack="1" latitude="24.18831" longitude="120.99045" inDis="50" outDis="50" oid="5511" /><Stop Id="1251" routeId="266" nameZh="上麗陽" seqNo="54" pgp="0" terminal="0" districtId="1" GoBack="1" latitude="24.19404" longitude="120.99456" inDis="50" outDis="50" oid="7917" /><Stop Id="1041" routeId="266" nameZh="十文溪" seqNo="55" pgp="0" terminal="0" districtId="1" GoBack="1" latitude="24.19807" longitude="121.00015" inDis="50" outDis="50" oid="7898" /><Stop Id="2290" routeId="266" nameZh="佳保臺" seqNo="56" pgp="0" terminal="0" districtId="1" GoBack="1" latitude="24.2009" longitude="121.00157" inDis="50" outDis="50" oid="5818" /><Stop Id="3852" routeId="266" nameZh="龍谷樂園" seqNo="57" pgp="0" terminal="0" districtId="1" GoBack="1" latitude="24.20283" longitude="121.00436" inDis="50" outDis="50" oid="6655" /><Stop Id="2274" routeId="266" nameZh="谷關" seqNo="58" pgp="0" terminal="0" districtId="1" GoBack="1" latitude="24.20299" longitude="121.00817" inDis="80" outDis="80" oid="5808" /><Stop Id="2274" routeId="266" nameZh="谷關" seqNo="1" pgp="0" terminal="0" districtId="1" GoBack="2" latitude="24.20299" longitude="121.00817" inDis="80" outDis="80" oid="5808" /><Stop Id="3852" routeId="266" nameZh="龍谷樂園" seqNo="2" pgp="0" terminal="0" districtId="1" GoBack="2" latitude="24.20283" longitude="121.00436" inDis="50" outDis="50" oid="6655" /><Stop Id="2290" routeId="266" nameZh="佳保臺" seqNo="3" pgp="0" terminal="0" districtId="1" GoBack="2" latitude="24.2009" longitude="121.00157" inDis="50" outDis="50" oid="5818" /><Stop Id="1041" routeId="266" nameZh="十文溪" seqNo="4" pgp="0" terminal="0" districtId="1" GoBack="2" latitude="24.19807" longitude="121.00015" inDis="50" outDis="50" oid="7898" /><Stop Id="1251" routeId="266" nameZh="上麗陽" seqNo="5" pgp="0" terminal="0" districtId="1" GoBack="2" latitude="24.19404" longitude="120.99456" inDis="50" outDis="50" oid="7917" /><Stop Id="4665" routeId="266" nameZh="中麗陽" seqNo="6" pgp="0" terminal="0" districtId="1" GoBack="2" latitude="24.18831" longitude="120.99045" inDis="50" outDis="50" oid="5511" /><Stop Id="3984" routeId="266" nameZh="麗陽" seqNo="7" pgp="0" terminal="0" districtId="1" GoBack="2" latitude="24.18691" longitude="120.98943" inDis="50" outDis="50" oid="6728" /><Stop Id="2468" routeId="266" nameZh="松鶴" seqNo="8" pgp="0" terminal="0" districtId="1" GoBack="2" latitude="24.17936" longitude="120.97911" inDis="50" outDis="50" oid="8011" /><Stop Id="3210" routeId="266" nameZh="博愛" seqNo="9" pgp="0" terminal="0" districtId="1" GoBack="2" latitude="24.17443" longitude="120.97265" inDis="50" outDis="50" oid="6326" /><Stop Id="2477" routeId="266" nameZh="武漢技訓中心" seqNo="10" pgp="0" terminal="0" districtId="1" GoBack="2" latitude="24.17199" longitude="120.96393" inDis="50" outDis="50" oid="12293" /><Stop Id="1188" routeId="266" nameZh="下博愛" seqNo="11" pgp="0" terminal="0" districtId="1" GoBack="2" latitude="24.16843" longitude="120.95944" inDis="50" outDis="50" oid="5144" /><Stop Id="1265" routeId="266" nameZh="土場" seqNo="12" pgp="0" terminal="0" districtId="1" GoBack="2" latitude="24.16915" longitude="120.95499" inDis="50" outDis="50" oid="7919" /><Stop Id="3564" routeId="266" nameZh="裡冷" seqNo="13" pgp="0" terminal="0" districtId="1" GoBack="2" latitude="24.16679" longitude="120.94867" inDis="50" outDis="50" oid="8080" /><Stop Id="1358" routeId="266" nameZh="大道院" seqNo="14" pgp="0" terminal="0" districtId="1" GoBack="2" latitude="24.17067" longitude="120.9414" inDis="50" outDis="50" oid="7926" /><Stop Id="1634" routeId="266" nameZh="天輪新村" seqNo="15" pgp="0" terminal="0" districtId="1" GoBack="2" latitude="24.1755" longitude="120.93122" inDis="50" outDis="50" oid="5436" /><Stop Id="1633" routeId="266" nameZh="天輪" seqNo="16" pgp="0" terminal="0" districtId="1" GoBack="2" latitude="24.17859" longitude="120.92889" inDis="50" outDis="50" oid="303690759" /><Stop Id="1997" routeId="266" nameZh="白冷" seqNo="17" pgp="0" terminal="0" districtId="1" GoBack="2" latitude="24.1838" longitude="120.92426" inDis="50" outDis="50" oid="5649" /><Stop Id="4003" routeId="266" nameZh="鐵線橋頭" seqNo="18" pgp="0" terminal="0" districtId="1" GoBack="2" latitude="24.18705" longitude="120.91939" inDis="50" outDis="50" oid="6736" /><Stop Id="5747" routeId="266" nameZh="馬鞍壩" seqNo="19" pgp="0" terminal="0" districtId="1" GoBack="2" latitude="24.18374" longitude="120.91257" inDis="50" outDis="50" oid="320569662" /><Stop Id="1998" routeId="266" nameZh="白鹿橋頭" seqNo="20" pgp="0" terminal="0" districtId="1" GoBack="2" latitude="24.17542" longitude="120.9095" inDis="50" outDis="50" oid="7969" /><Stop Id="1141" routeId="266" nameZh="下白鹿" seqNo="21" pgp="0" terminal="0" districtId="1" GoBack="2" latitude="24.16919" longitude="120.90418" inDis="50" outDis="50" oid="7908" /><Stop Id="2611" routeId="266" nameZh="南勢(東關路)" seqNo="22" pgp="0" terminal="0" districtId="1" GoBack="2" latitude="24.16919" longitude="120.89688" inDis="50" outDis="50" oid="6013" /><Stop Id="0128" routeId="266" nameZh="和平國小" seqNo="23" pgp="0" terminal="0" districtId="1" GoBack="2" latitude="24.17177" longitude="120.89539" inDis="50" outDis="50" oid="5833" /><Stop Id="4463" routeId="266" nameZh="和平衛生所" seqNo="24" pgp="0" terminal="0" districtId="1" GoBack="2" latitude="24.17389" longitude="120.88895" inDis="50" outDis="50" oid="6610" /><Stop Id="5043" routeId="266" nameZh="和平區農會" seqNo="25" pgp="0" terminal="0" districtId="1" GoBack="2" latitude="24.17472" longitude="120.88386" inDis="50" outDis="50" oid="13673" /><Stop Id="2307" routeId="266" nameZh="和平" seqNo="26" pgp="0" terminal="0" districtId="1" GoBack="2" latitude="24.17506" longitude="120.88207" inDis="50" outDis="50" oid="7992" /><Stop Id="1864" routeId="266" nameZh="外和平" seqNo="27" pgp="0" terminal="0" districtId="1" GoBack="2" latitude="24.17319" longitude="120.87776" inDis="50" outDis="50" oid="5586" /><Stop Id="4464" routeId="266" nameZh="東關和榮路口" seqNo="28" pgp="0" terminal="0" districtId="1" GoBack="2" latitude="24.17065" longitude="120.87264" inDis="50" outDis="50" oid="7997" /><Stop Id="2312" routeId="266" nameZh="和合" seqNo="29" pgp="0" terminal="0" districtId="1" GoBack="2" latitude="24.16944" longitude="120.86967" inDis="50" outDis="50" oid="5838" /><Stop Id="2428" routeId="266" nameZh="東勢" seqNo="30" pgp="0" terminal="0" districtId="1" GoBack="2" latitude="24.25839" longitude="120.82786" inDis="50" outDis="50" oid="8008" /><Stop Id="3887" routeId="266" nameZh="燥坑" seqNo="31" pgp="0" terminal="0" districtId="1" GoBack="2" latitude="24.16719" longitude="120.86698" inDis="50" outDis="50" oid="8099" /><Stop Id="1287" routeId="266" nameZh="大同橋" seqNo="32" pgp="0" terminal="0" districtId="1" GoBack="2" latitude="24.16457" longitude="120.86339" inDis="50" outDis="50" oid="7920" /><Stop Id="1627" routeId="266" nameZh="天冷" seqNo="33" pgp="0" terminal="0" districtId="1" GoBack="2" latitude="24.16097" longitude="120.8604" inDis="50" outDis="50" oid="5432" /><Stop Id="3673" routeId="266" nameZh="福興橋" seqNo="34" pgp="0" terminal="0" districtId="1" GoBack="2" latitude="24.16045" longitude="120.86212" inDis="50" outDis="50" oid="313348331" /><Stop Id="3673" routeId="266" nameZh="福興里" seqNo="35" pgp="0" terminal="0" districtId="1" GoBack="2" latitude="24.15851" longitude="120.86571" inDis="50" outDis="50" oid="313288981" /><Stop Id="5427" routeId="266" nameZh="福天宮" seqNo="36" pgp="0" terminal="0" districtId="1" GoBack="2" latitude="24.15605" longitude="120.86207" inDis="50" outDis="50" oid="313288980" /><Stop Id="5426" routeId="266" nameZh="河排" seqNo="37" pgp="0" terminal="0" districtId="1" GoBack="2" latitude="24.15531" longitude="120.85416" inDis="50" outDis="50" oid="313288979" /><Stop Id="5425" routeId="266" nameZh="龍安" seqNo="38" pgp="0" terminal="0" districtId="1" GoBack="2" latitude="24.16412" longitude="120.83518" inDis="50" outDis="50" oid="313288975" /><Stop Id="5424" routeId="266" nameZh="龍安橋頭" seqNo="39" pgp="0" terminal="0" districtId="1" GoBack="2" latitude="24.16952" longitude="120.83501" inDis="50" outDis="50" oid="313288974" /><Stop Id="1722" routeId="266" nameZh="水簡頭" seqNo="40" pgp="0" terminal="0" districtId="1" GoBack="2" latitude="24.17564" longitude="120.83894" inDis="50" outDis="50" oid="7944" /><Stop Id="1239" routeId="266" nameZh="上段" seqNo="41" pgp="0" terminal="0" districtId="1" GoBack="2" latitude="24.184" longitude="120.84056" inDis="50" outDis="50" oid="5184" /><Stop Id="1170" routeId="266" nameZh="下段" seqNo="42" pgp="0" terminal="0" districtId="1" GoBack="2" latitude="24.18874" longitude="120.84023" inDis="50" outDis="50" oid="7910" /><Stop Id="3730" routeId="266" nameZh="慶福里" seqNo="43" pgp="0" terminal="0" districtId="1" GoBack="2" latitude="24.19282" longitude="120.83925" inDis="50" outDis="50" oid="6598" /><Stop Id="1326" routeId="266" nameZh="大茅埔" seqNo="44" pgp="0" terminal="0" districtId="1" GoBack="2" latitude="24.20401" longitude="120.83965" inDis="50" outDis="50" oid="7924" /><Stop Id="2118" routeId="266" nameZh="成功新村" seqNo="45" pgp="0" terminal="0" districtId="1" GoBack="2" latitude="24.20619" longitude="120.83937" inDis="50" outDis="50" oid="5725" /><Stop Id="3828" routeId="266" nameZh="頭汴角" seqNo="46" pgp="0" terminal="0" districtId="1" GoBack="2" latitude="24.21252" longitude="120.83881" inDis="50" outDis="50" oid="8096" /><Stop Id="1238" routeId="266" nameZh="上城里" seqNo="47" pgp="0" terminal="0" districtId="1" GoBack="2" latitude="24.21803" longitude="120.83825" inDis="50" outDis="50" oid="5183" /><Stop Id="1167" routeId="266" nameZh="下城里" seqNo="48" pgp="0" terminal="0" districtId="1" GoBack="2" latitude="24.22229" longitude="120.83849" inDis="50" outDis="50" oid="7909" /><Stop Id="3329" routeId="266" nameZh="詒新" seqNo="49" pgp="0" terminal="0" districtId="1" GoBack="2" latitude="24.22503" longitude="120.83827" inDis="50" outDis="50" oid="8061" /><Stop Id="3391" routeId="266" nameZh="新伯公" seqNo="50" pgp="0" terminal="0" districtId="1" GoBack="2" latitude="24.22845" longitude="120.83723" inDis="50" outDis="50" oid="6427" /><Stop Id="4466" routeId="266" nameZh="東關福山路口" seqNo="51" pgp="0" terminal="0" districtId="1" GoBack="2" latitude="24.23179" longitude="120.83637" inDis="50" outDis="50" oid="6543" /><Stop Id="1107" routeId="266" nameZh="三鑫公司" seqNo="52" pgp="0" terminal="0" districtId="1" GoBack="2" latitude="24.23498" longitude="120.83546" inDis="50" outDis="50" oid="7903" /><Stop Id="2229" routeId="266" nameZh="尾社" seqNo="53" pgp="0" terminal="0" districtId="1" GoBack="2" latitude="24.23876" longitude="120.83439" inDis="50" outDis="50" oid="5784" /><Stop Id="0312" routeId="266" nameZh="新盛里(東勢高工)" seqNo="54" pgp="0" terminal="0" districtId="1" GoBack="2" latitude="24.24339" longitude="120.83329" inDis="50" outDis="50" oid="13647" /><Stop Id="2002" routeId="266" nameZh="石角口" seqNo="55" pgp="0" terminal="0" districtId="1" GoBack="2" latitude="24.24803" longitude="120.83189" inDis="50" outDis="80" oid="5654" /><Stop Id="4409" routeId="266" nameZh="東勢南站" seqNo="56" pgp="0" terminal="0" districtId="1" GoBack="2" latitude="24.24998" longitude="120.83063" inDis="50" outDis="80" oid="5889" /><Stop Id="1415" routeId="266" nameZh="中嵙口" seqNo="57" pgp="0" terminal="0" districtId="1" GoBack="2" latitude="24.25251" longitude="120.83003" inDis="50" outDis="80" oid="5302" /><Stop Id="2570" routeId="266" nameZh="南平里" seqNo="58" pgp="0" terminal="0" districtId="1" GoBack="2" latitude="24.25515" longitude="120.82934" inDis="50" outDis="80" oid="5987" /></BusInfo></BusDynInfo>