[
  {
    "type": "Feature",
    "geometry": {
      "type": "Point",
      "coordinates": [
        120.68052,
        24.19575
      ]
    },
    "properties": {
      "id": "4690",
      "name": "四張犁圖書館",
      "seq": 1
    }
  },
  {
    "type": "Feature",
    "geometry": {
      "type": "Point",
      "coordinates": [
        120.68511,
        24.18162
      ]
    },
    "properties": {
      "id": "4330",
      "name": "松竹崇德路口",
      "seq": 10
    }
  },
  {
    "type": "Feature",
    "geometry": {
      "type": "Point",
      "coordinates": [
        120.68232,
        24.18197
      ]
    },
    "properties": {
      "id": "4331",
      "name": "松竹梅川東路口",
      "seq": 11
    }
  },
  {
    "type": "Feature",
    "geometry": {
      "type": "Point",
      "coordinates": [
        120.67681,
        24.18556
      ]
    },
    "properties": {
      "id": "4691",
      "name": "四平松竹路口",
      "seq": 12
    }
  },
  {
    "type": "Feature",
    "geometry": {
      "type": "Point",
      "coordinates": [
        120.67566,
        24.18346
      ]
    },
    "properties": {
      "id": "4322",
      "name": "衛道中學",
      "seq": 13
    }
  },
  {
    "type": "Feature",
    "geometry": {
      "type": "Point",
      "coordinates": [
        120.67369,
        24.18176
      ]
    },
    "properties": {
      "id": "1554",
      "name": "仁愛公園",
      "seq": 14
    }
  },
  {
    "type": "Feature",
    "geometry": {
      "type": "Point",
      "coordinates": [
        120.67177,
        24.18003
      ]
    },
    "properties": {
      "id": "4323",
      "name": "仁愛國小",
      "seq": 15
    }
  },
  {
    "type": "Feature",
    "geometry": {
      "type": "Point",
      "coordinates": [
        120.67028,
        24.17815
      ]
    },
    "properties": {
      "id": "4324",
      "name": "仁愛社區",
      "seq": 16
    }
  },
  {
    "type": "Feature",
    "geometry": {
      "type": "Point",
      "coordinates": [
        120.66827,
        24.17819
      ]
    },
    "properties": {
      "id": "5099",
      "name": "水湳市場(大鵬路)",
      "seq": 17
    }
  },
  {
    "type": "Feature",
    "geometry": {
      "type": "Point",
      "coordinates": [
        120.66462,
        24.17735
      ]
    },
    "properties": {
      "id": "4325",
      "name": "大鵬國小",
      "seq": 18
    }
  },
  {
    "type": "Feature",
    "geometry": {
      "type": "Point",
      "coordinates": [
        120.6629,
        24.17645
      ]
    },
    "properties": {
      "id": "4719",
      "name": "中平長安路口",
      "seq": 19
    }
  },
  {
    "type": "Feature",
    "geometry": {
      "type": "Point",
      "coordinates": [
        120.68236,
        24.19454
      ]
    },
    "properties": {
      "id": "0542",
      "name": "四民頂街",
      "seq": 2
    }
  },
  {
    "type": "Feature",
    "geometry": {
      "type": "Point",
      "coordinates": [
        120.66154,
        24.17454
      ]
    },
    "properties": {
      "id": "4326",
      "name": "皇城社區",
      "seq": 20
    }
  },
  {
    "type": "Feature",
    "geometry": {
      "type": "Point",
      "coordinates": [
        120.6608,
        24.17262
      ]
    },
    "properties": {
      "id": "4332",
      "name": "河南長安路口",
      "seq": 21
    }
  },
  {
    "type": "Feature",
    "geometry": {
      "type": "Point",
      "coordinates": [
        120.65978,
        24.17516
      ]
    },
    "properties": {
      "id": "4159",
      "name": "河南福上巷口",
      "seq": 22
    }
  },
  {
    "type": "Feature",
    "geometry": {
      "type": "Point",
      "coordinates": [
        120.65722,
        24.17626
      ]
    },
    "properties": {
      "id": "0233",
      "name": "家扶發展學園",
      "seq": 23
    }
  },
  {
    "type": "Feature",
    "geometry": {
      "type": "Point",
      "coordinates": [
        120.6509,
        24.17588
      ]
    },
    "properties": {
      "id": "0234",
      "name": "河南停車場",
      "seq": 24
    }
  },
  {
    "type": "Feature",
    "geometry": {
      "type": "Point",
      "coordinates": [
        120.6494,
        24.17516
      ]
    },
    "properties": {
      "id": "4333",
      "name": "河南福星路口",
      "seq": 25
    }
  },
  {
    "type": "Feature",
    "geometry": {
      "type": "Point",
      "coordinates": [
        120.64544,
        24.17608
      ]
    },
    "properties": {
      "id": "0112",
      "name": "福星停車場",
      "seq": 26
    }
  },
  {
    "type": "Feature",
    "geometry": {
      "type": "Point",
      "coordinates": [
        120.64506,
        24.17904
      ]
    },
    "properties": {
      "id": "4586",
      "name": "逢甲大學(福星路)",
      "seq": 27
    }
  },
  {
    "type": "Feature",
    "geometry": {
      "type": "Point",
      "coordinates": [
        120.64503,
        24.1815
      ]
    },
    "properties": {
      "id": "4334",
      "name": "福星西安街口",
      "seq": 28
    }
  },
  {
    "type": "Feature",
    "geometry": {
      "type": "Point",
      "coordinates": [
        120.64473,
        24.18387
      ]
    },
    "properties": {
      "id": "5658",
      "name": "漢翔公司(星享道)",
      "seq": 29
    }
  },
  {
    "type": "Feature",
    "geometry": {
      "type": "Point",
      "coordinates": [
        120.68206,
        24.19242
      ]
    },
    "properties": {
      "id": "5374",
      "name": "四張犁(后庄路)",
      "seq": 3
    }
  },
  {
    "type": "Feature",
    "geometry": {
      "type": "Point",
      "coordinates": [
        120.64451,
        24.18662
      ]
    },
    "properties": {
      "id": "4327",
      "name": "僑光科技大學",
      "seq": 30
    }
  },
  {
    "type": "Feature",
    "geometry": {
      "type": "Point",
      "coordinates": [
        120.64035,
        24.18632
      ]
    },
    "properties": {
      "id": "2192",
      "name": "西苑高中",
      "seq": 31
    }
  },
  {
    "type": "Feature",
    "geometry": {
      "type": "Point",
      "coordinates": [
        120.63813,
        24.18118
      ]
    },
    "properties": {
      "id": "2175",
      "name": "西屯派出所",
      "seq": 32
    }
  },
  {
    "type": "Feature",
    "geometry": {
      "type": "Point",
      "coordinates": [
        120.63751,
        24.17964
      ]
    },
    "properties": {
      "id": "5853",
      "name": "黎明福科路口",
      "seq": 33
    }
  },
  {
    "type": "Feature",
    "geometry": {
      "type": "Point",
      "coordinates": [
        120.63747,
        24.17667
      ]
    },
    "properties": {
      "id": "0238",
      "name": "西屯郵局",
      "seq": 34
    }
  },
  {
    "type": "Feature",
    "geometry": {
      "type": "Point",
      "coordinates": [
        120.63692,
        24.17183
      ]
    },
    "properties": {
      "id": "0013",
      "name": "朝馬(黎明路)",
      "seq": 35
    }
  },
  {
    "type": "Feature",
    "geometry": {
      "type": "Point",
      "coordinates": [
        120.62485,
        24.17849
      ]
    },
    "properties": {
      "id": "5149",
      "name": "福安里(臺灣大道)",
      "seq": 36
    }
  },
  {
    "type": "Feature",
    "geometry": {
      "type": "Point",
      "coordinates": [
        120.62124,
        24.18017
      ]
    },
    "properties": {
      "id": "3060",
      "name": "統聯轉運站",
      "seq": 37
    }
  },
  {
    "type": "Feature",
    "geometry": {
      "type": "Point",
      "coordinates": [
        120.61946,
        24.18099
      ]
    },
    "properties": {
      "id": "0008",
      "name": "中港新城",
      "seq": 38
    }
  },
  {
    "type": "Feature",
    "geometry": {
      "type": "Point",
      "coordinates": [
        120.61581,
        24.18277
      ]
    },
    "properties": {
      "id": "0430",
      "name": "中港澄清醫院",
      "seq": 39
    }
  },
  {
    "type": "Feature",
    "geometry": {
      "type": "Point",
      "coordinates": [
        120.68258,
        24.19203
      ]
    },
    "properties": {
      "id": "0541",
      "name": "四民市場",
      "seq": 4
    }
  },
  {
    "type": "Feature",
    "geometry": {
      "type": "Point",
      "coordinates": [
        120.61239,
        24.18435
      ]
    },
    "properties": {
      "id": "0006",
      "name": "臺中捐血中心",
      "seq": 40
    }
  },
  {
    "type": "Feature",
    "geometry": {
      "type": "Point",
      "coordinates": [
        120.61001,
        24.18436
      ]
    },
    "properties": {
      "id": "4335",
      "name": "臺灣大道玉門路口",
      "seq": 41
    }
  },
  {
    "type": "Feature",
    "geometry": {
      "type": "Point",
      "coordinates": [
        120.60796,
        24.18397
      ]
    },
    "properties": {
      "id": "0004",
      "name": "普濟寺",
      "seq": 42
    }
  },
  {
    "type": "Feature",
    "geometry": {
      "type": "Point",
      "coordinates": [
        120.60643,
        24.18351
      ]
    },
    "properties": {
      "id": "2378",
      "name": "東大附中",
      "seq": 43
    }
  },
  {
    "type": "Feature",
    "geometry": {
      "type": "Point",
      "coordinates": [
        120.60491,
        24.18349
      ]
    },
    "properties": {
      "id": "5386",
      "name": "臺中榮總(臺灣大道)",
      "seq": 44
    }
  },
  {
    "type": "Feature",
    "geometry": {
      "type": "Point",
      "coordinates": [
        120.59873,
        24.1819
      ]
    },
    "properties": {
      "id": "0526",
      "name": "台中精機",
      "seq": 45
    }
  },
  {
    "type": "Feature",
    "geometry": {
      "type": "Point",
      "coordinates": [
        120.59424,
        24.18244
      ]
    },
    "properties": {
      "id": "0240",
      "name": "東海別墅",
      "seq": 46
    }
  },
  {
    "type": "Feature",
    "geometry": {
      "type": "Point",
      "coordinates": [
        120.59125,
        24.18367
      ]
    },
    "properties": {
      "id": "4383",
      "name": "台糖公營學苑",
      "seq": 47
    }
  },
  {
    "type": "Feature",
    "geometry": {
      "type": "Point",
      "coordinates": [
        120.58788,
        24.1853
      ]
    },
    "properties": {
      "id": "5304",
      "name": "東海街口",
      "seq": 48
    }
  },
  {
    "type": "Feature",
    "geometry": {
      "type": "Point",
      "coordinates": [
        120.58603,
        24.186
      ]
    },
    "properties": {
      "id": "2325",
      "name": "坪頂",
      "seq": 49
    }
  },
  {
    "type": "Feature",
    "geometry": {
      "type": "Point",
      "coordinates": [
        120.68392,
        24.19141
      ]
    },
    "properties": {
      "id": "5892",
      "name": "仁美里(昌平路)",
      "seq": 5
    }
  },
  {
    "type": "Feature",
    "geometry": {
      "type": "Point",
      "coordinates": [
        120.686,
        24.18917
      ]
    },
    "properties": {
      "id": "0698",
      "name": "南四張犁",
      "seq": 6
    }
  },
  {
    "type": "Feature",
    "geometry": {
      "type": "Point",
      "coordinates": [
        120.68622,
        24.18756
      ]
    },
    "properties": {
      "id": "2958",
      "name": "崇德九路口",
      "seq": 7
    }
  },
  {
    "type": "Feature",
    "geometry": {
      "type": "Point",
      "coordinates": [
        120.68631,
        24.18507
      ]
    },
    "properties": {
      "id": "1393",
      "name": "崇德山西路口",
      "seq": 8
    }
  },
  {
    "type": "Feature",
    "geometry": {
      "type": "Point",
      "coordinates": [
        120.6861,
        24.18266
      ]
    },
    "properties": {
      "id": "0194",
      "name": "北屯區行政大樓",
      "seq": 9
    }
  }
]
