<?xml version="1.0" encoding="UTF-8" standalone="yes"?>
<BusDynInfo><EssentialInfo><Location><name>TCBUS</name><CenterName>Maxwin</CenterName></Location><UpdateTime>2014-12-20 08:14:13</UpdateTime><CoordinateSystem/></EssentialInfo>
<BusInfo><Stop Id="3935" routeId="206" nameZh="豐原" seqNo="1" pgp="0" terminal="0" districtId="1" GoBack="1" latitude="24.2538" longitude="120.72154" inDis="70" outDis="70" oid="6693" /><Stop Id="3157" routeId="206" nameZh="頂街" seqNo="2" pgp="0" terminal="0" districtId="1" GoBack="1" latitude="24.25229" longitude="120.7212" inDis="50" outDis="50" oid="13609" /><Stop Id="4203" routeId="206" nameZh="新都酒店" seqNo="3" pgp="0" terminal="0" districtId="1" GoBack="1" latitude="24.25221" longitude="120.72394" inDis="50" outDis="50" oid="6447" /><Stop Id="4408" routeId="206" nameZh="豐原老人會館" seqNo="4" pgp="0" terminal="0" districtId="1" GoBack="1" latitude="24.25219" longitude="120.72603" inDis="50" outDis="50" oid="5744" /><Stop Id="4457" routeId="206" nameZh="向陽圓環東路口" seqNo="5" pgp="0" terminal="0" districtId="1" GoBack="1" latitude="24.25133" longitude="120.72786" inDis="50" outDis="50" oid="6393" /><Stop Id="5544" routeId="206" nameZh="葫蘆墩文化中心" seqNo="6" pgp="0" terminal="0" districtId="1" GoBack="1" latitude="24.25299" longitude="120.72976" inDis="50" outDis="50" oid="316462696" /><Stop Id="4478" routeId="206" nameZh="圓環東水源路口" seqNo="7" pgp="0" terminal="0" districtId="1" GoBack="1" latitude="24.25577" longitude="120.72983" inDis="50" outDis="50" oid="5488" /><Stop Id="4407" routeId="206" nameZh="永豐原紙廠" seqNo="8" pgp="0" terminal="0" districtId="1" GoBack="1" latitude="24.2587" longitude="120.73227" inDis="50" outDis="50" oid="5626" /><Stop Id="2843" routeId="206" nameZh="翁子" seqNo="9" pgp="0" terminal="0" districtId="1" GoBack="1" latitude="24.26058" longitude="120.73593" inDis="50" outDis="50" oid="6144" /><Stop Id="2844" routeId="206" nameZh="翁子保養場" seqNo="10" pgp="0" terminal="0" districtId="1" GoBack="1" latitude="24.26226" longitude="120.73947" inDis="50" outDis="50" oid="6145" /><Stop Id="2845" routeId="206" nameZh="翁子國小" seqNo="11" pgp="0" terminal="0" districtId="1" GoBack="1" latitude="24.26379" longitude="120.74277" inDis="50" outDis="50" oid="6146" /><Stop Id="1806" routeId="206" nameZh="半張" seqNo="12" pgp="0" terminal="0" districtId="1" GoBack="1" latitude="24.26517" longitude="120.74564" inDis="50" outDis="50" oid="5541" /><Stop Id="4490" routeId="206" nameZh="豐勢國豐路口" seqNo="13" pgp="0" terminal="0" districtId="1" GoBack="1" latitude="24.2678" longitude="120.74924" inDis="50" outDis="50" oid="5728" /><Stop Id="4412" routeId="206" nameZh="國家教育研究院" seqNo="14" pgp="0" terminal="0" districtId="1" GoBack="1" latitude="24.27084" longitude="120.75175" inDis="50" outDis="50" oid="6196" /><Stop Id="2128" routeId="206" nameZh="朴子口" seqNo="15" pgp="0" terminal="0" districtId="1" GoBack="1" latitude="24.27345" longitude="120.75398" inDis="50" outDis="50" oid="5729" /><Stop Id="4454" routeId="206" nameZh="民安" seqNo="16" pgp="0" terminal="0" districtId="1" GoBack="1" latitude="24.27507" longitude="120.75652" inDis="50" outDis="50" oid="6472" /><Stop Id="2947" routeId="206" nameZh="埤頭" seqNo="17" pgp="0" terminal="0" districtId="1" GoBack="1" latitude="24.27657" longitude="120.75916" inDis="50" outDis="50" oid="6184" /><Stop Id="2005" routeId="206" nameZh="石岡水壩" seqNo="18" pgp="0" terminal="0" districtId="1" GoBack="1" latitude="24.27812" longitude="120.76675" inDis="50" outDis="50" oid="5658" /><Stop Id="2337" routeId="206" nameZh="岡尾" seqNo="19" pgp="0" terminal="0" districtId="1" GoBack="1" latitude="24.27755" longitude="120.7719" inDis="50" outDis="50" oid="5848" /><Stop Id="2004" routeId="206" nameZh="石岡" seqNo="20" pgp="0" terminal="0" districtId="1" GoBack="1" latitude="24.27653" longitude="120.77635" inDis="50" outDis="50" oid="5657" /><Stop Id="4456" routeId="206" nameZh="石岡區公所" seqNo="21" pgp="0" terminal="0" districtId="1" GoBack="1" latitude="24.27492" longitude="120.78075" inDis="50" outDis="50" oid="5659" /><Stop Id="0992" routeId="206" nameZh="九房厝" seqNo="22" pgp="0" terminal="0" districtId="1" GoBack="1" latitude="24.27447" longitude="120.78428" inDis="50" outDis="50" oid="5029" /><Stop Id="2983" routeId="206" nameZh="情人木橋" seqNo="23" pgp="0" terminal="0" districtId="1" GoBack="1" latitude="24.27386" longitude="120.78874" inDis="50" outDis="50" oid="6194" /><Stop Id="2496" routeId="206" nameZh="社寮角" seqNo="24" pgp="0" terminal="0" districtId="1" GoBack="1" latitude="24.2726" longitude="120.79172" inDis="50" outDis="50" oid="5947" /><Stop Id="3440" routeId="206" nameZh="新豐冷凍" seqNo="25" pgp="0" terminal="0" districtId="1" GoBack="1" latitude="24.27049" longitude="120.79646" inDis="50" outDis="50" oid="6460" /><Stop Id="3003" routeId="206" nameZh="梅子" seqNo="26" pgp="0" terminal="0" districtId="1" GoBack="1" latitude="24.26864" longitude="120.80127" inDis="50" outDis="50" oid="6213" /><Stop Id="2357" routeId="206" nameZh="明山寺" seqNo="27" pgp="0" terminal="0" districtId="1" GoBack="1" latitude="24.26745" longitude="120.80419" inDis="50" outDis="50" oid="5865" /><Stop Id="1114" routeId="206" nameZh="下土牛" seqNo="28" pgp="0" terminal="0" districtId="1" GoBack="1" latitude="24.26608" longitude="120.80692" inDis="50" outDis="50" oid="5101" /><Stop Id="3074" routeId="206" nameZh="連厝" seqNo="29" pgp="0" terminal="0" districtId="1" GoBack="1" latitude="24.26398" longitude="120.81019" inDis="50" outDis="50" oid="6268" /><Stop Id="3728" routeId="206" nameZh="德興里" seqNo="30" pgp="0" terminal="0" districtId="1" GoBack="1" latitude="24.26237" longitude="120.8127" inDis="50" outDis="50" oid="6595" /><Stop Id="4430" routeId="206" nameZh="土牛(豐勢路)" seqNo="31" pgp="0" terminal="0" districtId="1" GoBack="1" latitude="24.26021" longitude="120.81608" inDis="50" outDis="50" oid="5198" /><Stop Id="4415" routeId="206" nameZh="東勢游泳池" seqNo="32" pgp="0" terminal="0" districtId="1" GoBack="1" latitude="24.26119" longitude="120.82456" inDis="50" outDis="50" oid="304371955" /><Stop Id="2428" routeId="206" nameZh="東勢" seqNo="33" pgp="0" terminal="0" districtId="1" GoBack="1" latitude="24.25838" longitude="120.82784" inDis="50" outDis="80" oid="5899" /><Stop Id="2570" routeId="206" nameZh="南平里" seqNo="34" pgp="0" terminal="0" districtId="1" GoBack="1" latitude="24.25515" longitude="120.82934" inDis="50" outDis="80" oid="5987" /><Stop Id="1415" routeId="206" nameZh="中嵙口" seqNo="35" pgp="0" terminal="0" districtId="1" GoBack="1" latitude="24.25251" longitude="120.83003" inDis="50" outDis="80" oid="5302" /><Stop Id="4409" routeId="206" nameZh="東勢南站" seqNo="36" pgp="0" terminal="0" districtId="1" GoBack="1" latitude="24.24998" longitude="120.83063" inDis="50" outDis="80" oid="5889" /><Stop Id="2002" routeId="206" nameZh="石角口" seqNo="37" pgp="0" terminal="0" districtId="1" GoBack="1" latitude="24.24803" longitude="120.83189" inDis="50" outDis="80" oid="5654" /><Stop Id="0312" routeId="206" nameZh="新盛里(東勢高工)" seqNo="38" pgp="0" terminal="0" districtId="1" GoBack="1" latitude="24.24339" longitude="120.83329" inDis="50" outDis="50" oid="13647" /><Stop Id="0312" routeId="206" nameZh="新盛里(東勢高工)" seqNo="1" pgp="0" terminal="0" districtId="1" GoBack="2" latitude="24.24339" longitude="120.83329" inDis="50" outDis="50" oid="13647" /><Stop Id="2002" routeId="206" nameZh="石角口" seqNo="2" pgp="0" terminal="0" districtId="1" GoBack="2" latitude="24.24803" longitude="120.83189" inDis="50" outDis="80" oid="5654" /><Stop Id="4409" routeId="206" nameZh="東勢南站" seqNo="3" pgp="0" terminal="0" districtId="1" GoBack="2" latitude="24.24998" longitude="120.83063" inDis="50" outDis="80" oid="5889" /><Stop Id="1415" routeId="206" nameZh="中嵙口" seqNo="4" pgp="0" terminal="0" districtId="1" GoBack="2" latitude="24.25251" longitude="120.83003" inDis="50" outDis="80" oid="5302" /><Stop Id="2570" routeId="206" nameZh="南平里" seqNo="5" pgp="0" terminal="0" districtId="1" GoBack="2" latitude="24.25515" longitude="120.82934" inDis="50" outDis="80" oid="5987" /><Stop Id="2428" routeId="206" nameZh="東勢" seqNo="6" pgp="0" terminal="0" districtId="1" GoBack="2" latitude="24.25838" longitude="120.82784" inDis="50" outDis="80" oid="5899" /><Stop Id="4500" routeId="206" nameZh="東勢老人會館" seqNo="7" pgp="0" terminal="0" districtId="1" GoBack="2" latitude="24.26098" longitude="120.8272" inDis="50" outDis="80" oid="5745" /><Stop Id="2434" routeId="206" nameZh="東新國中" seqNo="8" pgp="0" terminal="0" districtId="1" GoBack="2" latitude="24.26256" longitude="120.82676" inDis="50" outDis="80" oid="5905" /><Stop Id="4494" routeId="206" nameZh="新豐新寧街口" seqNo="9" pgp="0" terminal="0" districtId="1" GoBack="2" latitude="24.26264" longitude="120.82464" inDis="50" outDis="50" oid="6462" /><Stop Id="4430" routeId="206" nameZh="土牛(豐勢路)" seqNo="10" pgp="0" terminal="0" districtId="1" GoBack="2" latitude="24.26021" longitude="120.81608" inDis="50" outDis="50" oid="5198" /><Stop Id="3728" routeId="206" nameZh="德興里" seqNo="11" pgp="0" terminal="0" districtId="1" GoBack="2" latitude="24.26237" longitude="120.8127" inDis="50" outDis="50" oid="6595" /><Stop Id="3074" routeId="206" nameZh="連厝" seqNo="12" pgp="0" terminal="0" districtId="1" GoBack="2" latitude="24.26398" longitude="120.81019" inDis="50" outDis="50" oid="6268" /><Stop Id="1114" routeId="206" nameZh="下土牛" seqNo="13" pgp="0" terminal="0" districtId="1" GoBack="2" latitude="24.26608" longitude="120.80692" inDis="50" outDis="50" oid="5101" /><Stop Id="2357" routeId="206" nameZh="明山寺" seqNo="14" pgp="0" terminal="0" districtId="1" GoBack="2" latitude="24.26745" longitude="120.80419" inDis="50" outDis="50" oid="5865" /><Stop Id="3003" routeId="206" nameZh="梅子" seqNo="15" pgp="0" terminal="0" districtId="1" GoBack="2" latitude="24.26864" longitude="120.80127" inDis="50" outDis="50" oid="6213" /><Stop Id="3440" routeId="206" nameZh="新豐冷凍" seqNo="16" pgp="0" terminal="0" districtId="1" GoBack="2" latitude="24.27049" longitude="120.79646" inDis="50" outDis="50" oid="6460" /><Stop Id="2496" routeId="206" nameZh="社寮角" seqNo="17" pgp="0" terminal="0" districtId="1" GoBack="2" latitude="24.2726" longitude="120.79172" inDis="50" outDis="50" oid="5947" /><Stop Id="2983" routeId="206" nameZh="情人木橋" seqNo="18" pgp="0" terminal="0" districtId="1" GoBack="2" latitude="24.27386" longitude="120.78874" inDis="50" outDis="50" oid="6194" /><Stop Id="0992" routeId="206" nameZh="九房厝" seqNo="19" pgp="0" terminal="0" districtId="1" GoBack="2" latitude="24.27447" longitude="120.78428" inDis="50" outDis="50" oid="5029" /><Stop Id="4456" routeId="206" nameZh="石岡區公所" seqNo="20" pgp="0" terminal="0" districtId="1" GoBack="2" latitude="24.27492" longitude="120.78075" inDis="50" outDis="50" oid="5659" /><Stop Id="2004" routeId="206" nameZh="石岡" seqNo="21" pgp="0" terminal="0" districtId="1" GoBack="2" latitude="24.27653" longitude="120.77635" inDis="50" outDis="50" oid="5657" /><Stop Id="2337" routeId="206" nameZh="岡尾" seqNo="22" pgp="0" terminal="0" districtId="1" GoBack="2" latitude="24.27755" longitude="120.7719" inDis="50" outDis="50" oid="5848" /><Stop Id="2005" routeId="206" nameZh="石岡水壩" seqNo="23" pgp="0" terminal="0" districtId="1" GoBack="2" latitude="24.27812" longitude="120.76675" inDis="50" outDis="50" oid="5658" /><Stop Id="2947" routeId="206" nameZh="埤頭" seqNo="24" pgp="0" terminal="0" districtId="1" GoBack="2" latitude="24.27657" longitude="120.75916" inDis="50" outDis="50" oid="6184" /><Stop Id="4454" routeId="206" nameZh="民安" seqNo="25" pgp="0" terminal="0" districtId="1" GoBack="2" latitude="24.27507" longitude="120.75652" inDis="50" outDis="50" oid="6472" /><Stop Id="2128" routeId="206" nameZh="朴子口" seqNo="26" pgp="0" terminal="0" districtId="1" GoBack="2" latitude="24.27345" longitude="120.75398" inDis="50" outDis="50" oid="5729" /><Stop Id="4412" routeId="206" nameZh="國家教育研究院" seqNo="27" pgp="0" terminal="0" districtId="1" GoBack="2" latitude="24.27084" longitude="120.75175" inDis="50" outDis="50" oid="6196" /><Stop Id="4490" routeId="206" nameZh="豐勢國豐路口" seqNo="28" pgp="0" terminal="0" districtId="1" GoBack="2" latitude="24.2678" longitude="120.74924" inDis="50" outDis="50" oid="5728" /><Stop Id="1806" routeId="206" nameZh="半張" seqNo="29" pgp="0" terminal="0" districtId="1" GoBack="2" latitude="24.26517" longitude="120.74564" inDis="50" outDis="50" oid="5541" /><Stop Id="2845" routeId="206" nameZh="翁子國小" seqNo="30" pgp="0" terminal="0" districtId="1" GoBack="2" latitude="24.26379" longitude="120.74277" inDis="50" outDis="50" oid="6146" /><Stop Id="2844" routeId="206" nameZh="翁子保養場" seqNo="31" pgp="0" terminal="0" districtId="1" GoBack="2" latitude="24.26226" longitude="120.73947" inDis="50" outDis="50" oid="6145" /><Stop Id="2843" routeId="206" nameZh="翁子" seqNo="32" pgp="0" terminal="0" districtId="1" GoBack="2" latitude="24.26058" longitude="120.73593" inDis="50" outDis="50" oid="6144" /><Stop Id="4407" routeId="206" nameZh="永豐原紙廠" seqNo="33" pgp="0" terminal="0" districtId="1" GoBack="2" latitude="24.2587" longitude="120.73227" inDis="50" outDis="50" oid="5626" /><Stop Id="4478" routeId="206" nameZh="圓環東水源路口" seqNo="34" pgp="0" terminal="0" districtId="1" GoBack="2" latitude="24.25577" longitude="120.72983" inDis="50" outDis="50" oid="5488" /><Stop Id="5544" routeId="206" nameZh="葫蘆墩文化中心" seqNo="35" pgp="0" terminal="0" districtId="1" GoBack="2" latitude="24.25299" longitude="120.72976" inDis="50" outDis="50" oid="316462696" /><Stop Id="4457" routeId="206" nameZh="向陽圓環東路口" seqNo="36" pgp="0" terminal="0" districtId="1" GoBack="2" latitude="24.25133" longitude="120.72786" inDis="50" outDis="50" oid="6393" /><Stop Id="4408" routeId="206" nameZh="豐原老人會館" seqNo="37" pgp="0" terminal="0" districtId="1" GoBack="2" latitude="24.25219" longitude="120.72603" inDis="50" outDis="50" oid="5744" /><Stop Id="4203" routeId="206" nameZh="新都酒店" seqNo="38" pgp="0" terminal="0" districtId="1" GoBack="2" latitude="24.25221" longitude="120.72394" inDis="50" outDis="50" oid="6447" /><Stop Id="2309" routeId="206" nameZh="和平街" seqNo="39" pgp="0" terminal="0" districtId="1" GoBack="2" latitude="24.25233" longitude="120.71986" inDis="50" outDis="50" oid="5834" /><Stop Id="3935" routeId="206" nameZh="豐原" seqNo="40" pgp="0" terminal="0" districtId="1" GoBack="2" latitude="24.2538" longitude="120.72154" inDis="70" outDis="70" oid="6693" /></BusInfo></BusDynInfo>