[
  {
    "type": "Feature",
    "geometry": {
      "type": "Point",
      "coordinates": [
        120.61704,
        24.11188
      ]
    },
    "properties": {
      "id": "2907",
      "name": "高鐵臺中站",
      "seq": 1
    }
  },
  {
    "type": "Feature",
    "geometry": {
      "type": "Point",
      "coordinates": [
        120.64182,
        24.10901
      ]
    },
    "properties": {
      "id": "0994",
      "name": "九張犁",
      "seq": 10
    }
  },
  {
    "type": "Feature",
    "geometry": {
      "type": "Point",
      "coordinates": [
        120.64588,
        24.11023
      ]
    },
    "properties": {
      "id": "3790",
      "name": "樹仔腳",
      "seq": 11
    }
  },
  {
    "type": "Feature",
    "geometry": {
      "type": "Point",
      "coordinates": [
        120.64744,
        24.11089
      ]
    },
    "properties": {
      "id": "5195",
      "name": "復興環中路口",
      "seq": 12
    }
  },
  {
    "type": "Feature",
    "geometry": {
      "type": "Point",
      "coordinates": [
        120.6512,
        24.11225
      ]
    },
    "properties": {
      "id": "3330",
      "name": "勤工派出所",
      "seq": 13
    }
  },
  {
    "type": "Feature",
    "geometry": {
      "type": "Point",
      "coordinates": [
        120.65422,
        24.11444
      ]
    },
    "properties": {
      "id": "4536",
      "name": "復興大慶街口",
      "seq": 14
    }
  },
  {
    "type": "Feature",
    "geometry": {
      "type": "Point",
      "coordinates": [
        120.65591,
        24.11565
      ]
    },
    "properties": {
      "id": "0130",
      "name": "樹義里",
      "seq": 15
    }
  },
  {
    "type": "Feature",
    "geometry": {
      "type": "Point",
      "coordinates": [
        120.65818,
        24.11751
      ]
    },
    "properties": {
      "id": "4538",
      "name": "臺中高工(復興路)",
      "seq": 16
    }
  },
  {
    "type": "Feature",
    "geometry": {
      "type": "Point",
      "coordinates": [
        120.65942,
        24.11898
      ]
    },
    "properties": {
      "id": "5870",
      "name": "宜寧中學(復興路)",
      "seq": 17
    }
  },
  {
    "type": "Feature",
    "geometry": {
      "type": "Point",
      "coordinates": [
        120.66133,
        24.12141
      ]
    },
    "properties": {
      "id": "0128",
      "name": "和平國小",
      "seq": 18
    }
  },
  {
    "type": "Feature",
    "geometry": {
      "type": "Point",
      "coordinates": [
        120.66303,
        24.12392
      ]
    },
    "properties": {
      "id": "3395",
      "name": "復興新和街口",
      "seq": 19
    }
  },
  {
    "type": "Feature",
    "geometry": {
      "type": "Point",
      "coordinates": [
        120.66576,
        24.12702
      ]
    },
    "properties": {
      "id": "0543",
      "name": "四育國中",
      "seq": 20
    }
  },
  {
    "type": "Feature",
    "geometry": {
      "type": "Point",
      "coordinates": [
        120.66837,
        24.12838
      ]
    },
    "properties": {
      "id": "5478",
      "name": "高等法院臺中分院",
      "seq": 21
    }
  },
  {
    "type": "Feature",
    "geometry": {
      "type": "Point",
      "coordinates": [
        120.67196,
        24.12985
      ]
    },
    "properties": {
      "id": "5393",
      "name": "公共資訊圖書館(復興路)",
      "seq": 22
    }
  },
  {
    "type": "Feature",
    "geometry": {
      "type": "Point",
      "coordinates": [
        120.67469,
        24.13108
      ]
    },
    "properties": {
      "id": "0178",
      "name": "第三分局",
      "seq": 23
    }
  },
  {
    "type": "Feature",
    "geometry": {
      "type": "Point",
      "coordinates": [
        120.6764,
        24.13182
      ]
    },
    "properties": {
      "id": "4604",
      "name": "復興有恆街口",
      "seq": 24
    }
  },
  {
    "type": "Feature",
    "geometry": {
      "type": "Point",
      "coordinates": [
        120.67877,
        24.1328
      ]
    },
    "properties": {
      "id": "0180",
      "name": "林祖厝",
      "seq": 25
    }
  },
  {
    "type": "Feature",
    "geometry": {
      "type": "Point",
      "coordinates": [
        120.67994,
        24.13317
      ]
    },
    "properties": {
      "id": "1659",
      "name": "文化創意園區",
      "seq": 26
    }
  },
  {
    "type": "Feature",
    "geometry": {
      "type": "Point",
      "coordinates": [
        120.68241,
        24.13421
      ]
    },
    "properties": {
      "id": "0518",
      "name": "臺中酒廠(復興路)",
      "seq": 27
    }
  },
  {
    "type": "Feature",
    "geometry": {
      "type": "Point",
      "coordinates": [
        120.68456,
        24.13798
      ]
    },
    "properties": {
      "id": "1824",
      "name": "臺中火車站",
      "seq": 28
    }
  },
  {
    "type": "Feature",
    "geometry": {
      "type": "Point",
      "coordinates": [
        120.68261,
        24.13989
      ]
    },
    "properties": {
      "id": "4401",
      "name": "彰化銀行(臺灣大道)",
      "seq": 29
    }
  },
  {
    "type": "Feature",
    "geometry": {
      "type": "Point",
      "coordinates": [
        120.61759,
        24.1064
      ]
    },
    "properties": {
      "id": "5818",
      "name": "烏日國中(中山路)",
      "seq": 3
    }
  },
  {
    "type": "Feature",
    "geometry": {
      "type": "Point",
      "coordinates": [
        120.68001,
        24.14205
      ]
    },
    "properties": {
      "id": "4395",
      "name": "第二市場(臺灣大道)",
      "seq": 30
    }
  },
  {
    "type": "Feature",
    "geometry": {
      "type": "Point",
      "coordinates": [
        120.67694,
        24.14477
      ]
    },
    "properties": {
      "id": "4375",
      "name": "臺灣大道中華路口",
      "seq": 31
    }
  },
  {
    "type": "Feature",
    "geometry": {
      "type": "Point",
      "coordinates": [
        120.67529,
        24.14614
      ]
    },
    "properties": {
      "id": "5092",
      "name": "臺灣大道原子街口",
      "seq": 32
    }
  },
  {
    "type": "Feature",
    "geometry": {
      "type": "Point",
      "coordinates": [
        120.67218,
        24.149
      ]
    },
    "properties": {
      "id": "0723",
      "name": "茄苳腳",
      "seq": 34
    }
  },
  {
    "type": "Feature",
    "geometry": {
      "type": "Point",
      "coordinates": [
        120.6705,
        24.15167
      ]
    },
    "properties": {
      "id": "5103",
      "name": "民權臺灣大道口",
      "seq": 35
    }
  },
  {
    "type": "Feature",
    "geometry": {
      "type": "Point",
      "coordinates": [
        120.67034,
        24.15371
      ]
    },
    "properties": {
      "id": "0263",
      "name": "英才公園",
      "seq": 36
    }
  },
  {
    "type": "Feature",
    "geometry": {
      "type": "Point",
      "coordinates": [
        120.66926,
        24.1551
      ]
    },
    "properties": {
      "id": "0264",
      "name": "淡溝里",
      "seq": 37
    }
  },
  {
    "type": "Feature",
    "geometry": {
      "type": "Point",
      "coordinates": [
        120.66716,
        24.15807
      ]
    },
    "properties": {
      "id": "4318",
      "name": "植物園(西屯路)",
      "seq": 38
    }
  },
  {
    "type": "Feature",
    "geometry": {
      "type": "Point",
      "coordinates": [
        120.66609,
        24.15952
      ]
    },
    "properties": {
      "id": "4574",
      "name": "西屯健行路口",
      "seq": 39
    }
  },
  {
    "type": "Feature",
    "geometry": {
      "type": "Point",
      "coordinates": [
        120.62193,
        24.1065
      ]
    },
    "properties": {
      "id": "5819",
      "name": "烏日(中山路)",
      "seq": 4
    }
  },
  {
    "type": "Feature",
    "geometry": {
      "type": "Point",
      "coordinates": [
        120.66486,
        24.16122
      ]
    },
    "properties": {
      "id": "0265",
      "name": "西屯忠明路口",
      "seq": 40
    }
  },
  {
    "type": "Feature",
    "geometry": {
      "type": "Point",
      "coordinates": [
        120.66342,
        24.16318
      ]
    },
    "properties": {
      "id": "4341",
      "name": "西屯太原路口",
      "seq": 41
    }
  },
  {
    "type": "Feature",
    "geometry": {
      "type": "Point",
      "coordinates": [
        120.66119,
        24.16403
      ]
    },
    "properties": {
      "id": "4570",
      "name": "頂何厝(西屯路)",
      "seq": 42
    }
  },
  {
    "type": "Feature",
    "geometry": {
      "type": "Point",
      "coordinates": [
        120.6601,
        24.16456
      ]
    },
    "properties": {
      "id": "0836",
      "name": "華港新城",
      "seq": 43
    }
  },
  {
    "type": "Feature",
    "geometry": {
      "type": "Point",
      "coordinates": [
        120.65799,
        24.16507
      ]
    },
    "properties": {
      "id": "4567",
      "name": "何厝(西屯路)",
      "seq": 44
    }
  },
  {
    "type": "Feature",
    "geometry": {
      "type": "Point",
      "coordinates": [
        120.65647,
        24.16553
      ]
    },
    "properties": {
      "id": "0268",
      "name": "勤美社區",
      "seq": 45
    }
  },
  {
    "type": "Feature",
    "geometry": {
      "type": "Point",
      "coordinates": [
        120.65407,
        24.16619
      ]
    },
    "properties": {
      "id": "0269",
      "name": "西屯文心路口",
      "seq": 46
    }
  },
  {
    "type": "Feature",
    "geometry": {
      "type": "Point",
      "coordinates": [
        120.65211,
        24.16669
      ]
    },
    "properties": {
      "id": "4621",
      "name": "西屯洛陽路口",
      "seq": 47
    }
  },
  {
    "type": "Feature",
    "geometry": {
      "type": "Point",
      "coordinates": [
        120.64988,
        24.16765
      ]
    },
    "properties": {
      "id": "5749",
      "name": "惠民公園",
      "seq": 48
    }
  },
  {
    "type": "Feature",
    "geometry": {
      "type": "Point",
      "coordinates": [
        120.6482,
        24.16945
      ]
    },
    "properties": {
      "id": "0272",
      "name": "西屯惠中路口",
      "seq": 49
    }
  },
  {
    "type": "Feature",
    "geometry": {
      "type": "Point",
      "coordinates": [
        120.62665,
        24.10602
      ]
    },
    "properties": {
      "id": "4660",
      "name": "中山五光路口",
      "seq": 5
    }
  },
  {
    "type": "Feature",
    "geometry": {
      "type": "Point",
      "coordinates": [
        120.64737,
        24.17042
      ]
    },
    "properties": {
      "id": "0273",
      "name": "上石里",
      "seq": 50
    }
  },
  {
    "type": "Feature",
    "geometry": {
      "type": "Point",
      "coordinates": [
        120.64646,
        24.17143
      ]
    },
    "properties": {
      "id": "0274",
      "name": "西屯上石路口",
      "seq": 51
    }
  },
  {
    "type": "Feature",
    "geometry": {
      "type": "Point",
      "coordinates": [
        120.6451,
        24.17285
      ]
    },
    "properties": {
      "id": "4600",
      "name": "西屯河南路口",
      "seq": 52
    }
  },
  {
    "type": "Feature",
    "geometry": {
      "type": "Point",
      "coordinates": [
        120.64446,
        24.17394
      ]
    },
    "properties": {
      "id": "0803",
      "name": "頂湳仔",
      "seq": 53
    }
  },
  {
    "type": "Feature",
    "geometry": {
      "type": "Point",
      "coordinates": [
        120.64377,
        24.17621
      ]
    },
    "properties": {
      "id": "0337",
      "name": "下湳仔",
      "seq": 54
    }
  },
  {
    "type": "Feature",
    "geometry": {
      "type": "Point",
      "coordinates": [
        120.64289,
        24.17713
      ]
    },
    "properties": {
      "id": "0361",
      "name": "大漁池",
      "seq": 55
    }
  },
  {
    "type": "Feature",
    "geometry": {
      "type": "Point",
      "coordinates": [
        120.64415,
        24.1787
      ]
    },
    "properties": {
      "id": "4585",
      "name": "逢甲大學(逢甲路)",
      "seq": 56
    }
  },
  {
    "type": "Feature",
    "geometry": {
      "type": "Point",
      "coordinates": [
        120.64506,
        24.17941
      ]
    },
    "properties": {
      "id": "4586",
      "name": "逢甲大學(福星路)",
      "seq": 57
    }
  },
  {
    "type": "Feature",
    "geometry": {
      "type": "Point",
      "coordinates": [
        120.64504,
        24.18132
      ]
    },
    "properties": {
      "id": "4334",
      "name": "福星西安街口",
      "seq": 58
    }
  },
  {
    "type": "Feature",
    "geometry": {
      "type": "Point",
      "coordinates": [
        120.64473,
        24.18387
      ]
    },
    "properties": {
      "id": "5658",
      "name": "漢翔公司(星享道)",
      "seq": 59
    }
  },
  {
    "type": "Feature",
    "geometry": {
      "type": "Point",
      "coordinates": [
        120.62864,
        24.10564
      ]
    },
    "properties": {
      "id": "1454",
      "name": "中和紡織",
      "seq": 6
    }
  },
  {
    "type": "Feature",
    "geometry": {
      "type": "Point",
      "coordinates": [
        120.64436,
        24.18636
      ]
    },
    "properties": {
      "id": "4327",
      "name": "僑光科技大學",
      "seq": 60
    }
  },
  {
    "type": "Feature",
    "geometry": {
      "type": "Point",
      "coordinates": [
        120.6403,
        24.18621
      ]
    },
    "properties": {
      "id": "2192",
      "name": "西苑高中",
      "seq": 61
    }
  },
  {
    "type": "Feature",
    "geometry": {
      "type": "Point",
      "coordinates": [
        120.64166,
        24.18505
      ]
    },
    "properties": {
      "id": "5409",
      "name": "文修停車場",
      "seq": 62
    }
  },
  {
    "type": "Feature",
    "geometry": {
      "type": "Point",
      "coordinates": [
        120.63294,
        24.10581
      ]
    },
    "properties": {
      "id": "2821",
      "name": "烏日橋",
      "seq": 7
    }
  },
  {
    "type": "Feature",
    "geometry": {
      "type": "Point",
      "coordinates": [
        120.63696,
        24.10749
      ]
    },
    "properties": {
      "id": "2365",
      "name": "明道中學",
      "seq": 8
    }
  },
  {
    "type": "Feature",
    "geometry": {
      "type": "Point",
      "coordinates": [
        120.63886,
        24.10807
      ]
    },
    "properties": {
      "id": "2366",
      "name": "明道花園城",
      "seq": 9
    }
  }
]
