<?xml version="1.0" encoding="UTF-8" standalone="yes"?>
<BusDynInfo><EssentialInfo><Location><name>TCBUS</name><CenterName>Maxwin</CenterName></Location><UpdateTime>2014-12-20 07:17:29</UpdateTime><CoordinateSystem/></EssentialInfo>
<BusInfo><Stop Id="0386" routeId="藍5" nameZh="裕國社區" seqNo="1" pgp="0" terminal="0" districtId="1" GoBack="1" latitude="24.19554" longitude="120.56399" inDis="50" outDis="50" oid="318895940" /><Stop Id="0384" routeId="藍5" nameZh="水裡社公園" seqNo="2" pgp="0" terminal="0" districtId="1" GoBack="1" latitude="24.19882" longitude="120.56355" inDis="50" outDis="50" oid="318895939" /><Stop Id="0383" routeId="藍5" nameZh="自立中樂街口" seqNo="3" pgp="0" terminal="0" districtId="1" GoBack="1" latitude="24.19886" longitude="120.56658" inDis="50" outDis="50" oid="318895938" /><Stop Id="0382" routeId="藍5" nameZh="中正新城(自立路)" seqNo="4" pgp="0" terminal="0" districtId="1" GoBack="1" latitude="24.19842" longitude="120.56844" inDis="50" outDis="50" oid="318895937" /><Stop Id="3198" routeId="藍5" nameZh="鹿港寮" seqNo="5" pgp="0" terminal="0" districtId="1" GoBack="1" latitude="24.20115" longitude="120.56834" inDis="50" outDis="50" oid="6320" /><Stop Id="0379" routeId="藍5" nameZh="向上屏西路口" seqNo="6" pgp="0" terminal="0" districtId="1" GoBack="1" latitude="24.20365" longitude="120.56698" inDis="50" outDis="50" oid="318895936" /><Stop Id="0397" routeId="藍5" nameZh="向上保寧路口" seqNo="7" pgp="0" terminal="0" districtId="1" GoBack="1" latitude="24.20585" longitude="120.56436" inDis="50" outDis="50" oid="318895942" /><Stop Id="0373" routeId="藍5" nameZh="保寧向上路口" seqNo="8" pgp="0" terminal="0" districtId="1" GoBack="1" latitude="24.20671" longitude="120.56422" inDis="50" outDis="50" oid="318895935" /><Stop Id="0372" routeId="藍5" nameZh="保安保寧路口" seqNo="9" pgp="0" terminal="0" districtId="1" GoBack="1" latitude="24.20735" longitude="120.5669" inDis="50" outDis="50" oid="318895934" /><Stop Id="0371" routeId="藍5" nameZh="正德路72巷口" seqNo="10" pgp="0" terminal="0" districtId="1" GoBack="1" latitude="24.20596" longitude="120.56922" inDis="50" outDis="50" oid="318895933" /><Stop Id="0370" routeId="藍5" nameZh="正德正順路口" seqNo="11" pgp="0" terminal="0" districtId="1" GoBack="1" latitude="24.20369" longitude="120.5712" inDis="50" outDis="50" oid="318895932" /><Stop Id="0369" routeId="藍5" nameZh="正德正義路口" seqNo="12" pgp="0" terminal="0" districtId="1" GoBack="1" latitude="24.20163" longitude="120.57322" inDis="50" outDis="50" oid="318895931" /><Stop Id="0368" routeId="藍5" nameZh="溫莎城堡社區" seqNo="13" pgp="0" terminal="0" districtId="1" GoBack="1" latitude="24.20266" longitude="120.57449" inDis="50" outDis="50" oid="318895930" /><Stop Id="0367" routeId="藍5" nameZh="正順正義路口" seqNo="14" pgp="0" terminal="0" districtId="1" GoBack="1" latitude="24.20607" longitude="120.57364" inDis="50" outDis="50" oid="318895929" /><Stop Id="5429" routeId="藍5" nameZh="正英七街口" seqNo="15" pgp="0" terminal="0" districtId="1" GoBack="1" latitude="24.20993" longitude="120.57619" inDis="50" outDis="50" oid="318244646" /><Stop Id="3531" routeId="藍5" nameZh="正英臺灣大道口" seqNo="16" pgp="0" terminal="0" districtId="1" GoBack="1" latitude="24.2099" longitude="120.58108" inDis="50" outDis="50" oid="310808429" /><Stop Id="4124" routeId="藍5" nameZh="頂六路" seqNo="17" pgp="0" terminal="0" districtId="1" GoBack="1" latitude="24.21365" longitude="120.58079" inDis="50" outDis="50" oid="16769" /><Stop Id="4386" routeId="藍5" nameZh="弘光科技大學" seqNo="18" pgp="0" terminal="0" districtId="1" GoBack="1" latitude="24.2166" longitude="120.5808" inDis="50" outDis="50" oid="17377" /><Stop Id="4111" routeId="藍5" nameZh="晉江里" seqNo="19" pgp="0" terminal="0" districtId="1" GoBack="1" latitude="24.22106" longitude="120.57986" inDis="50" outDis="50" oid="15031" /><Stop Id="4062" routeId="藍5" nameZh="下晉江" seqNo="20" pgp="0" terminal="0" districtId="1" GoBack="1" latitude="24.22357" longitude="120.57809" inDis="50" outDis="50" oid="14262" /><Stop Id="0498" routeId="藍5" nameZh="靜宜大學(英才路)" seqNo="21" pgp="0" terminal="0" districtId="1" GoBack="1" latitude="24.22699" longitude="120.57533" inDis="50" outDis="50" oid="319559959" /><Stop Id="5370" routeId="藍5" nameZh="英才東英路口" seqNo="22" pgp="0" terminal="0" districtId="1" GoBack="1" latitude="24.22609" longitude="120.5729" inDis="50" outDis="100" oid="312034310" /><Stop Id="4794" routeId="藍5" nameZh="北勢國中" seqNo="23" pgp="0" terminal="0" districtId="1" GoBack="1" latitude="24.22506" longitude="120.56939" inDis="50" outDis="50" oid="15245" /><Stop Id="2362" routeId="藍5" nameZh="明泰社區" seqNo="24" pgp="0" terminal="0" districtId="1" GoBack="1" latitude="24.22883" longitude="120.56701" inDis="50" outDis="100" oid="312034308" /><Stop Id="4817" routeId="藍5" nameZh="沙鹿區公所" seqNo="25" pgp="0" terminal="0" districtId="1" GoBack="1" latitude="24.232" longitude="120.5657" inDis="50" outDis="50" oid="311577494" /><Stop Id="5504" routeId="藍5" nameZh="沙鹿戶政事務所" seqNo="26" pgp="0" terminal="0" districtId="1" GoBack="1" latitude="24.2335" longitude="120.5659" inDis="50" outDis="50" oid="314838065" /><Stop Id="4390" routeId="藍5" nameZh="沙鹿高工(中山路)" seqNo="27" pgp="0" terminal="0" districtId="1" GoBack="1" latitude="24.23731" longitude="120.56455" inDis="50" outDis="50" oid="307279327" /><Stop Id="2682" routeId="藍5" nameZh="洛泉里" seqNo="28" pgp="0" terminal="0" districtId="1" GoBack="1" latitude="24.23768" longitude="120.56236" inDis="50" outDis="50" oid="312574878" /><Stop Id="2248" routeId="藍5" nameZh="沙鹿站" seqNo="29" pgp="0" terminal="0" districtId="1" GoBack="1" latitude="24.23795" longitude="120.56103" inDis="50" outDis="50" oid="14254" /><Stop Id="2248" routeId="藍5" nameZh="沙鹿站" seqNo="1" pgp="0" terminal="0" districtId="1" GoBack="2" latitude="24.23795" longitude="120.56103" inDis="50" outDis="50" oid="14254" /><Stop Id="2682" routeId="藍5" nameZh="洛泉里" seqNo="2" pgp="0" terminal="0" districtId="1" GoBack="2" latitude="24.23768" longitude="120.56236" inDis="50" outDis="50" oid="312574878" /><Stop Id="4390" routeId="藍5" nameZh="沙鹿高工(中山路)" seqNo="3" pgp="0" terminal="0" districtId="1" GoBack="2" latitude="24.23731" longitude="120.56455" inDis="50" outDis="50" oid="307279327" /><Stop Id="5222" routeId="藍5" nameZh="中山鎮政路口" seqNo="4" pgp="0" terminal="0" districtId="1" GoBack="2" latitude="24.23696" longitude="120.56649" inDis="50" outDis="100" oid="312034306" /><Stop Id="5504" routeId="藍5" nameZh="沙鹿戶政事務所" seqNo="5" pgp="0" terminal="0" districtId="1" GoBack="2" latitude="24.2335" longitude="120.5659" inDis="50" outDis="50" oid="314838065" /><Stop Id="4817" routeId="藍5" nameZh="沙鹿區公所" seqNo="6" pgp="0" terminal="0" districtId="1" GoBack="2" latitude="24.232" longitude="120.5657" inDis="50" outDis="50" oid="311577494" /><Stop Id="2362" routeId="藍5" nameZh="明泰社區" seqNo="7" pgp="0" terminal="0" districtId="1" GoBack="2" latitude="24.22883" longitude="120.56701" inDis="50" outDis="100" oid="312034308" /><Stop Id="4794" routeId="藍5" nameZh="北勢國中" seqNo="8" pgp="0" terminal="0" districtId="1" GoBack="2" latitude="24.22506" longitude="120.56939" inDis="50" outDis="50" oid="15245" /><Stop Id="5370" routeId="藍5" nameZh="英才東英路口" seqNo="9" pgp="0" terminal="0" districtId="1" GoBack="2" latitude="24.22609" longitude="120.5729" inDis="50" outDis="100" oid="312034310" /><Stop Id="0498" routeId="藍5" nameZh="靜宜大學(英才路)" seqNo="10" pgp="0" terminal="0" districtId="1" GoBack="2" latitude="24.22665" longitude="120.57483" inDis="50" outDis="50" oid="319559960" /><Stop Id="4147" routeId="藍5" nameZh="靜宜大學" seqNo="11" pgp="0" terminal="0" districtId="1" GoBack="2" latitude="24.22495" longitude="120.5771" inDis="50" outDis="50" oid="17531" /><Stop Id="4062" routeId="藍5" nameZh="下晉江" seqNo="12" pgp="0" terminal="0" districtId="1" GoBack="2" latitude="24.22357" longitude="120.57809" inDis="50" outDis="50" oid="14262" /><Stop Id="4111" routeId="藍5" nameZh="晉江里" seqNo="13" pgp="0" terminal="0" districtId="1" GoBack="2" latitude="24.22106" longitude="120.57986" inDis="50" outDis="50" oid="15031" /><Stop Id="4386" routeId="藍5" nameZh="弘光科技大學" seqNo="14" pgp="0" terminal="0" districtId="1" GoBack="2" latitude="24.2166" longitude="120.5808" inDis="50" outDis="50" oid="17377" /><Stop Id="4124" routeId="藍5" nameZh="頂六路" seqNo="15" pgp="0" terminal="0" districtId="1" GoBack="2" latitude="24.21365" longitude="120.58079" inDis="50" outDis="50" oid="16769" /><Stop Id="3531" routeId="藍5" nameZh="正英臺灣大道口" seqNo="16" pgp="0" terminal="0" districtId="1" GoBack="2" latitude="24.2099" longitude="120.58108" inDis="50" outDis="50" oid="310808429" /><Stop Id="5429" routeId="藍5" nameZh="正英七街口" seqNo="17" pgp="0" terminal="0" districtId="1" GoBack="2" latitude="24.20993" longitude="120.57619" inDis="50" outDis="50" oid="318244646" /><Stop Id="0367" routeId="藍5" nameZh="正順正義路口" seqNo="18" pgp="0" terminal="0" districtId="1" GoBack="2" latitude="24.20607" longitude="120.57364" inDis="50" outDis="50" oid="318895929" /><Stop Id="0368" routeId="藍5" nameZh="溫莎城堡社區" seqNo="19" pgp="0" terminal="0" districtId="1" GoBack="2" latitude="24.20266" longitude="120.57449" inDis="50" outDis="50" oid="318895930" /><Stop Id="0369" routeId="藍5" nameZh="正德正義路口" seqNo="20" pgp="0" terminal="0" districtId="1" GoBack="2" latitude="24.20163" longitude="120.57322" inDis="50" outDis="50" oid="318895931" /><Stop Id="0370" routeId="藍5" nameZh="正德正順路口" seqNo="21" pgp="0" terminal="0" districtId="1" GoBack="2" latitude="24.20369" longitude="120.5712" inDis="50" outDis="50" oid="318895932" /><Stop Id="0371" routeId="藍5" nameZh="正德路72巷口" seqNo="22" pgp="0" terminal="0" districtId="1" GoBack="2" latitude="24.20596" longitude="120.56922" inDis="50" outDis="50" oid="318895933" /><Stop Id="0372" routeId="藍5" nameZh="保安保寧路口" seqNo="23" pgp="0" terminal="0" districtId="1" GoBack="2" latitude="24.20735" longitude="120.5669" inDis="50" outDis="50" oid="318895934" /><Stop Id="0373" routeId="藍5" nameZh="保寧向上路口" seqNo="24" pgp="0" terminal="0" districtId="1" GoBack="2" latitude="24.20671" longitude="120.56422" inDis="50" outDis="50" oid="318895935" /><Stop Id="0397" routeId="藍5" nameZh="向上保寧路口" seqNo="25" pgp="0" terminal="0" districtId="1" GoBack="2" latitude="24.20585" longitude="120.56436" inDis="50" outDis="50" oid="318895942" /><Stop Id="0379" routeId="藍5" nameZh="向上屏西路口" seqNo="26" pgp="0" terminal="0" districtId="1" GoBack="2" latitude="24.20365" longitude="120.56698" inDis="50" outDis="50" oid="318895936" /><Stop Id="3198" routeId="藍5" nameZh="鹿港寮" seqNo="27" pgp="0" terminal="0" districtId="1" GoBack="2" latitude="24.20115" longitude="120.56834" inDis="50" outDis="50" oid="6320" /><Stop Id="0382" routeId="藍5" nameZh="中正新城(自立路)" seqNo="28" pgp="0" terminal="0" districtId="1" GoBack="2" latitude="24.19842" longitude="120.56844" inDis="50" outDis="50" oid="318895937" /><Stop Id="0383" routeId="藍5" nameZh="自立中樂街口" seqNo="29" pgp="0" terminal="0" districtId="1" GoBack="2" latitude="24.19886" longitude="120.56658" inDis="50" outDis="50" oid="318895938" /><Stop Id="0384" routeId="藍5" nameZh="水裡社公園" seqNo="30" pgp="0" terminal="0" districtId="1" GoBack="2" latitude="24.19882" longitude="120.56355" inDis="50" outDis="50" oid="318895939" /><Stop Id="0386" routeId="藍5" nameZh="裕國社區" seqNo="31" pgp="0" terminal="0" districtId="1" GoBack="2" latitude="24.19554" longitude="120.56399" inDis="50" outDis="50" oid="318895940" /></BusInfo></BusDynInfo>