<?xml version="1.0" encoding="UTF-8" standalone="yes"?>
<BusDynInfo><EssentialInfo><Location><name>TCBUS</name><CenterName>Maxwin</CenterName></Location><UpdateTime>2014-12-20 07:57:00</UpdateTime><CoordinateSystem/></EssentialInfo>
<BusInfo><Stop Id="0194" routeId="132" nameZh="北屯區行政大樓" seqNo="1" pgp="0" terminal="0" districtId="1" GoBack="1" latitude="24.1826" longitude="120.68611" inDis="50" outDis="50" oid="65B6CDF2371C4D37973B93467FC23177" /><Stop Id="5387" routeId="132" nameZh="崇德六路口" seqNo="2" pgp="0" terminal="0" districtId="1" GoBack="1" latitude="24.18086" longitude="120.68608" inDis="50" outDis="50" oid="313288983" /><Stop Id="0195" routeId="132" nameZh="崇德五路口" seqNo="3" pgp="0" terminal="0" districtId="1" GoBack="1" latitude="24.17913" longitude="120.68589" inDis="50" outDis="30" oid="7803" /><Stop Id="0196" routeId="132" nameZh="崇德一路口" seqNo="4" pgp="0" terminal="0" districtId="1" GoBack="1" latitude="24.17723" longitude="120.68577" inDis="50" outDis="50" oid="7663" /><Stop Id="5131" routeId="132" nameZh="崇德國中(民俗公園)" seqNo="5" pgp="0" terminal="0" districtId="1" GoBack="1" latitude="24.17523" longitude="120.6856" inDis="50" outDis="50" oid="306661878" /><Stop Id="0199" routeId="132" nameZh="崇德瀋陽路口" seqNo="6" pgp="0" terminal="0" districtId="1" GoBack="1" latitude="24.17314" longitude="120.68548" inDis="50" outDis="50" oid="7403" /><Stop Id="4339" routeId="132" nameZh="崇德文心路口" seqNo="7" pgp="0" terminal="0" districtId="1" GoBack="1" latitude="24.17195" longitude="120.68544" inDis="50" outDis="50" oid="7325" /><Stop Id="1768" routeId="132" nameZh="崇德北平路口" seqNo="8" pgp="0" terminal="0" districtId="1" GoBack="1" latitude="24.1708" longitude="120.68541" inDis="50" outDis="50" oid="7344" /><Stop Id="3511" routeId="132" nameZh="聖德禪寺" seqNo="9" pgp="0" terminal="0" districtId="1" GoBack="1" latitude="24.16863" longitude="120.68525" inDis="50" outDis="50" oid="7538" /><Stop Id="0098" routeId="132" nameZh="崇德橋" seqNo="10" pgp="0" terminal="0" districtId="1" GoBack="1" latitude="24.16613" longitude="120.68519" inDis="50" outDis="50" oid="7406" /><Stop Id="0800" routeId="132" nameZh="頂厝里" seqNo="11" pgp="0" terminal="0" districtId="1" GoBack="1" latitude="24.16313" longitude="120.68631" inDis="50" outDis="50" oid="12724" /><Stop Id="0830" routeId="132" nameZh="稅務新村" seqNo="12" pgp="0" terminal="0" districtId="1" GoBack="1" latitude="24.16303" longitude="120.68773" inDis="50" outDis="50" oid="7488" /><Stop Id="0493" routeId="132" nameZh="北屯市場" seqNo="13" pgp="0" terminal="0" districtId="1" GoBack="1" latitude="24.16306" longitude="120.68986" inDis="50" outDis="50" oid="12684" /><Stop Id="0892" routeId="132" nameZh="監理站" seqNo="14" pgp="0" terminal="0" districtId="1" GoBack="1" latitude="24.16101" longitude="120.69207" inDis="50" outDis="50" oid="7557" /><Stop Id="0960" routeId="132" nameZh="寶覺寺" seqNo="15" pgp="0" terminal="0" districtId="1" GoBack="1" latitude="24.15774" longitude="120.68973" inDis="50" outDis="50" oid="7633" /><Stop Id="4399" routeId="132" nameZh="新民高中(三民路)" seqNo="16" pgp="0" terminal="0" districtId="1" GoBack="1" latitude="24.15622" longitude="120.68794" inDis="50" outDis="50" oid="7509" /><Stop Id="0934" routeId="132" nameZh="三民錦中街口" seqNo="17" pgp="0" terminal="0" districtId="1" GoBack="1" latitude="24.15528" longitude="120.68695" inDis="50" outDis="50" oid="0D7AF382298E449C9856AF45F92F27F9" /><Stop Id="0047" routeId="132" nameZh="一心市場" seqNo="18" pgp="0" terminal="0" districtId="1" GoBack="1" latitude="24.1541" longitude="120.68578" inDis="50" outDis="50" oid="7185" /><Stop Id="0046" routeId="132" nameZh="中友百貨" seqNo="19" pgp="0" terminal="0" districtId="1" GoBack="1" latitude="24.15217" longitude="120.68501" inDis="50" outDis="50" oid="7251" /><Stop Id="0045" routeId="132" nameZh="國立臺中科技大學" seqNo="20" pgp="0" terminal="0" districtId="1" GoBack="1" latitude="24.14893" longitude="120.68372" inDis="50" outDis="50" oid="7354" /><Stop Id="4543" routeId="132" nameZh="臺中公園(三民路)" seqNo="21" pgp="0" terminal="0" districtId="1" GoBack="1" latitude="24.14507" longitude="120.68212" inDis="50" outDis="50" oid="7313" /><Stop Id="5506" routeId="132" nameZh="光復國小(三民路)" seqNo="22" pgp="0" terminal="0" districtId="1" GoBack="1" latitude="24.14397" longitude="120.68111" inDis="50" outDis="50" oid="7056" /><Stop Id="4609" routeId="132" nameZh="第二市場(三民路)" seqNo="23" pgp="0" terminal="0" districtId="1" GoBack="1" latitude="24.14267" longitude="120.67977" inDis="50" outDis="50" oid="3706" /><Stop Id="5026" routeId="132" nameZh="美榮藥局" seqNo="24" pgp="0" terminal="0" districtId="1" GoBack="1" latitude="24.14131" longitude="120.67838" inDis="50" outDis="50" oid="309504377" /><Stop Id="4416" routeId="132" nameZh="臺中州廳" seqNo="25" pgp="0" terminal="0" districtId="1" GoBack="1" latitude="24.1391" longitude="120.67848" inDis="50" outDis="50" oid="6DA05825CE704FBB9B2BF69FECA70245" /><Stop Id="0215" routeId="132" nameZh="合作金庫" seqNo="26" pgp="0" terminal="0" districtId="1" GoBack="1" latitude="24.13835" longitude="120.68043" inDis="50" outDis="50" oid="8159" /><Stop Id="0216" routeId="132" nameZh="彰化銀行(自由路)" seqNo="27" pgp="0" terminal="0" districtId="1" GoBack="1" latitude="24.13972" longitude="120.68183" inDis="50" outDis="50" oid="7548" /><Stop Id="1824" routeId="132" nameZh="臺中火車站" seqNo="28" pgp="0" terminal="0" districtId="1" GoBack="1" latitude="24.13726" longitude="120.6846" inDis="50" outDis="50" oid="7358" /><Stop Id="0049" routeId="132" nameZh="第三市場(臺中家商)" seqNo="29" pgp="0" terminal="0" districtId="1" GoBack="1" latitude="24.13256" longitude="120.68392" inDis="50" outDis="50" oid="7448" /><Stop Id="0257" routeId="132" nameZh="臺中國小" seqNo="30" pgp="0" terminal="0" districtId="1" GoBack="1" latitude="24.13026" longitude="120.68502" inDis="50" outDis="50" oid="7005" /><Stop Id="5607" routeId="132" nameZh="興大附農(臺中路)" seqNo="31" pgp="0" terminal="0" districtId="1" GoBack="1" latitude="24.12803" longitude="120.68465" inDis="50" outDis="50" oid="7004" /><Stop Id="0255" routeId="132" nameZh="南門仔" seqNo="32" pgp="0" terminal="0" districtId="1" GoBack="1" latitude="24.12545" longitude="120.68404" inDis="50" outDis="50" oid="7153" /><Stop Id="5112" routeId="132" nameZh="明德高中(臺中路)" seqNo="33" pgp="0" terminal="0" districtId="1" GoBack="1" latitude="24.12292" longitude="120.6843" inDis="50" outDis="50" oid="7118" /><Stop Id="2591" routeId="132" nameZh="南門橋頭" seqNo="34" pgp="0" terminal="0" districtId="1" GoBack="1" latitude="24.1212" longitude="120.68664" inDis="50" outDis="50" oid="7156" /><Stop Id="3281" routeId="132" nameZh="菸葉廠" seqNo="35" pgp="0" terminal="0" districtId="1" GoBack="1" latitude="24.11794" longitude="120.68957" inDis="50" outDis="50" oid="7493" /><Stop Id="3280" routeId="132" nameZh="菩提醫院" seqNo="36" pgp="0" terminal="0" districtId="1" GoBack="1" latitude="24.11508" longitude="120.68958" inDis="50" outDis="50" oid="7490" /><Stop Id="5485" routeId="132" nameZh="中興內新街口" seqNo="37" pgp="0" terminal="0" districtId="1" GoBack="1" latitude="24.11408" longitude="120.68974" inDis="50" outDis="50" oid="314655296" /><Stop Id="2691" routeId="132" nameZh="省農會" seqNo="38" pgp="0" terminal="0" districtId="1" GoBack="1" latitude="24.1125" longitude="120.68986" inDis="50" outDis="50" oid="7173" /><Stop Id="1576" routeId="132" nameZh="內新市場" seqNo="39" pgp="0" terminal="0" districtId="1" GoBack="1" latitude="24.11107" longitude="120.68993" inDis="50" outDis="50" oid="7298" /><Stop Id="1363" routeId="132" nameZh="中興大里路口" seqNo="40" pgp="0" terminal="0" districtId="1" GoBack="1" latitude="24.10863" longitude="120.69003" inDis="50" outDis="50" oid="7237" /><Stop Id="2026" routeId="132" nameZh="立人高中" seqNo="41" pgp="0" terminal="0" districtId="1" GoBack="1" latitude="24.10584" longitude="120.68941" inDis="50" outDis="50" oid="7054" /><Stop Id="1126" routeId="132" nameZh="下內新" seqNo="42" pgp="0" terminal="0" districtId="1" GoBack="1" latitude="24.10257" longitude="120.68864" inDis="50" outDis="50" oid="7202" /><Stop Id="5616" routeId="132" nameZh="兒童藝術館(勝利二路)" seqNo="43" pgp="0" terminal="0" districtId="1" GoBack="1" latitude="24.1003" longitude="120.68782" inDis="50" outDis="50" oid="317119909" /><Stop Id="4823" routeId="132" nameZh="大里國光路口" seqNo="44" pgp="0" terminal="0" districtId="1" GoBack="1" latitude="24.10057" longitude="120.68301" inDis="50" outDis="50" oid="310655195" /><Stop Id="4920" routeId="132" nameZh="大里區公所" seqNo="45" pgp="0" terminal="0" districtId="1" GoBack="1" latitude="24.09934" longitude="120.67943" inDis="50" outDis="50" oid="309153573" /><Stop Id="4921" routeId="132" nameZh="東里國中路口" seqNo="46" pgp="0" terminal="0" districtId="1" GoBack="1" latitude="24.09567" longitude="120.6792" inDis="50" outDis="50" oid="308835167" /><Stop Id="4922" routeId="132" nameZh="市立大里高中" seqNo="47" pgp="0" terminal="0" districtId="1" GoBack="1" latitude="24.09573" longitude="120.68046" inDis="50" outDis="50" oid="309153575" /><Stop Id="4923" routeId="132" nameZh="台電大里服務所" seqNo="48" pgp="0" terminal="0" districtId="1" GoBack="1" latitude="24.09608" longitude="120.68171" inDis="50" outDis="50" oid="309153576" /><Stop Id="5087" routeId="132" nameZh="大突寮(國中路)" seqNo="49" pgp="0" terminal="0" districtId="1" GoBack="1" latitude="24.09539" longitude="120.68529" inDis="50" outDis="50" oid="7225" /><Stop Id="4661" routeId="132" nameZh="中興仁化路口" seqNo="50" pgp="0" terminal="0" districtId="1" GoBack="1" latitude="24.09192" longitude="120.69146" inDis="50" outDis="50" oid="7291" /><Stop Id="4286" routeId="132" nameZh="青年高中" seqNo="51" pgp="0" terminal="0" districtId="1" GoBack="1" latitude="24.08994" longitude="120.69371" inDis="50" outDis="50" oid="7143" /><Stop Id="4253" routeId="132" nameZh="大里圖書館(中興路)" seqNo="52" pgp="0" terminal="0" districtId="1" GoBack="1" latitude="24.08754" longitude="120.69597" inDis="50" outDis="50" oid="7170" /><Stop Id="2866" routeId="132" nameZh="草湖" seqNo="53" pgp="0" terminal="0" districtId="1" GoBack="1" latitude="24.08409" longitude="120.69707" inDis="50" outDis="50" oid="7383" /><Stop Id="4349" routeId="132" nameZh="中興東南路口" seqNo="54" pgp="0" terminal="0" districtId="1" GoBack="1" latitude="24.08061" longitude="120.69827" inDis="50" outDis="50" oid="7386" /><Stop Id="2062" routeId="132" nameZh="中正吉峰路口" seqNo="55" pgp="0" terminal="0" districtId="1" GoBack="1" latitude="24.07597" longitude="120.69987" inDis="50" outDis="50" oid="7065" /><Stop Id="3973" routeId="132" nameZh="霧峰分局" seqNo="56" pgp="0" terminal="0" districtId="1" GoBack="1" latitude="24.07573" longitude="120.70073" inDis="50" outDis="50" oid="7628" /><Stop Id="1944" routeId="132" nameZh="全陽社區" seqNo="57" pgp="0" terminal="0" districtId="1" GoBack="1" latitude="24.07648" longitude="120.70709" inDis="50" outDis="50" oid="7044" /><Stop Id="2061" routeId="132" nameZh="吉峰社區" seqNo="58" pgp="0" terminal="0" districtId="1" GoBack="1" latitude="24.07694" longitude="120.71098" inDis="50" outDis="50" oid="7064" /><Stop Id="1844" routeId="132" nameZh="台影文化城" seqNo="59" pgp="0" terminal="0" districtId="1" GoBack="1" latitude="24.07707" longitude="120.71508" inDis="50" outDis="50" oid="7015" /><Stop Id="2059" routeId="132" nameZh="吉峰里" seqNo="60" pgp="0" terminal="0" districtId="1" GoBack="1" latitude="24.07632" longitude="120.71533" inDis="50" outDis="50" oid="7061" /><Stop Id="2060" routeId="132" nameZh="吉峰東路口" seqNo="61" pgp="0" terminal="0" districtId="1" GoBack="1" latitude="24.07505" longitude="120.71458" inDis="50" outDis="50" oid="7063" /><Stop Id="3246" routeId="132" nameZh="朝陽科技大學" seqNo="62" pgp="0" terminal="0" districtId="1" GoBack="1" latitude="24.07041" longitude="120.71551" inDis="50" outDis="50" oid="7481" /><Stop Id="3246" routeId="132" nameZh="朝陽科技大學" seqNo="1" pgp="0" terminal="0" districtId="1" GoBack="2" latitude="24.07041" longitude="120.71551" inDis="50" outDis="50" oid="247271488" /><Stop Id="2060" routeId="132" nameZh="吉峰東路口" seqNo="2" pgp="0" terminal="0" districtId="1" GoBack="2" latitude="24.07503" longitude="120.71455" inDis="50" outDis="50" oid="7062" /><Stop Id="2059" routeId="132" nameZh="吉峰里" seqNo="3" pgp="0" terminal="0" districtId="1" GoBack="2" latitude="24.07632" longitude="120.71533" inDis="50" outDis="50" oid="7061" /><Stop Id="1844" routeId="132" nameZh="台影文化城" seqNo="4" pgp="0" terminal="0" districtId="1" GoBack="2" latitude="24.07721" longitude="120.71483" inDis="50" outDis="50" oid="7016" /><Stop Id="2061" routeId="132" nameZh="吉峰社區" seqNo="5" pgp="0" terminal="0" districtId="1" GoBack="2" latitude="24.07694" longitude="120.71098" inDis="50" outDis="50" oid="7064" /><Stop Id="1944" routeId="132" nameZh="全陽社區" seqNo="6" pgp="0" terminal="0" districtId="1" GoBack="2" latitude="24.07648" longitude="120.7073" inDis="50" outDis="50" oid="7043" /><Stop Id="3973" routeId="132" nameZh="霧峰分局" seqNo="7" pgp="0" terminal="0" districtId="1" GoBack="2" latitude="24.07573" longitude="120.70073" inDis="50" outDis="50" oid="7628" /><Stop Id="2062" routeId="132" nameZh="中正吉峰路口" seqNo="8" pgp="0" terminal="0" districtId="1" GoBack="2" latitude="24.07597" longitude="120.69987" inDis="50" outDis="50" oid="7065" /><Stop Id="4349" routeId="132" nameZh="中興東南路口" seqNo="9" pgp="0" terminal="0" districtId="1" GoBack="2" latitude="24.08061" longitude="120.69827" inDis="50" outDis="50" oid="7386" /><Stop Id="2866" routeId="132" nameZh="草湖" seqNo="10" pgp="0" terminal="0" districtId="1" GoBack="2" latitude="24.08409" longitude="120.69707" inDis="50" outDis="50" oid="7383" /><Stop Id="5034" routeId="132" nameZh="財政部印刷廠" seqNo="11" pgp="0" terminal="0" districtId="1" GoBack="2" latitude="24.08663" longitude="120.69635" inDis="50" outDis="50" oid="309557183" /><Stop Id="4253" routeId="132" nameZh="大里圖書館(中興路)" seqNo="12" pgp="0" terminal="0" districtId="1" GoBack="2" latitude="24.08862" longitude="120.6954" inDis="50" outDis="50" oid="7169" /><Stop Id="4286" routeId="132" nameZh="青年高中" seqNo="13" pgp="0" terminal="0" districtId="1" GoBack="2" latitude="24.08994" longitude="120.69371" inDis="50" outDis="50" oid="7143" /><Stop Id="4661" routeId="132" nameZh="中興仁化路口" seqNo="14" pgp="0" terminal="0" districtId="1" GoBack="2" latitude="24.09168" longitude="120.69194" inDis="50" outDis="50" oid="7292" /><Stop Id="5087" routeId="132" nameZh="大突寮(國中路)" seqNo="15" pgp="0" terminal="0" districtId="1" GoBack="2" latitude="24.09539" longitude="120.68529" inDis="50" outDis="50" oid="7225" /><Stop Id="4923" routeId="132" nameZh="台電大里服務所" seqNo="16" pgp="0" terminal="0" districtId="1" GoBack="2" latitude="24.09608" longitude="120.68171" inDis="50" outDis="50" oid="309153577" /><Stop Id="4922" routeId="132" nameZh="市立大里高中" seqNo="17" pgp="0" terminal="0" districtId="1" GoBack="2" latitude="24.09573" longitude="120.68046" inDis="50" outDis="50" oid="309153578" /><Stop Id="4921" routeId="132" nameZh="東里國中路口" seqNo="18" pgp="0" terminal="0" districtId="1" GoBack="2" latitude="24.09567" longitude="120.6792" inDis="50" outDis="50" oid="308835167" /><Stop Id="4920" routeId="132" nameZh="大里區公所" seqNo="19" pgp="0" terminal="0" districtId="1" GoBack="2" latitude="24.09934" longitude="120.67943" inDis="50" outDis="50" oid="309153580" /><Stop Id="4823" routeId="132" nameZh="大里國光路口" seqNo="20" pgp="0" terminal="0" districtId="1" GoBack="2" latitude="24.10057" longitude="120.68301" inDis="50" outDis="50" oid="310655195" /><Stop Id="5616" routeId="132" nameZh="兒童藝術館(勝利二路)" seqNo="21" pgp="0" terminal="0" districtId="1" GoBack="2" latitude="24.1003" longitude="120.68782" inDis="50" outDis="50" oid="317119909" /><Stop Id="1126" routeId="132" nameZh="下內新" seqNo="22" pgp="0" terminal="0" districtId="1" GoBack="2" latitude="24.10257" longitude="120.68864" inDis="50" outDis="50" oid="7202" /><Stop Id="2026" routeId="132" nameZh="立人高中" seqNo="23" pgp="0" terminal="0" districtId="1" GoBack="2" latitude="24.10584" longitude="120.68941" inDis="50" outDis="50" oid="7054" /><Stop Id="1363" routeId="132" nameZh="中興大里路口" seqNo="24" pgp="0" terminal="0" districtId="1" GoBack="2" latitude="24.10863" longitude="120.69003" inDis="50" outDis="50" oid="7237" /><Stop Id="1576" routeId="132" nameZh="內新市場" seqNo="25" pgp="0" terminal="0" districtId="1" GoBack="2" latitude="24.11107" longitude="120.68993" inDis="50" outDis="50" oid="7298" /><Stop Id="2691" routeId="132" nameZh="省農會" seqNo="26" pgp="0" terminal="0" districtId="1" GoBack="2" latitude="24.1125" longitude="120.68986" inDis="50" outDis="50" oid="7173" /><Stop Id="5485" routeId="132" nameZh="中興內新街口" seqNo="27" pgp="0" terminal="0" districtId="1" GoBack="2" latitude="24.11408" longitude="120.68974" inDis="50" outDis="50" oid="314655296" /><Stop Id="3280" routeId="132" nameZh="菩提醫院" seqNo="28" pgp="0" terminal="0" districtId="1" GoBack="2" latitude="24.11508" longitude="120.68958" inDis="50" outDis="50" oid="7490" /><Stop Id="3281" routeId="132" nameZh="菸葉廠" seqNo="29" pgp="0" terminal="0" districtId="1" GoBack="2" latitude="24.11794" longitude="120.68957" inDis="50" outDis="50" oid="7493" /><Stop Id="2591" routeId="132" nameZh="南門橋頭" seqNo="30" pgp="0" terminal="0" districtId="1" GoBack="2" latitude="24.1212" longitude="120.68664" inDis="50" outDis="50" oid="7156" /><Stop Id="5112" routeId="132" nameZh="明德高中(臺中路)" seqNo="31" pgp="0" terminal="0" districtId="1" GoBack="2" latitude="24.12292" longitude="120.6843" inDis="50" outDis="50" oid="7118" /><Stop Id="0255" routeId="132" nameZh="南門仔" seqNo="32" pgp="0" terminal="0" districtId="1" GoBack="2" latitude="24.12545" longitude="120.68404" inDis="50" outDis="50" oid="7153" /><Stop Id="5607" routeId="132" nameZh="興大附農(臺中路)" seqNo="33" pgp="0" terminal="0" districtId="1" GoBack="2" latitude="24.12723" longitude="120.68443" inDis="50" outDis="50" oid="7003" /><Stop Id="0257" routeId="132" nameZh="臺中國小" seqNo="34" pgp="0" terminal="0" districtId="1" GoBack="2" latitude="24.13026" longitude="120.68502" inDis="50" outDis="50" oid="7005" /><Stop Id="0049" routeId="132" nameZh="第三市場(臺中家商)" seqNo="35" pgp="0" terminal="0" districtId="1" GoBack="2" latitude="24.13256" longitude="120.68392" inDis="50" outDis="50" oid="7448" /><Stop Id="5595" routeId="132" nameZh="綠川西站(臺灣大道口)" seqNo="36" pgp="0" terminal="0" districtId="1" GoBack="2" latitude="24.13815" longitude="120.68328" inDis="50" outDis="50" oid="317773393" /><Stop Id="0151" routeId="132" nameZh="第一廣場" seqNo="37" pgp="0" terminal="0" districtId="1" GoBack="2" latitude="24.13897" longitude="120.68358" inDis="50" outDis="50" oid="7436" /><Stop Id="0206" routeId="132" nameZh="第一信用" seqNo="38" pgp="0" terminal="0" districtId="1" GoBack="2" latitude="24.14036" longitude="120.68202" inDis="50" outDis="50" oid="7432" /><Stop Id="4395" routeId="132" nameZh="第二市場(臺灣大道)" seqNo="39" pgp="0" terminal="0" districtId="1" GoBack="2" latitude="24.14213" longitude="120.68003" inDis="50" outDis="50" oid="7440" /><Stop Id="0424" routeId="132" nameZh="中區公所(興中街)" seqNo="40" pgp="0" terminal="0" districtId="1" GoBack="2" latitude="24.14437" longitude="120.67975" inDis="50" outDis="50" oid="EDC2C78FD9244587812F3CFAE1E378C5" /><Stop Id="4543" routeId="132" nameZh="臺中公園(三民路)" seqNo="41" pgp="0" terminal="0" districtId="1" GoBack="2" latitude="24.14584" longitude="120.68243" inDis="50" outDis="50" oid="7315" /><Stop Id="0045" routeId="132" nameZh="國立臺中科技大學" seqNo="42" pgp="0" terminal="0" districtId="1" GoBack="2" latitude="24.14961" longitude="120.68393" inDis="50" outDis="50" oid="7356" /><Stop Id="0046" routeId="132" nameZh="中友百貨" seqNo="43" pgp="0" terminal="0" districtId="1" GoBack="2" latitude="24.15217" longitude="120.68501" inDis="50" outDis="50" oid="7251" /><Stop Id="0047" routeId="132" nameZh="一心市場" seqNo="44" pgp="0" terminal="0" districtId="1" GoBack="2" latitude="24.1541" longitude="120.68578" inDis="50" outDis="50" oid="7185" /><Stop Id="0934" routeId="132" nameZh="三民錦中街口" seqNo="45" pgp="0" terminal="0" districtId="1" GoBack="2" latitude="24.15556" longitude="120.6871" inDis="50" outDis="50" oid="A369F80BD1F74F92A75B79E3B1367FC9" /><Stop Id="4399" routeId="132" nameZh="新民高中(三民路)" seqNo="46" pgp="0" terminal="0" districtId="1" GoBack="2" latitude="24.15622" longitude="120.68794" inDis="50" outDis="50" oid="7509" /><Stop Id="0960" routeId="132" nameZh="寶覺寺" seqNo="47" pgp="0" terminal="0" districtId="1" GoBack="2" latitude="24.15792" longitude="120.6899" inDis="50" outDis="50" oid="7634" /><Stop Id="0892" routeId="132" nameZh="監理站" seqNo="48" pgp="0" terminal="0" districtId="1" GoBack="2" latitude="24.16101" longitude="120.69207" inDis="50" outDis="50" oid="7557" /><Stop Id="5515" routeId="132" nameZh="北屯國小(進化北路)" seqNo="49" pgp="0" terminal="0" districtId="1" GoBack="2" latitude="24.16284" longitude="120.69194" inDis="50" outDis="50" oid="315467329" /><Stop Id="0493" routeId="132" nameZh="北屯市場" seqNo="50" pgp="0" terminal="0" districtId="1" GoBack="2" latitude="24.16306" longitude="120.68986" inDis="50" outDis="50" oid="12684" /><Stop Id="0830" routeId="132" nameZh="稅務新村" seqNo="51" pgp="0" terminal="0" districtId="1" GoBack="2" latitude="24.16303" longitude="120.68773" inDis="50" outDis="50" oid="7488" /><Stop Id="0800" routeId="132" nameZh="頂厝里" seqNo="52" pgp="0" terminal="0" districtId="1" GoBack="2" latitude="24.16313" longitude="120.68631" inDis="50" outDis="50" oid="12724" /><Stop Id="0098" routeId="132" nameZh="崇德橋" seqNo="53" pgp="0" terminal="0" districtId="1" GoBack="2" latitude="24.16411" longitude="120.68497" inDis="50" outDis="50" oid="7404" /><Stop Id="3511" routeId="132" nameZh="聖德禪寺" seqNo="54" pgp="0" terminal="0" districtId="1" GoBack="2" latitude="24.16793" longitude="120.68498" inDis="50" outDis="50" oid="7536" /><Stop Id="1768" routeId="132" nameZh="崇德北平路口" seqNo="55" pgp="0" terminal="0" districtId="1" GoBack="2" latitude="24.17051" longitude="120.68522" inDis="50" outDis="50" oid="7342" /><Stop Id="4339" routeId="132" nameZh="崇德文心路口" seqNo="56" pgp="0" terminal="0" districtId="1" GoBack="2" latitude="24.1717" longitude="120.6855" inDis="50" outDis="50" oid="A7E6C8A38F884A5FA47067DB88E6906B" /><Stop Id="0199" routeId="132" nameZh="崇德瀋陽路口" seqNo="57" pgp="0" terminal="0" districtId="1" GoBack="2" latitude="24.1732" longitude="120.68544" inDis="50" outDis="50" oid="7402" /><Stop Id="5131" routeId="132" nameZh="崇德國中(民俗公園)" seqNo="58" pgp="0" terminal="0" districtId="1" GoBack="2" latitude="24.17523" longitude="120.6856" inDis="50" outDis="50" oid="306661878" /><Stop Id="0196" routeId="132" nameZh="崇德一路口" seqNo="59" pgp="0" terminal="0" districtId="1" GoBack="2" latitude="24.17723" longitude="120.68577" inDis="50" outDis="50" oid="7663" /><Stop Id="0195" routeId="132" nameZh="崇德五路口" seqNo="60" pgp="0" terminal="0" districtId="1" GoBack="2" latitude="24.17879" longitude="120.68588" inDis="50" outDis="50" oid="12404" /><Stop Id="5387" routeId="132" nameZh="崇德六路口" seqNo="61" pgp="0" terminal="0" districtId="1" GoBack="2" latitude="24.18086" longitude="120.68608" inDis="50" outDis="50" oid="313288983" /><Stop Id="0194" routeId="132" nameZh="北屯區行政大樓" seqNo="62" pgp="0" terminal="0" districtId="1" GoBack="2" latitude="24.1826" longitude="120.68611" inDis="50" outDis="50" oid="65B6CDF2371C4D37973B93467FC23177" /></BusInfo></BusDynInfo>