<?xml version="1.0" encoding="UTF-8" standalone="yes"?>
<BusDynInfo><EssentialInfo><Location><name>TCBUS</name><CenterName>Maxwin</CenterName></Location><UpdateTime>2014-12-20 07:46:11</UpdateTime><CoordinateSystem/></EssentialInfo>
<BusInfo><Stop Id="3293" routeId="82" nameZh="貿易三村" seqNo="1" pgp="0" terminal="0" districtId="1" GoBack="1" latitude="24.19313" longitude="120.65978" inDis="50" outDis="50" oid="3675" /><Stop Id="0708" routeId="82" nameZh="后庄國宅" seqNo="2" pgp="0" terminal="0" districtId="1" GoBack="1" latitude="24.19041" longitude="120.66137" inDis="50" outDis="50" oid="3676" /><Stop Id="0989" routeId="82" nameZh="中清后庄路口" seqNo="3" pgp="0" terminal="0" districtId="1" GoBack="1" latitude="24.18823" longitude="120.66267" inDis="50" outDis="50" oid="3677" /><Stop Id="2639" routeId="82" nameZh="后庄仔" seqNo="4" pgp="0" terminal="0" districtId="1" GoBack="1" latitude="24.18568" longitude="120.66419" inDis="50" outDis="50" oid="3678" /><Stop Id="0801" routeId="82" nameZh="頂陳平" seqNo="5" pgp="0" terminal="0" districtId="1" GoBack="1" latitude="24.18437" longitude="120.66496" inDis="50" outDis="50" oid="3679" /><Stop Id="0789" routeId="82" nameZh="陳平" seqNo="6" pgp="0" terminal="0" districtId="1" GoBack="1" latitude="24.18275" longitude="120.66584" inDis="50" outDis="50" oid="3680" /><Stop Id="0593" routeId="82" nameZh="全民醫院" seqNo="7" pgp="0" terminal="0" districtId="1" GoBack="1" latitude="24.18127" longitude="120.66655" inDis="50" outDis="50" oid="3681" /><Stop Id="0385" routeId="82" nameZh="大德國中" seqNo="8" pgp="0" terminal="0" districtId="1" GoBack="1" latitude="24.17938" longitude="120.66791" inDis="50" outDis="50" oid="3682" /><Stop Id="5100" routeId="82" nameZh="水湳市場(中清路)" seqNo="9" pgp="0" terminal="0" districtId="1" GoBack="1" latitude="24.17756" longitude="120.66916" inDis="50" outDis="50" oid="3683" /><Stop Id="0486" routeId="82" nameZh="水湳" seqNo="10" pgp="0" terminal="0" districtId="1" GoBack="1" latitude="24.17636" longitude="120.67008" inDis="30" outDis="30" oid="319227554" /><Stop Id="0334" routeId="82" nameZh="下水湳" seqNo="11" pgp="0" terminal="0" districtId="1" GoBack="1" latitude="24.17525" longitude="120.67092" inDis="50" outDis="50" oid="3685" /><Stop Id="4265" routeId="82" nameZh="文心中清路口" seqNo="12" pgp="0" terminal="0" districtId="1" GoBack="1" latitude="24.17392" longitude="120.67281" inDis="50" outDis="50" oid="3686" /><Stop Id="4276" routeId="82" nameZh="文心青島東街口" seqNo="13" pgp="0" terminal="0" districtId="1" GoBack="1" latitude="24.17373" longitude="120.67506" inDis="50" outDis="50" oid="3687" /><Stop Id="4277" routeId="82" nameZh="文心山西路口" seqNo="14" pgp="0" terminal="0" districtId="1" GoBack="1" latitude="24.17325" longitude="120.67696" inDis="50" outDis="50" oid="3688" /><Stop Id="4414" routeId="82" nameZh="文心梅川路口" seqNo="15" pgp="0" terminal="0" districtId="1" GoBack="1" latitude="24.17299" longitude="120.67883" inDis="50" outDis="50" oid="304254702" /><Stop Id="0224" routeId="82" nameZh="文心國小" seqNo="16" pgp="0" terminal="0" districtId="1" GoBack="1" latitude="24.17251" longitude="120.68239" inDis="50" outDis="50" oid="3690" /><Stop Id="4339" routeId="82" nameZh="崇德文心路口" seqNo="17" pgp="0" terminal="0" districtId="1" GoBack="1" latitude="24.1717" longitude="120.68539" inDis="50" outDis="50" oid="301782125" /><Stop Id="1768" routeId="82" nameZh="崇德北平路口" seqNo="18" pgp="0" terminal="0" districtId="1" GoBack="1" latitude="24.17051" longitude="120.68522" inDis="50" outDis="50" oid="3692" /><Stop Id="3511" routeId="82" nameZh="聖德禪寺" seqNo="19" pgp="0" terminal="0" districtId="1" GoBack="1" latitude="24.16793" longitude="120.68498" inDis="50" outDis="50" oid="3693" /><Stop Id="0098" routeId="82" nameZh="崇德橋" seqNo="20" pgp="0" terminal="0" districtId="1" GoBack="1" latitude="24.16411" longitude="120.68497" inDis="50" outDis="50" oid="3694" /><Stop Id="0800" routeId="82" nameZh="頂厝里" seqNo="21" pgp="0" terminal="0" districtId="1" GoBack="1" latitude="24.16304" longitude="120.68642" inDis="50" outDis="50" oid="3695" /><Stop Id="0830" routeId="82" nameZh="稅務新村" seqNo="22" pgp="0" terminal="0" districtId="1" GoBack="1" latitude="24.16302" longitude="120.68796" inDis="50" outDis="50" oid="3696" /><Stop Id="0493" routeId="82" nameZh="北屯市場" seqNo="23" pgp="0" terminal="0" districtId="1" GoBack="1" latitude="24.16306" longitude="120.68986" inDis="50" outDis="50" oid="12684" /><Stop Id="0892" routeId="82" nameZh="監理站" seqNo="24" pgp="0" terminal="0" districtId="1" GoBack="1" latitude="24.16101" longitude="120.69207" inDis="50" outDis="50" oid="3698" /><Stop Id="0960" routeId="82" nameZh="寶覺寺" seqNo="25" pgp="0" terminal="0" districtId="1" GoBack="1" latitude="24.15774" longitude="120.68973" inDis="50" outDis="50" oid="3699" /><Stop Id="4399" routeId="82" nameZh="新民高中(三民路)" seqNo="26" pgp="0" terminal="0" districtId="1" GoBack="1" latitude="24.15622" longitude="120.68794" inDis="50" outDis="50" oid="3700" /><Stop Id="0934" routeId="82" nameZh="三民錦中街口" seqNo="27" pgp="0" terminal="0" districtId="1" GoBack="1" latitude="24.15528" longitude="120.68695" inDis="50" outDis="50" oid="0D7AF382298E449C9856AF45F92F27F9" /><Stop Id="0047" routeId="82" nameZh="一心市場" seqNo="28" pgp="0" terminal="0" districtId="1" GoBack="1" latitude="24.15405" longitude="120.68584" inDis="50" outDis="50" oid="3701" /><Stop Id="0046" routeId="82" nameZh="中友百貨" seqNo="29" pgp="0" terminal="0" districtId="1" GoBack="1" latitude="24.15198" longitude="120.68502" inDis="50" outDis="50" oid="3702" /><Stop Id="0045" routeId="82" nameZh="國立臺中科技大學" seqNo="30" pgp="0" terminal="0" districtId="1" GoBack="1" latitude="24.14893" longitude="120.68372" inDis="50" outDis="50" oid="3703" /><Stop Id="4543" routeId="82" nameZh="臺中公園(三民路)" seqNo="31" pgp="0" terminal="0" districtId="1" GoBack="1" latitude="24.14507" longitude="120.68212" inDis="50" outDis="50" oid="3704" /><Stop Id="5506" routeId="82" nameZh="光復國小(三民路)" seqNo="32" pgp="0" terminal="0" districtId="1" GoBack="1" latitude="24.14397" longitude="120.68111" inDis="50" outDis="50" oid="3705" /><Stop Id="4609" routeId="82" nameZh="第二市場(三民路)" seqNo="33" pgp="0" terminal="0" districtId="1" GoBack="1" latitude="24.14267" longitude="120.67977" inDis="50" outDis="50" oid="3706" /><Stop Id="0777" routeId="82" nameZh="第二信用" seqNo="34" pgp="0" terminal="0" districtId="1" GoBack="1" latitude="24.1414" longitude="120.67909" inDis="50" outDis="50" oid="3707" /><Stop Id="4630" routeId="82" nameZh="中山自由路口" seqNo="35" pgp="0" terminal="0" districtId="1" GoBack="1" latitude="24.13977" longitude="120.6811" inDis="50" outDis="50" oid="3708" /><Stop Id="0216" routeId="82" nameZh="彰化銀行(自由路)" seqNo="36" pgp="0" terminal="0" districtId="1" GoBack="1" latitude="24.14004" longitude="120.6824" inDis="50" outDis="50" oid="3709" /><Stop Id="1824" routeId="82" nameZh="臺中火車站" seqNo="37" pgp="0" terminal="0" districtId="1" GoBack="1" latitude="24.13761" longitude="120.68486" inDis="150" outDis="150" oid="3710" /><Stop Id="0518" routeId="82" nameZh="臺中酒廠(復興路)" seqNo="38" pgp="0" terminal="0" districtId="1" GoBack="1" latitude="24.13417" longitude="120.68206" inDis="50" outDis="50" oid="16668F90D13A4970A721B028C66DD04E" /><Stop Id="1659" routeId="82" nameZh="文化創意園區" seqNo="39" pgp="0" terminal="0" districtId="1" GoBack="1" latitude="24.13317" longitude="120.67994" inDis="50" outDis="50" oid="3712" /><Stop Id="0180" routeId="82" nameZh="林祖厝" seqNo="40" pgp="0" terminal="0" districtId="1" GoBack="1" latitude="24.13252" longitude="120.6784" inDis="50" outDis="50" oid="3713" /><Stop Id="4604" routeId="82" nameZh="復興有恆街口" seqNo="41" pgp="0" terminal="0" districtId="1" GoBack="1" latitude="24.13163" longitude="120.67606" inDis="50" outDis="50" oid="3714" /><Stop Id="0178" routeId="82" nameZh="第三分局" seqNo="42" pgp="0" terminal="0" districtId="1" GoBack="1" latitude="24.13086" longitude="120.67428" inDis="50" outDis="50" oid="3715" /><Stop Id="5393" routeId="82" nameZh="公共資訊圖書館(復興路)" seqNo="43" pgp="0" terminal="0" districtId="1" GoBack="1" latitude="24.12928" longitude="120.67021" inDis="50" outDis="50" oid="319430803" /><Stop Id="5478" routeId="82" nameZh="高等法院臺中分院" seqNo="44" pgp="0" terminal="0" districtId="1" GoBack="1" latitude="24.12838" longitude="120.66837" inDis="50" outDis="50" oid="319311008" /><Stop Id="0543" routeId="82" nameZh="四育國中" seqNo="45" pgp="0" terminal="0" districtId="1" GoBack="1" latitude="24.12704" longitude="120.66569" inDis="50" outDis="50" oid="3718" /><Stop Id="3395" routeId="82" nameZh="復興新和街口" seqNo="46" pgp="0" terminal="0" districtId="1" GoBack="1" latitude="24.12391" longitude="120.66332" inDis="50" outDis="50" oid="3719" /><Stop Id="0128" routeId="82" nameZh="和平國小" seqNo="47" pgp="0" terminal="0" districtId="1" GoBack="1" latitude="24.1211" longitude="120.66112" inDis="50" outDis="50" oid="3720" /><Stop Id="0129" routeId="82" nameZh="宜寧中學" seqNo="48" pgp="0" terminal="0" districtId="1" GoBack="1" latitude="24.11882" longitude="120.65926" inDis="50" outDis="50" oid="3721" /><Stop Id="4538" routeId="82" nameZh="臺中高工(復興路)" seqNo="49" pgp="0" terminal="0" districtId="1" GoBack="1" latitude="24.11726" longitude="120.65793" inDis="50" outDis="50" oid="3722" /><Stop Id="4536" routeId="82" nameZh="復興大慶街口" seqNo="50" pgp="0" terminal="0" districtId="1" GoBack="1" latitude="24.11446" longitude="120.65425" inDis="50" outDis="50" oid="3724" /><Stop Id="3330" routeId="82" nameZh="勤工派出所" seqNo="51" pgp="0" terminal="0" districtId="1" GoBack="1" latitude="24.11225" longitude="120.65113" inDis="50" outDis="50" oid="3725" /><Stop Id="5195" routeId="82" nameZh="復興環中路口" seqNo="52" pgp="0" terminal="0" districtId="1" GoBack="1" latitude="24.11096" longitude="120.64799" inDis="50" outDis="50" oid="3726" /><Stop Id="3790" routeId="82" nameZh="樹仔腳" seqNo="53" pgp="0" terminal="0" districtId="1" GoBack="1" latitude="24.11023" longitude="120.64588" inDis="50" outDis="50" oid="3727" /><Stop Id="0994" routeId="82" nameZh="九張犁" seqNo="54" pgp="0" terminal="0" districtId="1" GoBack="1" latitude="24.1089" longitude="120.64169" inDis="50" outDis="50" oid="3728" /><Stop Id="2366" routeId="82" nameZh="明道花園城" seqNo="55" pgp="0" terminal="0" districtId="1" GoBack="1" latitude="24.10799" longitude="120.63859" inDis="50" outDis="50" oid="3729" /><Stop Id="2365" routeId="82" nameZh="明道中學" seqNo="56" pgp="0" terminal="0" districtId="1" GoBack="1" latitude="24.10751" longitude="120.63707" inDis="50" outDis="50" oid="3730" /><Stop Id="2821" routeId="82" nameZh="烏日橋" seqNo="57" pgp="0" terminal="0" districtId="1" GoBack="1" latitude="24.10578" longitude="120.63287" inDis="50" outDis="50" oid="8182" /><Stop Id="1454" routeId="82" nameZh="中和紡織" seqNo="58" pgp="0" terminal="0" districtId="1" GoBack="1" latitude="24.10574" longitude="120.62824" inDis="50" outDis="50" oid="3731" /><Stop Id="4660" routeId="82" nameZh="中山五光路口" seqNo="59" pgp="0" terminal="0" districtId="1" GoBack="1" latitude="24.10605" longitude="120.62645" inDis="50" outDis="50" oid="3732" /><Stop Id="2816" routeId="82" nameZh="烏日" seqNo="60" pgp="0" terminal="0" districtId="1" GoBack="1" latitude="24.10638" longitude="120.62339" inDis="50" outDis="50" oid="3733" /><Stop Id="2820" routeId="82" nameZh="烏日國中" seqNo="61" pgp="0" terminal="0" districtId="1" GoBack="1" latitude="24.10641" longitude="120.61788" inDis="50" outDis="50" oid="3734" /><Stop Id="2907" routeId="82" nameZh="高鐵臺中站(15月台)" seqNo="62" pgp="0" terminal="1" districtId="1" GoBack="1" latitude="24.11181" longitude="120.61715" inDis="50" outDis="50" oid="3735" /><Stop Id="2907" routeId="82" nameZh="高鐵臺中站(15月台)" seqNo="1" pgp="0" terminal="0" districtId="1" GoBack="2" latitude="24.11128" longitude="120.61803" inDis="50" outDis="50" oid="3737" /><Stop Id="2820" routeId="82" nameZh="烏日國中" seqNo="2" pgp="0" terminal="0" districtId="1" GoBack="2" latitude="24.10641" longitude="120.61788" inDis="50" outDis="50" oid="3738" /><Stop Id="2816" routeId="82" nameZh="烏日" seqNo="3" pgp="0" terminal="0" districtId="1" GoBack="2" latitude="24.10638" longitude="120.62339" inDis="50" outDis="50" oid="3739" /><Stop Id="4660" routeId="82" nameZh="中山五光路口" seqNo="4" pgp="0" terminal="0" districtId="1" GoBack="2" latitude="24.10605" longitude="120.62645" inDis="50" outDis="50" oid="3740" /><Stop Id="1454" routeId="82" nameZh="中和紡織" seqNo="5" pgp="0" terminal="0" districtId="1" GoBack="2" latitude="24.10574" longitude="120.62824" inDis="50" outDis="50" oid="3741" /><Stop Id="2821" routeId="82" nameZh="烏日橋" seqNo="6" pgp="0" terminal="0" districtId="1" GoBack="2" latitude="24.10578" longitude="120.63287" inDis="50" outDis="50" oid="8182" /><Stop Id="2365" routeId="82" nameZh="明道中學" seqNo="7" pgp="0" terminal="0" districtId="1" GoBack="2" latitude="24.10751" longitude="120.63707" inDis="50" outDis="50" oid="3742" /><Stop Id="2366" routeId="82" nameZh="明道花園城" seqNo="8" pgp="0" terminal="0" districtId="1" GoBack="2" latitude="24.10799" longitude="120.63859" inDis="50" outDis="50" oid="3743" /><Stop Id="0994" routeId="82" nameZh="九張犁" seqNo="9" pgp="0" terminal="0" districtId="1" GoBack="2" latitude="24.1089" longitude="120.64169" inDis="50" outDis="50" oid="3744" /><Stop Id="3790" routeId="82" nameZh="樹仔腳" seqNo="10" pgp="0" terminal="0" districtId="1" GoBack="2" latitude="24.11023" longitude="120.64588" inDis="50" outDis="50" oid="3745" /><Stop Id="5195" routeId="82" nameZh="復興環中路口" seqNo="11" pgp="0" terminal="0" districtId="1" GoBack="2" latitude="24.11096" longitude="120.64799" inDis="50" outDis="50" oid="3746" /><Stop Id="3330" routeId="82" nameZh="勤工派出所" seqNo="12" pgp="0" terminal="0" districtId="1" GoBack="2" latitude="24.11225" longitude="120.65113" inDis="50" outDis="50" oid="3747" /><Stop Id="4536" routeId="82" nameZh="復興大慶街口" seqNo="13" pgp="0" terminal="0" districtId="1" GoBack="2" latitude="24.11438" longitude="120.65426" inDis="50" outDis="50" oid="3748" /><Stop Id="0130" routeId="82" nameZh="樹義里" seqNo="14" pgp="0" terminal="0" districtId="1" GoBack="2" latitude="24.11562" longitude="120.65586" inDis="50" outDis="50" oid="8174" /><Stop Id="4538" routeId="82" nameZh="臺中高工(復興路)" seqNo="15" pgp="0" terminal="0" districtId="1" GoBack="2" latitude="24.11726" longitude="120.65793" inDis="50" outDis="50" oid="3750" /><Stop Id="0129" routeId="82" nameZh="宜寧中學" seqNo="16" pgp="0" terminal="0" districtId="1" GoBack="2" latitude="24.11891" longitude="120.65954" inDis="50" outDis="50" oid="3751" /><Stop Id="0128" routeId="82" nameZh="和平國小" seqNo="17" pgp="0" terminal="0" districtId="1" GoBack="2" latitude="24.1211" longitude="120.66112" inDis="50" outDis="50" oid="3752" /><Stop Id="3395" routeId="82" nameZh="復興新和街口" seqNo="18" pgp="0" terminal="0" districtId="1" GoBack="2" latitude="24.12391" longitude="120.66332" inDis="50" outDis="50" oid="3753" /><Stop Id="0543" routeId="82" nameZh="四育國中" seqNo="19" pgp="0" terminal="0" districtId="1" GoBack="2" latitude="24.12704" longitude="120.66569" inDis="50" outDis="50" oid="3754" /><Stop Id="5478" routeId="82" nameZh="高等法院臺中分院" seqNo="20" pgp="0" terminal="0" districtId="1" GoBack="2" latitude="24.12838" longitude="120.66837" inDis="50" outDis="50" oid="319311008" /><Stop Id="5393" routeId="82" nameZh="公共資訊圖書館(復興路)" seqNo="21" pgp="0" terminal="0" districtId="1" GoBack="2" latitude="24.12985" longitude="120.67196" inDis="50" outDis="50" oid="312954998" /><Stop Id="0178" routeId="82" nameZh="第三分局" seqNo="22" pgp="0" terminal="0" districtId="1" GoBack="2" latitude="24.13086" longitude="120.67428" inDis="50" outDis="50" oid="3757" /><Stop Id="4604" routeId="82" nameZh="復興有恆街口" seqNo="23" pgp="0" terminal="0" districtId="1" GoBack="2" latitude="24.13163" longitude="120.67606" inDis="50" outDis="50" oid="3758" /><Stop Id="0180" routeId="82" nameZh="林祖厝" seqNo="24" pgp="0" terminal="0" districtId="1" GoBack="2" latitude="24.13235" longitude="120.67785" inDis="50" outDis="50" oid="3759" /><Stop Id="1659" routeId="82" nameZh="文化創意園區" seqNo="25" pgp="0" terminal="0" districtId="1" GoBack="2" latitude="24.13317" longitude="120.67994" inDis="50" outDis="50" oid="3760" /><Stop Id="0518" routeId="82" nameZh="臺中酒廠(復興路)" seqNo="26" pgp="0" terminal="0" districtId="1" GoBack="2" latitude="24.1338" longitude="120.68154" inDis="50" outDis="50" oid="99DDB9E7E5D74644A776349363113C49" /><Stop Id="1824" routeId="82" nameZh="臺中火車站" seqNo="27" pgp="0" terminal="0" districtId="1" GoBack="2" latitude="24.13794" longitude="120.68462" inDis="50" outDis="50" oid="3762" /><Stop Id="0151" routeId="82" nameZh="第一廣場" seqNo="28" pgp="0" terminal="0" districtId="1" GoBack="2" latitude="24.13897" longitude="120.68358" inDis="50" outDis="50" oid="3763" /><Stop Id="0206" routeId="82" nameZh="第一信用" seqNo="29" pgp="0" terminal="0" districtId="1" GoBack="2" latitude="24.13969" longitude="120.68259" inDis="50" outDis="50" oid="3764" /><Stop Id="4395" routeId="82" nameZh="第二市場(臺灣大道)" seqNo="30" pgp="0" terminal="0" districtId="1" GoBack="2" latitude="24.14213" longitude="120.68003" inDis="50" outDis="50" oid="3765" /><Stop Id="5506" routeId="82" nameZh="光復國小(三民路)" seqNo="31" pgp="0" terminal="0" districtId="1" GoBack="2" latitude="24.14397" longitude="120.68111" inDis="50" outDis="50" oid="3766" /><Stop Id="4543" routeId="82" nameZh="臺中公園(三民路)" seqNo="32" pgp="0" terminal="0" districtId="1" GoBack="2" latitude="24.14507" longitude="120.68212" inDis="50" outDis="50" oid="3767" /><Stop Id="0045" routeId="82" nameZh="國立臺中科技大學" seqNo="33" pgp="0" terminal="0" districtId="1" GoBack="2" latitude="24.14955" longitude="120.68397" inDis="50" outDis="50" oid="3768" /><Stop Id="0046" routeId="82" nameZh="中友百貨" seqNo="34" pgp="0" terminal="0" districtId="1" GoBack="2" latitude="24.15198" longitude="120.68502" inDis="50" outDis="50" oid="3769" /><Stop Id="0047" routeId="82" nameZh="一心市場" seqNo="35" pgp="0" terminal="0" districtId="1" GoBack="2" latitude="24.1541" longitude="120.68578" inDis="50" outDis="50" oid="3770" /><Stop Id="0934" routeId="82" nameZh="三民錦中街口" seqNo="36" pgp="0" terminal="0" districtId="1" GoBack="2" latitude="24.15556" longitude="120.6871" inDis="50" outDis="50" oid="A369F80BD1F74F92A75B79E3B1367FC9" /><Stop Id="4399" routeId="82" nameZh="新民高中(三民路)" seqNo="37" pgp="0" terminal="0" districtId="1" GoBack="2" latitude="24.15622" longitude="120.68794" inDis="50" outDis="50" oid="3771" /><Stop Id="0960" routeId="82" nameZh="寶覺寺" seqNo="38" pgp="0" terminal="0" districtId="1" GoBack="2" latitude="24.15774" longitude="120.68973" inDis="50" outDis="50" oid="3772" /><Stop Id="0892" routeId="82" nameZh="監理站" seqNo="39" pgp="0" terminal="0" districtId="1" GoBack="2" latitude="24.16101" longitude="120.69207" inDis="50" outDis="50" oid="3773" /><Stop Id="5515" routeId="82" nameZh="北屯國小(進化北路)" seqNo="40" pgp="0" terminal="0" districtId="1" GoBack="2" latitude="24.16284" longitude="120.69194" inDis="50" outDis="50" oid="315467329" /><Stop Id="0493" routeId="82" nameZh="北屯市場" seqNo="41" pgp="0" terminal="0" districtId="1" GoBack="2" latitude="24.16306" longitude="120.68986" inDis="50" outDis="50" oid="12684" /><Stop Id="0830" routeId="82" nameZh="稅務新村" seqNo="42" pgp="0" terminal="0" districtId="1" GoBack="2" latitude="24.16302" longitude="120.68796" inDis="50" outDis="50" oid="3775" /><Stop Id="0800" routeId="82" nameZh="頂厝里" seqNo="43" pgp="0" terminal="0" districtId="1" GoBack="2" latitude="24.16304" longitude="120.68642" inDis="50" outDis="50" oid="3776" /><Stop Id="0098" routeId="82" nameZh="崇德橋" seqNo="44" pgp="0" terminal="0" districtId="1" GoBack="2" latitude="24.16411" longitude="120.68497" inDis="50" outDis="50" oid="3777" /><Stop Id="3511" routeId="82" nameZh="聖德禪寺" seqNo="45" pgp="0" terminal="0" districtId="1" GoBack="2" latitude="24.16793" longitude="120.68498" inDis="50" outDis="50" oid="3778" /><Stop Id="1768" routeId="82" nameZh="崇德北平路口" seqNo="46" pgp="0" terminal="0" districtId="1" GoBack="2" latitude="24.17051" longitude="120.68522" inDis="50" outDis="50" oid="3779" /><Stop Id="0224" routeId="82" nameZh="文心國小" seqNo="47" pgp="0" terminal="0" districtId="1" GoBack="2" latitude="24.17251" longitude="120.68239" inDis="50" outDis="50" oid="3781" /><Stop Id="4414" routeId="82" nameZh="文心梅川路口" seqNo="48" pgp="0" terminal="0" districtId="1" GoBack="2" latitude="24.17299" longitude="120.67883" inDis="50" outDis="50" oid="304254703" /><Stop Id="4277" routeId="82" nameZh="文心山西路口" seqNo="49" pgp="0" terminal="0" districtId="1" GoBack="2" latitude="24.17325" longitude="120.67696" inDis="50" outDis="50" oid="3783" /><Stop Id="4276" routeId="82" nameZh="文心青島東街口" seqNo="50" pgp="0" terminal="0" districtId="1" GoBack="2" latitude="24.17373" longitude="120.67506" inDis="50" outDis="50" oid="3784" /><Stop Id="4265" routeId="82" nameZh="文心中清路口" seqNo="51" pgp="0" terminal="0" districtId="1" GoBack="2" latitude="24.17392" longitude="120.67281" inDis="50" outDis="50" oid="3785" /><Stop Id="0334" routeId="82" nameZh="下水湳" seqNo="52" pgp="0" terminal="0" districtId="1" GoBack="2" latitude="24.17516" longitude="120.67119" inDis="50" outDis="50" oid="3786" /><Stop Id="0486" routeId="82" nameZh="水湳" seqNo="53" pgp="0" terminal="0" districtId="1" GoBack="2" latitude="24.17636" longitude="120.67008" inDis="30" outDis="30" oid="308022314" /><Stop Id="5100" routeId="82" nameZh="水湳市場(中清路)" seqNo="54" pgp="0" terminal="0" districtId="1" GoBack="2" latitude="24.17756" longitude="120.66916" inDis="50" outDis="50" oid="3788" /><Stop Id="0385" routeId="82" nameZh="大德國中" seqNo="55" pgp="0" terminal="0" districtId="1" GoBack="2" latitude="24.17938" longitude="120.66791" inDis="50" outDis="50" oid="3789" /><Stop Id="0593" routeId="82" nameZh="全民醫院" seqNo="56" pgp="0" terminal="0" districtId="1" GoBack="2" latitude="24.18127" longitude="120.66655" inDis="50" outDis="50" oid="3790" /><Stop Id="0789" routeId="82" nameZh="陳平" seqNo="57" pgp="0" terminal="0" districtId="1" GoBack="2" latitude="24.18275" longitude="120.66584" inDis="50" outDis="50" oid="3791" /><Stop Id="0801" routeId="82" nameZh="頂陳平" seqNo="58" pgp="0" terminal="0" districtId="1" GoBack="2" latitude="24.18437" longitude="120.66496" inDis="50" outDis="50" oid="3792" /><Stop Id="2638" routeId="82" nameZh="后庄仔" seqNo="59" pgp="0" terminal="0" districtId="1" GoBack="2" latitude="24.18601" longitude="120.66396" inDis="50" outDis="50" oid="3793" /><Stop Id="0989" routeId="82" nameZh="中清后庄路口" seqNo="60" pgp="0" terminal="0" districtId="1" GoBack="2" latitude="24.18802" longitude="120.66282" inDis="50" outDis="50" oid="3794" /><Stop Id="0708" routeId="82" nameZh="后庄國宅" seqNo="61" pgp="0" terminal="0" districtId="1" GoBack="2" latitude="24.1901" longitude="120.66161" inDis="50" outDis="50" oid="3795" /><Stop Id="3293" routeId="82" nameZh="貿易三村" seqNo="62" pgp="0" terminal="0" districtId="1" GoBack="2" latitude="24.19257" longitude="120.66008" inDis="50" outDis="50" oid="3796" /></BusInfo></BusDynInfo>