[
  {
    "type": "Feature",
    "geometry": {
      "type": "Point",
      "coordinates": [
        120.72154,
        24.2538
      ]
    },
    "properties": {
      "id": "3935",
      "name": "豐原",
      "seq": 1
    }
  },
  {
    "type": "Feature",
    "geometry": {
      "type": "Point",
      "coordinates": [
        120.69799,
        24.2487
      ]
    },
    "properties": {
      "id": "5438",
      "name": "岸裡國小",
      "seq": 10
    }
  },
  {
    "type": "Feature",
    "geometry": {
      "type": "Point",
      "coordinates": [
        120.69323,
        24.24841
      ]
    },
    "properties": {
      "id": "2993",
      "name": "望寮",
      "seq": 11
    }
  },
  {
    "type": "Feature",
    "geometry": {
      "type": "Point",
      "coordinates": [
        120.6896,
        24.2476
      ]
    },
    "properties": {
      "id": "2700",
      "name": "紅瓦厝口",
      "seq": 12
    }
  },
  {
    "type": "Feature",
    "geometry": {
      "type": "Point",
      "coordinates": [
        120.68563,
        24.24668
      ]
    },
    "properties": {
      "id": "2486",
      "name": "社口",
      "seq": 13
    }
  },
  {
    "type": "Feature",
    "geometry": {
      "type": "Point",
      "coordinates": [
        120.68237,
        24.24607
      ]
    },
    "properties": {
      "id": "2492",
      "name": "社南廟",
      "seq": 14
    }
  },
  {
    "type": "Feature",
    "geometry": {
      "type": "Point",
      "coordinates": [
        120.67895,
        24.24386
      ]
    },
    "properties": {
      "id": "3103",
      "name": "頂牛埔",
      "seq": 15
    }
  },
  {
    "type": "Feature",
    "geometry": {
      "type": "Point",
      "coordinates": [
        120.67731,
        24.24282
      ]
    },
    "properties": {
      "id": "4721",
      "name": "三采幼稚園",
      "seq": 16
    }
  },
  {
    "type": "Feature",
    "geometry": {
      "type": "Point",
      "coordinates": [
        120.67445,
        24.24073
      ]
    },
    "properties": {
      "id": "1733",
      "name": "牛埔仔",
      "seq": 17
    }
  },
  {
    "type": "Feature",
    "geometry": {
      "type": "Point",
      "coordinates": [
        120.67004,
        24.23781
      ]
    },
    "properties": {
      "id": "3707",
      "name": "億鴻新村",
      "seq": 18
    }
  },
  {
    "type": "Feature",
    "geometry": {
      "type": "Point",
      "coordinates": [
        120.66726,
        24.23591
      ]
    },
    "properties": {
      "id": "3454",
      "name": "楓樹腳",
      "seq": 19
    }
  },
  {
    "type": "Feature",
    "geometry": {
      "type": "Point",
      "coordinates": [
        120.7184,
        24.25178
      ]
    },
    "properties": {
      "id": "3343",
      "name": "媽祖廟",
      "seq": 2
    }
  },
  {
    "type": "Feature",
    "geometry": {
      "type": "Point",
      "coordinates": [
        120.66354,
        24.23335
      ]
    },
    "properties": {
      "id": "1204",
      "name": "下楓樹腳",
      "seq": 20
    }
  },
  {
    "type": "Feature",
    "geometry": {
      "type": "Point",
      "coordinates": [
        120.65948,
        24.23155
      ]
    },
    "properties": {
      "id": "3544",
      "name": "達聲",
      "seq": 21
    }
  },
  {
    "type": "Feature",
    "geometry": {
      "type": "Point",
      "coordinates": [
        120.65401,
        24.22915
      ]
    },
    "properties": {
      "id": "3304",
      "name": "雅洲新城",
      "seq": 22
    }
  },
  {
    "type": "Feature",
    "geometry": {
      "type": "Point",
      "coordinates": [
        120.65112,
        24.22764
      ]
    },
    "properties": {
      "id": "1366",
      "name": "大榮橋",
      "seq": 23
    }
  },
  {
    "type": "Feature",
    "geometry": {
      "type": "Point",
      "coordinates": [
        120.64796,
        24.22531
      ]
    },
    "properties": {
      "id": "4722",
      "name": "玉山銀行大雅分行",
      "seq": 24
    }
  },
  {
    "type": "Feature",
    "geometry": {
      "type": "Point",
      "coordinates": [
        120.64682,
        24.22493
      ]
    },
    "properties": {
      "id": "1620",
      "name": "大雅分駐所",
      "seq": 25
    }
  },
  {
    "type": "Feature",
    "geometry": {
      "type": "Point",
      "coordinates": [
        120.64457,
        24.22699
      ]
    },
    "properties": {
      "id": "5423",
      "name": "大雅澄清醫院",
      "seq": 26
    }
  },
  {
    "type": "Feature",
    "geometry": {
      "type": "Point",
      "coordinates": [
        120.64281,
        24.2287
      ]
    },
    "properties": {
      "id": "1310",
      "name": "大明國小",
      "seq": 27
    }
  },
  {
    "type": "Feature",
    "geometry": {
      "type": "Point",
      "coordinates": [
        120.64077,
        24.23084
      ]
    },
    "properties": {
      "id": "2253",
      "name": "秀山里",
      "seq": 28
    }
  },
  {
    "type": "Feature",
    "geometry": {
      "type": "Point",
      "coordinates": [
        120.63847,
        24.2331
      ]
    },
    "properties": {
      "id": "2798",
      "name": "泰聯公司",
      "seq": 29
    }
  },
  {
    "type": "Feature",
    "geometry": {
      "type": "Point",
      "coordinates": [
        120.71526,
        24.25136
      ]
    },
    "properties": {
      "id": "3939",
      "name": "豐原郵局",
      "seq": 3
    }
  },
  {
    "type": "Feature",
    "geometry": {
      "type": "Point",
      "coordinates": [
        120.63448,
        24.23703
      ]
    },
    "properties": {
      "id": "1593",
      "name": "六寶里",
      "seq": 30
    }
  },
  {
    "type": "Feature",
    "geometry": {
      "type": "Point",
      "coordinates": [
        120.63235,
        24.23908
      ]
    },
    "properties": {
      "id": "2289",
      "name": "亞東公司",
      "seq": 31
    }
  },
  {
    "type": "Feature",
    "geometry": {
      "type": "Point",
      "coordinates": [
        120.63117,
        24.24023
      ]
    },
    "properties": {
      "id": "1591",
      "name": "六張犁",
      "seq": 32
    }
  },
  {
    "type": "Feature",
    "geometry": {
      "type": "Point",
      "coordinates": [
        120.62876,
        24.24067
      ]
    },
    "properties": {
      "id": "1660",
      "name": "月祥文化路口",
      "seq": 33
    }
  },
  {
    "type": "Feature",
    "geometry": {
      "type": "Point",
      "coordinates": [
        120.62584,
        24.23703
      ]
    },
    "properties": {
      "id": "5030",
      "name": "六寶公園",
      "seq": 34
    }
  },
  {
    "type": "Feature",
    "geometry": {
      "type": "Point",
      "coordinates": [
        120.62443,
        24.2353
      ]
    },
    "properties": {
      "id": "2350",
      "name": "忠義市場(原民中心)",
      "seq": 35
    }
  },
  {
    "type": "Feature",
    "geometry": {
      "type": "Point",
      "coordinates": [
        120.62402,
        24.23345
      ]
    },
    "properties": {
      "id": null,
      "name": "月祥路361巷口",
      "seq": 36
    }
  },
  {
    "type": "Feature",
    "geometry": {
      "type": "Point",
      "coordinates": [
        120.62404,
        24.23096
      ]
    },
    "properties": {
      "id": "5110",
      "name": "忠義里(中科實驗高中)",
      "seq": 37
    }
  },
  {
    "type": "Feature",
    "geometry": {
      "type": "Point",
      "coordinates": [
        120.712,
        24.25079
      ]
    },
    "properties": {
      "id": "3357",
      "name": "慈龍寺",
      "seq": 4
    }
  },
  {
    "type": "Feature",
    "geometry": {
      "type": "Point",
      "coordinates": [
        120.70963,
        24.25039
      ]
    },
    "properties": {
      "id": "4448",
      "name": "中正圓環西路口",
      "seq": 5
    }
  },
  {
    "type": "Feature",
    "geometry": {
      "type": "Point",
      "coordinates": [
        120.70672,
        24.24999
      ]
    },
    "properties": {
      "id": "1065",
      "name": "三光新村",
      "seq": 6
    }
  },
  {
    "type": "Feature",
    "geometry": {
      "type": "Point",
      "coordinates": [
        120.70434,
        24.24962
      ]
    },
    "properties": {
      "id": "2349",
      "name": "忠勤新村",
      "seq": 7
    }
  },
  {
    "type": "Feature",
    "geometry": {
      "type": "Point",
      "coordinates": [
        120.70229,
        24.24951
      ]
    },
    "properties": {
      "id": "2489",
      "name": "社皮鐵路巷",
      "seq": 8
    }
  },
  {
    "type": "Feature",
    "geometry": {
      "type": "Point",
      "coordinates": [
        120.70003,
        24.249
      ]
    },
    "properties": {
      "id": "4498",
      "name": "臺豐社區",
      "seq": 9
    }
  }
]
