[
  {
    "type": "Feature",
    "geometry": {
      "type": "Point",
      "coordinates": [
        120.67838,
        24.19329
      ]
    },
    "properties": {
      "id": "1851",
      "name": "四張犁國小",
      "seq": 1
    }
  },
  {
    "type": "Feature",
    "geometry": {
      "type": "Point",
      "coordinates": [
        120.68049,
        24.19288
      ]
    },
    "properties": {
      "id": "5514",
      "name": "四民衛生所",
      "seq": 2
    }
  },
  {
    "type": "Feature",
    "geometry": {
      "type": "Point",
      "coordinates": [
        120.68206,
        24.19242
      ]
    },
    "properties": {
      "id": "5374",
      "name": "四張犁(后庄路)",
      "seq": 3
    }
  },
  {
    "type": "Feature",
    "geometry": {
      "type": "Point",
      "coordinates": [
        120.68263,
        24.19193
      ]
    },
    "properties": {
      "id": "0541",
      "name": "四民市場",
      "seq": 4
    }
  },
  {
    "type": "Feature",
    "geometry": {
      "type": "Point",
      "coordinates": [
        120.68377,
        24.19121
      ]
    },
    "properties": {
      "id": "5892",
      "name": "仁美里(昌平路)",
      "seq": 5
    }
  },
  {
    "type": "Feature",
    "geometry": {
      "type": "Point",
      "coordinates": [
        120.68567,
        24.18967
      ]
    },
    "properties": {
      "id": "0698",
      "name": "南四張犁",
      "seq": 6
    }
  },
  {
    "type": "Feature",
    "geometry": {
      "type": "Point",
      "coordinates": [
        120.68619,
        24.18759
      ]
    },
    "properties": {
      "id": "2958",
      "name": "崇德九路口",
      "seq": 7
    }
  },
  {
    "type": "Feature",
    "geometry": {
      "type": "Point",
      "coordinates": [
        120.68627,
        24.18493
      ]
    },
    "properties": {
      "id": "1393",
      "name": "崇德山西路口",
      "seq": 8
    }
  },
  {
    "type": "Feature",
    "geometry": {
      "type": "Point",
      "coordinates": [
        120.68613,
        24.18307
      ]
    },
    "properties": {
      "id": "0194",
      "name": "北屯區行政大樓",
      "seq": 9
    }
  },
  {
    "type": "Feature",
    "geometry": {
      "type": "Point",
      "coordinates": [
        120.68608,
        24.18086
      ]
    },
    "properties": {
      "id": "5387",
      "name": "崇德六路口",
      "seq": 10
    }
  },
  {
    "type": "Feature",
    "geometry": {
      "type": "Point",
      "coordinates": [
        120.68589,
        24.17913
      ]
    },
    "properties": {
      "id": "0195",
      "name": "崇德五路口",
      "seq": 11
    }
  },
  {
    "type": "Feature",
    "geometry": {
      "type": "Point",
      "coordinates": [
        120.68577,
        24.17723
      ]
    },
    "properties": {
      "id": "0196",
      "name": "崇德一路口",
      "seq": 12
    }
  },
  {
    "type": "Feature",
    "geometry": {
      "type": "Point",
      "coordinates": [
        120.68573,
        24.17484
      ]
    },
    "properties": {
      "id": "5131",
      "name": "崇德國中(民俗公園)",
      "seq": 13
    }
  },
  {
    "type": "Feature",
    "geometry": {
      "type": "Point",
      "coordinates": [
        120.68553,
        24.17332
      ]
    },
    "properties": {
      "id": "0199",
      "name": "崇德瀋陽路口",
      "seq": 14
    }
  },
  {
    "type": "Feature",
    "geometry": {
      "type": "Point",
      "coordinates": [
        120.68541,
        24.17181
      ]
    },
    "properties": {
      "id": "4339",
      "name": "崇德文心路口",
      "seq": 15
    }
  },
  {
    "type": "Feature",
    "geometry": {
      "type": "Point",
      "coordinates": [
        120.68531,
        24.17055
      ]
    },
    "properties": {
      "id": "1768",
      "name": "崇德北平路口",
      "seq": 16
    }
  },
  {
    "type": "Feature",
    "geometry": {
      "type": "Point",
      "coordinates": [
        120.68525,
        24.16863
      ]
    },
    "properties": {
      "id": "5866",
      "name": "崇德青島路口",
      "seq": 17
    }
  },
  {
    "type": "Feature",
    "geometry": {
      "type": "Point",
      "coordinates": [
        120.68509,
        24.16543
      ]
    },
    "properties": {
      "id": "0098",
      "name": "崇德橋",
      "seq": 18
    }
  },
  {
    "type": "Feature",
    "geometry": {
      "type": "Point",
      "coordinates": [
        120.68623,
        24.163
      ]
    },
    "properties": {
      "id": "0800",
      "name": "頂厝里",
      "seq": 19
    }
  },
  {
    "type": "Feature",
    "geometry": {
      "type": "Point",
      "coordinates": [
        120.68766,
        24.16304
      ]
    },
    "properties": {
      "id": "0830",
      "name": "稅務新村",
      "seq": 20
    }
  },
  {
    "type": "Feature",
    "geometry": {
      "type": "Point",
      "coordinates": [
        120.68986,
        24.16306
      ]
    },
    "properties": {
      "id": "0493",
      "name": "北屯市場",
      "seq": 21
    }
  },
  {
    "type": "Feature",
    "geometry": {
      "type": "Point",
      "coordinates": [
        120.69218,
        24.1611
      ]
    },
    "properties": {
      "id": "0892",
      "name": "監理站",
      "seq": 22
    }
  },
  {
    "type": "Feature",
    "geometry": {
      "type": "Point",
      "coordinates": [
        120.69034,
        24.15845
      ]
    },
    "properties": {
      "id": "0960",
      "name": "寶覺寺",
      "seq": 23
    }
  },
  {
    "type": "Feature",
    "geometry": {
      "type": "Point",
      "coordinates": [
        120.68852,
        24.15682
      ]
    },
    "properties": {
      "id": "4399",
      "name": "新民高中(三民路)",
      "seq": 24
    }
  },
  {
    "type": "Feature",
    "geometry": {
      "type": "Point",
      "coordinates": [
        120.68695,
        24.15528
      ]
    },
    "properties": {
      "id": "0934",
      "name": "三民錦中街口",
      "seq": 25
    }
  },
  {
    "type": "Feature",
    "geometry": {
      "type": "Point",
      "coordinates": [
        120.68585,
        24.15409
      ]
    },
    "properties": {
      "id": "0047",
      "name": "一心市場",
      "seq": 26
    }
  },
  {
    "type": "Feature",
    "geometry": {
      "type": "Point",
      "coordinates": [
        120.68484,
        24.15177
      ]
    },
    "properties": {
      "id": "0046",
      "name": "中友百貨",
      "seq": 27
    }
  },
  {
    "type": "Feature",
    "geometry": {
      "type": "Point",
      "coordinates": [
        120.68395,
        24.14968
      ]
    },
    "properties": {
      "id": "0045",
      "name": "國立臺中科技大學",
      "seq": 28
    }
  },
  {
    "type": "Feature",
    "geometry": {
      "type": "Point",
      "coordinates": [
        120.68254,
        24.14382
      ]
    },
    "properties": {
      "id": "5467",
      "name": "臺中公園(公園路)",
      "seq": 29
    }
  },
  {
    "type": "Feature",
    "geometry": {
      "type": "Point",
      "coordinates": [
        120.68388,
        24.14269
      ]
    },
    "properties": {
      "id": "5670",
      "name": "公園自由路口",
      "seq": 30
    }
  },
  {
    "type": "Feature",
    "geometry": {
      "type": "Point",
      "coordinates": [
        120.6861,
        24.14102
      ]
    },
    "properties": {
      "id": "0402",
      "name": "干城站",
      "seq": 31
    }
  },
  {
    "type": "Feature",
    "geometry": {
      "type": "Point",
      "coordinates": [
        120.68501,
        24.13937
      ]
    },
    "properties": {
      "id": "0443",
      "name": "仁友東站",
      "seq": 32
    }
  },
  {
    "type": "Feature",
    "geometry": {
      "type": "Point",
      "coordinates": [
        120.68206,
        24.13417
      ]
    },
    "properties": {
      "id": "0518",
      "name": "臺中酒廠(復興路)",
      "seq": 33
    }
  },
  {
    "type": "Feature",
    "geometry": {
      "type": "Point",
      "coordinates": [
        120.67994,
        24.13317
      ]
    },
    "properties": {
      "id": "1659",
      "name": "文化創意園區",
      "seq": 34
    }
  },
  {
    "type": "Feature",
    "geometry": {
      "type": "Point",
      "coordinates": [
        120.67877,
        24.1328
      ]
    },
    "properties": {
      "id": "0180",
      "name": "林祖厝",
      "seq": 35
    }
  },
  {
    "type": "Feature",
    "geometry": {
      "type": "Point",
      "coordinates": [
        120.67573,
        24.1314
      ]
    },
    "properties": {
      "id": "4604",
      "name": "復興有恆街口",
      "seq": 36
    }
  },
  {
    "type": "Feature",
    "geometry": {
      "type": "Point",
      "coordinates": [
        120.67469,
        24.13108
      ]
    },
    "properties": {
      "id": "0178",
      "name": "第三分局",
      "seq": 37
    }
  },
  {
    "type": "Feature",
    "geometry": {
      "type": "Point",
      "coordinates": [
        120.6711,
        24.12935
      ]
    },
    "properties": {
      "id": "5393",
      "name": "公共資訊圖書館(復興路)",
      "seq": 38
    }
  },
  {
    "type": "Feature",
    "geometry": {
      "type": "Point",
      "coordinates": [
        120.66837,
        24.12838
      ]
    },
    "properties": {
      "id": "5478",
      "name": "高等法院臺中分院",
      "seq": 39
    }
  },
  {
    "type": "Feature",
    "geometry": {
      "type": "Point",
      "coordinates": [
        120.66569,
        24.12704
      ]
    },
    "properties": {
      "id": "0543",
      "name": "四育國中",
      "seq": 40
    }
  },
  {
    "type": "Feature",
    "geometry": {
      "type": "Point",
      "coordinates": [
        120.66303,
        24.12392
      ]
    },
    "properties": {
      "id": "3395",
      "name": "復興新和街口",
      "seq": 41
    }
  },
  {
    "type": "Feature",
    "geometry": {
      "type": "Point",
      "coordinates": [
        120.66133,
        24.12141
      ]
    },
    "properties": {
      "id": "0128",
      "name": "和平國小",
      "seq": 42
    }
  },
  {
    "type": "Feature",
    "geometry": {
      "type": "Point",
      "coordinates": [
        120.65942,
        24.11898
      ]
    },
    "properties": {
      "id": "5870",
      "name": "宜寧中學(復興路)",
      "seq": 43
    }
  },
  {
    "type": "Feature",
    "geometry": {
      "type": "Point",
      "coordinates": [
        120.65818,
        24.11751
      ]
    },
    "properties": {
      "id": "4538",
      "name": "臺中高工(復興路)",
      "seq": 44
    }
  },
  {
    "type": "Feature",
    "geometry": {
      "type": "Point",
      "coordinates": [
        120.65422,
        24.11444
      ]
    },
    "properties": {
      "id": "4536",
      "name": "復興大慶街口",
      "seq": 45
    }
  },
  {
    "type": "Feature",
    "geometry": {
      "type": "Point",
      "coordinates": [
        120.6512,
        24.11225
      ]
    },
    "properties": {
      "id": "3330",
      "name": "勤工派出所",
      "seq": 46
    }
  },
  {
    "type": "Feature",
    "geometry": {
      "type": "Point",
      "coordinates": [
        120.64799,
        24.11096
      ]
    },
    "properties": {
      "id": "5195",
      "name": "復興環中路口",
      "seq": 47
    }
  },
  {
    "type": "Feature",
    "geometry": {
      "type": "Point",
      "coordinates": [
        120.64588,
        24.11023
      ]
    },
    "properties": {
      "id": "3790",
      "name": "樹仔腳",
      "seq": 48
    }
  },
  {
    "type": "Feature",
    "geometry": {
      "type": "Point",
      "coordinates": [
        120.64182,
        24.10901
      ]
    },
    "properties": {
      "id": "0994",
      "name": "九張犁",
      "seq": 49
    }
  },
  {
    "type": "Feature",
    "geometry": {
      "type": "Point",
      "coordinates": [
        120.63886,
        24.10807
      ]
    },
    "properties": {
      "id": "2366",
      "name": "明道花園城",
      "seq": 50
    }
  },
  {
    "type": "Feature",
    "geometry": {
      "type": "Point",
      "coordinates": [
        120.63696,
        24.10749
      ]
    },
    "properties": {
      "id": "2365",
      "name": "明道中學",
      "seq": 51
    }
  },
  {
    "type": "Feature",
    "geometry": {
      "type": "Point",
      "coordinates": [
        120.63294,
        24.10581
      ]
    },
    "properties": {
      "id": "2821",
      "name": "烏日橋",
      "seq": 52
    }
  },
  {
    "type": "Feature",
    "geometry": {
      "type": "Point",
      "coordinates": [
        120.62864,
        24.10564
      ]
    },
    "properties": {
      "id": "1454",
      "name": "中和紡織",
      "seq": 53
    }
  },
  {
    "type": "Feature",
    "geometry": {
      "type": "Point",
      "coordinates": [
        120.62665,
        24.10602
      ]
    },
    "properties": {
      "id": "4660",
      "name": "中山五光路口",
      "seq": 54
    }
  },
  {
    "type": "Feature",
    "geometry": {
      "type": "Point",
      "coordinates": [
        120.62193,
        24.1065
      ]
    },
    "properties": {
      "id": "5819",
      "name": "烏日(中山路)",
      "seq": 55
    }
  },
  {
    "type": "Feature",
    "geometry": {
      "type": "Point",
      "coordinates": [
        120.61759,
        24.1064
      ]
    },
    "properties": {
      "id": "5818",
      "name": "烏日國中(中山路)",
      "seq": 56
    }
  },
  {
    "type": "Feature",
    "geometry": {
      "type": "Point",
      "coordinates": [
        120.61397,
        24.1069
      ]
    },
    "properties": {
      "id": "2742",
      "name": "烏厝巷",
      "seq": 57
    }
  },
  {
    "type": "Feature",
    "geometry": {
      "type": "Point",
      "coordinates": [
        120.60761,
        24.10842
      ]
    },
    "properties": {
      "id": "5082",
      "name": "三和里1",
      "seq": 58
    }
  },
  {
    "type": "Feature",
    "geometry": {
      "type": "Point",
      "coordinates": [
        120.60634,
        24.10878
      ]
    },
    "properties": {
      "id": "5083",
      "name": "三和里2",
      "seq": 59
    }
  },
  {
    "type": "Feature",
    "geometry": {
      "type": "Point",
      "coordinates": [
        120.6047,
        24.10927
      ]
    },
    "properties": {
      "id": "4468",
      "name": "烏日戶政",
      "seq": 60
    }
  },
  {
    "type": "Feature",
    "geometry": {
      "type": "Point",
      "coordinates": [
        120.60155,
        24.11049
      ]
    },
    "properties": {
      "id": "2120",
      "name": "成功嶺",
      "seq": 61
    }
  },
  {
    "type": "Feature",
    "geometry": {
      "type": "Point",
      "coordinates": [
        120.5979,
        24.1117
      ]
    },
    "properties": {
      "id": "5952",
      "name": "中山榮和路口",
      "seq": 62
    }
  },
  {
    "type": "Feature",
    "geometry": {
      "type": "Point",
      "coordinates": [
        120.59327,
        24.11325
      ]
    },
    "properties": {
      "id": "3722",
      "name": "善光寺",
      "seq": 63
    }
  },
  {
    "type": "Feature",
    "geometry": {
      "type": "Point",
      "coordinates": [
        120.5902,
        24.11369
      ]
    },
    "properties": {
      "id": "1743",
      "name": "王田",
      "seq": 64
    }
  },
  {
    "type": "Feature",
    "geometry": {
      "type": "Point",
      "coordinates": [
        120.57649,
        24.11887
      ]
    },
    "properties": {
      "id": "2597",
      "name": "南追分",
      "seq": 65
    }
  },
  {
    "type": "Feature",
    "geometry": {
      "type": "Point",
      "coordinates": [
        120.57048,
        24.12114
      ]
    },
    "properties": {
      "id": "2884",
      "name": "追分",
      "seq": 66
    }
  },
  {
    "type": "Feature",
    "geometry": {
      "type": "Point",
      "coordinates": [
        120.56812,
        24.12203
      ]
    },
    "properties": {
      "id": "2885",
      "name": "追分國小",
      "seq": 67
    }
  },
  {
    "type": "Feature",
    "geometry": {
      "type": "Point",
      "coordinates": [
        120.56594,
        24.12271
      ]
    },
    "properties": {
      "id": "4858",
      "name": "福山",
      "seq": 68
    }
  },
  {
    "type": "Feature",
    "geometry": {
      "type": "Point",
      "coordinates": [
        120.5645,
        24.12339
      ]
    },
    "properties": {
      "id": "1390",
      "name": "山仔頂",
      "seq": 69
    }
  },
  {
    "type": "Feature",
    "geometry": {
      "type": "Point",
      "coordinates": [
        120.56207,
        24.12482
      ]
    },
    "properties": {
      "id": "2886",
      "name": "追分郵局",
      "seq": 70
    }
  },
  {
    "type": "Feature",
    "geometry": {
      "type": "Point",
      "coordinates": [
        120.56034,
        24.12584
      ]
    },
    "properties": {
      "id": "4511",
      "name": "興國公司",
      "seq": 71
    }
  },
  {
    "type": "Feature",
    "geometry": {
      "type": "Point",
      "coordinates": [
        120.55759,
        24.12759
      ]
    },
    "properties": {
      "id": "4514",
      "name": "營埔里",
      "seq": 72
    }
  },
  {
    "type": "Feature",
    "geometry": {
      "type": "Point",
      "coordinates": [
        120.55397,
        24.13248
      ]
    },
    "properties": {
      "id": "2494",
      "name": "社腳",
      "seq": 73
    }
  },
  {
    "type": "Feature",
    "geometry": {
      "type": "Point",
      "coordinates": [
        120.55358,
        24.13472
      ]
    },
    "properties": {
      "id": "5831",
      "name": "沙田路918巷口",
      "seq": 74
    }
  },
  {
    "type": "Feature",
    "geometry": {
      "type": "Point",
      "coordinates": [
        120.5518,
        24.13717
      ]
    },
    "properties": {
      "id": "4038",
      "name": "崁仔腳",
      "seq": 75
    }
  },
  {
    "type": "Feature",
    "geometry": {
      "type": "Point",
      "coordinates": [
        120.54888,
        24.14148
      ]
    },
    "properties": {
      "id": "4491",
      "name": "新興里",
      "seq": 76
    }
  },
  {
    "type": "Feature",
    "geometry": {
      "type": "Point",
      "coordinates": [
        120.54794,
        24.14309
      ]
    },
    "properties": {
      "id": "4460",
      "name": "沙田自由路口",
      "seq": 77
    }
  },
  {
    "type": "Feature",
    "geometry": {
      "type": "Point",
      "coordinates": [
        120.54673,
        24.14613
      ]
    },
    "properties": {
      "id": "1359",
      "name": "大道國中",
      "seq": 78
    }
  },
  {
    "type": "Feature",
    "geometry": {
      "type": "Point",
      "coordinates": [
        120.54565,
        24.15014
      ]
    },
    "properties": {
      "id": "1302",
      "name": "大肚",
      "seq": 79
    }
  },
  {
    "type": "Feature",
    "geometry": {
      "type": "Point",
      "coordinates": [
        120.54536,
        24.1512
      ]
    },
    "properties": {
      "id": "4786",
      "name": "大肚區公所",
      "seq": 80
    }
  },
  {
    "type": "Feature",
    "geometry": {
      "type": "Point",
      "coordinates": [
        120.54476,
        24.15316
      ]
    },
    "properties": {
      "id": "1303",
      "name": "大肚火車站",
      "seq": 81
    }
  },
  {
    "type": "Feature",
    "geometry": {
      "type": "Point",
      "coordinates": [
        120.54393,
        24.15806
      ]
    },
    "properties": {
      "id": "3157",
      "name": "頂街",
      "seq": 82
    }
  },
  {
    "type": "Feature",
    "geometry": {
      "type": "Point",
      "coordinates": [
        120.54356,
        24.15977
      ]
    },
    "properties": {
      "id": "4450",
      "name": "北頂街",
      "seq": 83
    }
  },
  {
    "type": "Feature",
    "geometry": {
      "type": "Point",
      "coordinates": [
        120.5432,
        24.16186
      ]
    },
    "properties": {
      "id": "5790",
      "name": "榮華",
      "seq": 84
    }
  },
  {
    "type": "Feature",
    "geometry": {
      "type": "Point",
      "coordinates": [
        120.54283,
        24.16408
      ]
    },
    "properties": {
      "id": "1395",
      "name": "山陽",
      "seq": 85
    }
  },
  {
    "type": "Feature",
    "geometry": {
      "type": "Point",
      "coordinates": [
        120.54238,
        24.1689
      ]
    },
    "properties": {
      "id": "5746",
      "name": "山陽一站",
      "seq": 86
    }
  },
  {
    "type": "Feature",
    "geometry": {
      "type": "Point",
      "coordinates": [
        120.54352,
        24.17402
      ]
    },
    "properties": {
      "id": "5482",
      "name": "沙田中華路口",
      "seq": 87
    }
  },
  {
    "type": "Feature",
    "geometry": {
      "type": "Point",
      "coordinates": [
        120.54379,
        24.17549
      ]
    },
    "properties": {
      "id": "2144",
      "name": "竹坑口",
      "seq": 88
    }
  },
  {
    "type": "Feature",
    "geometry": {
      "type": "Point",
      "coordinates": [
        120.54461,
        24.17876
      ]
    },
    "properties": {
      "id": "2242",
      "name": "村內入口",
      "seq": 89
    }
  },
  {
    "type": "Feature",
    "geometry": {
      "type": "Point",
      "coordinates": [
        120.54554,
        24.18257
      ]
    },
    "properties": {
      "id": "3031",
      "name": "深水",
      "seq": 90
    }
  },
  {
    "type": "Feature",
    "geometry": {
      "type": "Point",
      "coordinates": [
        120.54549,
        24.18642
      ]
    },
    "properties": {
      "id": "3853",
      "name": "龍崗",
      "seq": 91
    }
  },
  {
    "type": "Feature",
    "geometry": {
      "type": "Point",
      "coordinates": [
        120.54574,
        24.18898
      ]
    },
    "properties": {
      "id": "3847",
      "name": "龍井加油站",
      "seq": 92
    }
  },
  {
    "type": "Feature",
    "geometry": {
      "type": "Point",
      "coordinates": [
        120.54608,
        24.19246
      ]
    },
    "properties": {
      "id": "5160",
      "name": "龍井區公所",
      "seq": 93
    }
  },
  {
    "type": "Feature",
    "geometry": {
      "type": "Point",
      "coordinates": [
        120.54659,
        24.19687
      ]
    },
    "properties": {
      "id": "3846",
      "name": "龍井火車站",
      "seq": 94
    }
  },
  {
    "type": "Feature",
    "geometry": {
      "type": "Point",
      "coordinates": [
        120.54699,
        24.19933
      ]
    },
    "properties": {
      "id": "3855",
      "name": "龍泉",
      "seq": 95
    }
  },
  {
    "type": "Feature",
    "geometry": {
      "type": "Point",
      "coordinates": [
        120.54798,
        24.20249
      ]
    },
    "properties": {
      "id": "3850",
      "name": "龍目井",
      "seq": 96
    }
  },
  {
    "type": "Feature",
    "geometry": {
      "type": "Point",
      "coordinates": [
        120.54923,
        24.20743
      ]
    },
    "properties": {
      "id": "4010",
      "name": "鷺山",
      "seq": 97
    }
  },
  {
    "type": "Feature",
    "geometry": {
      "type": "Point",
      "coordinates": [
        120.55056,
        24.21022
      ]
    },
    "properties": {
      "id": "2559",
      "name": "南山腳",
      "seq": 98
    }
  },
  {
    "type": "Feature",
    "geometry": {
      "type": "Point",
      "coordinates": [
        120.55182,
        24.2137
      ]
    },
    "properties": {
      "id": "5159",
      "name": "龍山國小(山腳里)",
      "seq": 99
    }
  },
  {
    "type": "Feature",
    "geometry": {
      "type": "Point",
      "coordinates": [
        120.55175,
        24.21387
      ]
    },
    "properties": {
      "id": "5159",
      "name": "龍山國小(山腳里)",
      "seq": 1
    }
  },
  {
    "type": "Feature",
    "geometry": {
      "type": "Point",
      "coordinates": [
        120.55056,
        24.21022
      ]
    },
    "properties": {
      "id": "2559",
      "name": "南山腳",
      "seq": 2
    }
  },
  {
    "type": "Feature",
    "geometry": {
      "type": "Point",
      "coordinates": [
        120.54923,
        24.20743
      ]
    },
    "properties": {
      "id": "4010",
      "name": "鷺山",
      "seq": 3
    }
  },
  {
    "type": "Feature",
    "geometry": {
      "type": "Point",
      "coordinates": [
        120.54798,
        24.20249
      ]
    },
    "properties": {
      "id": "3850",
      "name": "龍目井",
      "seq": 4
    }
  },
  {
    "type": "Feature",
    "geometry": {
      "type": "Point",
      "coordinates": [
        120.54699,
        24.19933
      ]
    },
    "properties": {
      "id": "3855",
      "name": "龍泉",
      "seq": 5
    }
  },
  {
    "type": "Feature",
    "geometry": {
      "type": "Point",
      "coordinates": [
        120.54659,
        24.19687
      ]
    },
    "properties": {
      "id": "3846",
      "name": "龍井火車站",
      "seq": 6
    }
  },
  {
    "type": "Feature",
    "geometry": {
      "type": "Point",
      "coordinates": [
        120.54608,
        24.19246
      ]
    },
    "properties": {
      "id": "5160",
      "name": "龍井區公所",
      "seq": 7
    }
  },
  {
    "type": "Feature",
    "geometry": {
      "type": "Point",
      "coordinates": [
        120.54574,
        24.18898
      ]
    },
    "properties": {
      "id": "3847",
      "name": "龍井加油站",
      "seq": 8
    }
  },
  {
    "type": "Feature",
    "geometry": {
      "type": "Point",
      "coordinates": [
        120.54549,
        24.18642
      ]
    },
    "properties": {
      "id": "3853",
      "name": "龍崗",
      "seq": 9
    }
  },
  {
    "type": "Feature",
    "geometry": {
      "type": "Point",
      "coordinates": [
        120.54554,
        24.18257
      ]
    },
    "properties": {
      "id": "3031",
      "name": "深水",
      "seq": 10
    }
  },
  {
    "type": "Feature",
    "geometry": {
      "type": "Point",
      "coordinates": [
        120.54461,
        24.17876
      ]
    },
    "properties": {
      "id": "2242",
      "name": "村內入口",
      "seq": 11
    }
  },
  {
    "type": "Feature",
    "geometry": {
      "type": "Point",
      "coordinates": [
        120.54379,
        24.17549
      ]
    },
    "properties": {
      "id": "2144",
      "name": "竹坑口",
      "seq": 12
    }
  },
  {
    "type": "Feature",
    "geometry": {
      "type": "Point",
      "coordinates": [
        120.54266,
        24.17189
      ]
    },
    "properties": {
      "id": "5482",
      "name": "沙田中華路口",
      "seq": 13
    }
  },
  {
    "type": "Feature",
    "geometry": {
      "type": "Point",
      "coordinates": [
        120.54238,
        24.1689
      ]
    },
    "properties": {
      "id": "5746",
      "name": "山陽一站",
      "seq": 14
    }
  },
  {
    "type": "Feature",
    "geometry": {
      "type": "Point",
      "coordinates": [
        120.54283,
        24.16408
      ]
    },
    "properties": {
      "id": "1395",
      "name": "山陽",
      "seq": 15
    }
  },
  {
    "type": "Feature",
    "geometry": {
      "type": "Point",
      "coordinates": [
        120.54308,
        24.16188
      ]
    },
    "properties": {
      "id": "5790",
      "name": "榮華",
      "seq": 16
    }
  },
  {
    "type": "Feature",
    "geometry": {
      "type": "Point",
      "coordinates": [
        120.54356,
        24.15977
      ]
    },
    "properties": {
      "id": "4450",
      "name": "北頂街",
      "seq": 17
    }
  },
  {
    "type": "Feature",
    "geometry": {
      "type": "Point",
      "coordinates": [
        120.54393,
        24.15806
      ]
    },
    "properties": {
      "id": "3157",
      "name": "頂街",
      "seq": 18
    }
  },
  {
    "type": "Feature",
    "geometry": {
      "type": "Point",
      "coordinates": [
        120.54476,
        24.15316
      ]
    },
    "properties": {
      "id": "1303",
      "name": "大肚火車站",
      "seq": 19
    }
  },
  {
    "type": "Feature",
    "geometry": {
      "type": "Point",
      "coordinates": [
        120.54536,
        24.1512
      ]
    },
    "properties": {
      "id": "4786",
      "name": "大肚區公所",
      "seq": 20
    }
  },
  {
    "type": "Feature",
    "geometry": {
      "type": "Point",
      "coordinates": [
        120.54565,
        24.15014
      ]
    },
    "properties": {
      "id": "1302",
      "name": "大肚",
      "seq": 21
    }
  },
  {
    "type": "Feature",
    "geometry": {
      "type": "Point",
      "coordinates": [
        120.54673,
        24.14613
      ]
    },
    "properties": {
      "id": "1359",
      "name": "大道國中",
      "seq": 22
    }
  },
  {
    "type": "Feature",
    "geometry": {
      "type": "Point",
      "coordinates": [
        120.54794,
        24.14309
      ]
    },
    "properties": {
      "id": "4460",
      "name": "沙田自由路口",
      "seq": 23
    }
  },
  {
    "type": "Feature",
    "geometry": {
      "type": "Point",
      "coordinates": [
        120.54888,
        24.14148
      ]
    },
    "properties": {
      "id": "4491",
      "name": "新興里",
      "seq": 24
    }
  },
  {
    "type": "Feature",
    "geometry": {
      "type": "Point",
      "coordinates": [
        120.5518,
        24.13717
      ]
    },
    "properties": {
      "id": "4038",
      "name": "崁仔腳",
      "seq": 25
    }
  },
  {
    "type": "Feature",
    "geometry": {
      "type": "Point",
      "coordinates": [
        120.55358,
        24.13472
      ]
    },
    "properties": {
      "id": "5831",
      "name": "沙田路918巷口",
      "seq": 26
    }
  },
  {
    "type": "Feature",
    "geometry": {
      "type": "Point",
      "coordinates": [
        120.55397,
        24.13248
      ]
    },
    "properties": {
      "id": "2494",
      "name": "社腳",
      "seq": 27
    }
  },
  {
    "type": "Feature",
    "geometry": {
      "type": "Point",
      "coordinates": [
        120.55759,
        24.12759
      ]
    },
    "properties": {
      "id": "4514",
      "name": "營埔里",
      "seq": 28
    }
  },
  {
    "type": "Feature",
    "geometry": {
      "type": "Point",
      "coordinates": [
        120.56034,
        24.12584
      ]
    },
    "properties": {
      "id": "4511",
      "name": "興國公司",
      "seq": 29
    }
  },
  {
    "type": "Feature",
    "geometry": {
      "type": "Point",
      "coordinates": [
        120.56207,
        24.12482
      ]
    },
    "properties": {
      "id": "2886",
      "name": "追分郵局",
      "seq": 30
    }
  },
  {
    "type": "Feature",
    "geometry": {
      "type": "Point",
      "coordinates": [
        120.5645,
        24.12339
      ]
    },
    "properties": {
      "id": "1390",
      "name": "山仔頂",
      "seq": 31
    }
  },
  {
    "type": "Feature",
    "geometry": {
      "type": "Point",
      "coordinates": [
        120.56624,
        24.12259
      ]
    },
    "properties": {
      "id": "4858",
      "name": "福山",
      "seq": 32
    }
  },
  {
    "type": "Feature",
    "geometry": {
      "type": "Point",
      "coordinates": [
        120.56812,
        24.12203
      ]
    },
    "properties": {
      "id": "2885",
      "name": "追分國小",
      "seq": 33
    }
  },
  {
    "type": "Feature",
    "geometry": {
      "type": "Point",
      "coordinates": [
        120.57048,
        24.12114
      ]
    },
    "properties": {
      "id": "2884",
      "name": "追分",
      "seq": 34
    }
  },
  {
    "type": "Feature",
    "geometry": {
      "type": "Point",
      "coordinates": [
        120.57649,
        24.11887
      ]
    },
    "properties": {
      "id": "2597",
      "name": "南追分",
      "seq": 35
    }
  },
  {
    "type": "Feature",
    "geometry": {
      "type": "Point",
      "coordinates": [
        120.59019,
        24.11341
      ]
    },
    "properties": {
      "id": "1743",
      "name": "王田",
      "seq": 36
    }
  },
  {
    "type": "Feature",
    "geometry": {
      "type": "Point",
      "coordinates": [
        120.59317,
        24.11294
      ]
    },
    "properties": {
      "id": "3722",
      "name": "善光寺",
      "seq": 37
    }
  },
  {
    "type": "Feature",
    "geometry": {
      "type": "Point",
      "coordinates": [
        120.59743,
        24.11157
      ]
    },
    "properties": {
      "id": "5952",
      "name": "中山榮和路口",
      "seq": 38
    }
  },
  {
    "type": "Feature",
    "geometry": {
      "type": "Point",
      "coordinates": [
        120.60111,
        24.11041
      ]
    },
    "properties": {
      "id": "2120",
      "name": "成功嶺",
      "seq": 39
    }
  },
  {
    "type": "Feature",
    "geometry": {
      "type": "Point",
      "coordinates": [
        120.6047,
        24.10927
      ]
    },
    "properties": {
      "id": "4468",
      "name": "烏日戶政",
      "seq": 40
    }
  },
  {
    "type": "Feature",
    "geometry": {
      "type": "Point",
      "coordinates": [
        120.60634,
        24.10878
      ]
    },
    "properties": {
      "id": "5083",
      "name": "三和里2",
      "seq": 41
    }
  },
  {
    "type": "Feature",
    "geometry": {
      "type": "Point",
      "coordinates": [
        120.60761,
        24.10842
      ]
    },
    "properties": {
      "id": "5082",
      "name": "三和里1",
      "seq": 42
    }
  },
  {
    "type": "Feature",
    "geometry": {
      "type": "Point",
      "coordinates": [
        120.61397,
        24.1069
      ]
    },
    "properties": {
      "id": "2742",
      "name": "烏厝巷",
      "seq": 43
    }
  },
  {
    "type": "Feature",
    "geometry": {
      "type": "Point",
      "coordinates": [
        120.61759,
        24.1064
      ]
    },
    "properties": {
      "id": "5818",
      "name": "烏日國中(中山路)",
      "seq": 44
    }
  },
  {
    "type": "Feature",
    "geometry": {
      "type": "Point",
      "coordinates": [
        120.62193,
        24.1065
      ]
    },
    "properties": {
      "id": "5819",
      "name": "烏日(中山路)",
      "seq": 45
    }
  },
  {
    "type": "Feature",
    "geometry": {
      "type": "Point",
      "coordinates": [
        120.62665,
        24.10602
      ]
    },
    "properties": {
      "id": "4660",
      "name": "中山五光路口",
      "seq": 46
    }
  },
  {
    "type": "Feature",
    "geometry": {
      "type": "Point",
      "coordinates": [
        120.62864,
        24.10564
      ]
    },
    "properties": {
      "id": "1454",
      "name": "中和紡織",
      "seq": 47
    }
  },
  {
    "type": "Feature",
    "geometry": {
      "type": "Point",
      "coordinates": [
        120.63294,
        24.10581
      ]
    },
    "properties": {
      "id": "2821",
      "name": "烏日橋",
      "seq": 48
    }
  },
  {
    "type": "Feature",
    "geometry": {
      "type": "Point",
      "coordinates": [
        120.63696,
        24.10749
      ]
    },
    "properties": {
      "id": "2365",
      "name": "明道中學",
      "seq": 49
    }
  },
  {
    "type": "Feature",
    "geometry": {
      "type": "Point",
      "coordinates": [
        120.63886,
        24.10807
      ]
    },
    "properties": {
      "id": "2366",
      "name": "明道花園城",
      "seq": 50
    }
  },
  {
    "type": "Feature",
    "geometry": {
      "type": "Point",
      "coordinates": [
        120.64182,
        24.10901
      ]
    },
    "properties": {
      "id": "0994",
      "name": "九張犁",
      "seq": 51
    }
  },
  {
    "type": "Feature",
    "geometry": {
      "type": "Point",
      "coordinates": [
        120.64588,
        24.11023
      ]
    },
    "properties": {
      "id": "3790",
      "name": "樹仔腳",
      "seq": 52
    }
  },
  {
    "type": "Feature",
    "geometry": {
      "type": "Point",
      "coordinates": [
        120.64799,
        24.11096
      ]
    },
    "properties": {
      "id": "5195",
      "name": "復興環中路口",
      "seq": 53
    }
  },
  {
    "type": "Feature",
    "geometry": {
      "type": "Point",
      "coordinates": [
        120.6512,
        24.11225
      ]
    },
    "properties": {
      "id": "3330",
      "name": "勤工派出所",
      "seq": 54
    }
  },
  {
    "type": "Feature",
    "geometry": {
      "type": "Point",
      "coordinates": [
        120.65422,
        24.11444
      ]
    },
    "properties": {
      "id": "4536",
      "name": "復興大慶街口",
      "seq": 55
    }
  },
  {
    "type": "Feature",
    "geometry": {
      "type": "Point",
      "coordinates": [
        120.65591,
        24.11565
      ]
    },
    "properties": {
      "id": "0130",
      "name": "樹義里",
      "seq": 56
    }
  },
  {
    "type": "Feature",
    "geometry": {
      "type": "Point",
      "coordinates": [
        120.65818,
        24.11751
      ]
    },
    "properties": {
      "id": "4538",
      "name": "臺中高工(復興路)",
      "seq": 57
    }
  },
  {
    "type": "Feature",
    "geometry": {
      "type": "Point",
      "coordinates": [
        120.65942,
        24.11898
      ]
    },
    "properties": {
      "id": "5870",
      "name": "宜寧中學(復興路)",
      "seq": 58
    }
  },
  {
    "type": "Feature",
    "geometry": {
      "type": "Point",
      "coordinates": [
        120.66133,
        24.12141
      ]
    },
    "properties": {
      "id": "0128",
      "name": "和平國小",
      "seq": 59
    }
  },
  {
    "type": "Feature",
    "geometry": {
      "type": "Point",
      "coordinates": [
        120.66303,
        24.12392
      ]
    },
    "properties": {
      "id": "3395",
      "name": "復興新和街口",
      "seq": 60
    }
  },
  {
    "type": "Feature",
    "geometry": {
      "type": "Point",
      "coordinates": [
        120.66569,
        24.12704
      ]
    },
    "properties": {
      "id": "0543",
      "name": "四育國中",
      "seq": 61
    }
  },
  {
    "type": "Feature",
    "geometry": {
      "type": "Point",
      "coordinates": [
        120.66837,
        24.12838
      ]
    },
    "properties": {
      "id": "5478",
      "name": "高等法院臺中分院",
      "seq": 62
    }
  },
  {
    "type": "Feature",
    "geometry": {
      "type": "Point",
      "coordinates": [
        120.6711,
        24.12935
      ]
    },
    "properties": {
      "id": "5393",
      "name": "公共資訊圖書館(復興路)",
      "seq": 63
    }
  },
  {
    "type": "Feature",
    "geometry": {
      "type": "Point",
      "coordinates": [
        120.67469,
        24.13108
      ]
    },
    "properties": {
      "id": "0178",
      "name": "第三分局",
      "seq": 64
    }
  },
  {
    "type": "Feature",
    "geometry": {
      "type": "Point",
      "coordinates": [
        120.67573,
        24.1314
      ]
    },
    "properties": {
      "id": "4604",
      "name": "復興有恆街口",
      "seq": 65
    }
  },
  {
    "type": "Feature",
    "geometry": {
      "type": "Point",
      "coordinates": [
        120.67877,
        24.1328
      ]
    },
    "properties": {
      "id": "0180",
      "name": "林祖厝",
      "seq": 66
    }
  },
  {
    "type": "Feature",
    "geometry": {
      "type": "Point",
      "coordinates": [
        120.67994,
        24.13317
      ]
    },
    "properties": {
      "id": "1659",
      "name": "文化創意園區",
      "seq": 67
    }
  },
  {
    "type": "Feature",
    "geometry": {
      "type": "Point",
      "coordinates": [
        120.68154,
        24.1338
      ]
    },
    "properties": {
      "id": "0518",
      "name": "臺中酒廠(復興路)",
      "seq": 68
    }
  },
  {
    "type": "Feature",
    "geometry": {
      "type": "Point",
      "coordinates": [
        120.6847,
        24.13731
      ]
    },
    "properties": {
      "id": "1824",
      "name": "臺中火車站",
      "seq": 69
    }
  },
  {
    "type": "Feature",
    "geometry": {
      "type": "Point",
      "coordinates": [
        120.68359,
        24.13901
      ]
    },
    "properties": {
      "id": "0151",
      "name": "第一廣場",
      "seq": 70
    }
  },
  {
    "type": "Feature",
    "geometry": {
      "type": "Point",
      "coordinates": [
        120.68242,
        24.13982
      ]
    },
    "properties": {
      "id": "4401",
      "name": "彰化銀行(臺灣大道)",
      "seq": 71
    }
  },
  {
    "type": "Feature",
    "geometry": {
      "type": "Point",
      "coordinates": [
        120.68388,
        24.14269
      ]
    },
    "properties": {
      "id": "5670",
      "name": "公園自由路口",
      "seq": 72
    }
  },
  {
    "type": "Feature",
    "geometry": {
      "type": "Point",
      "coordinates": [
        120.68224,
        24.14526
      ]
    },
    "properties": {
      "id": "4543",
      "name": "臺中公園(三民路)",
      "seq": 73
    }
  },
  {
    "type": "Feature",
    "geometry": {
      "type": "Point",
      "coordinates": [
        120.68395,
        24.14968
      ]
    },
    "properties": {
      "id": "0045",
      "name": "國立臺中科技大學",
      "seq": 74
    }
  },
  {
    "type": "Feature",
    "geometry": {
      "type": "Point",
      "coordinates": [
        120.6852,
        24.15238
      ]
    },
    "properties": {
      "id": "0046",
      "name": "中友百貨",
      "seq": 75
    }
  },
  {
    "type": "Feature",
    "geometry": {
      "type": "Point",
      "coordinates": [
        120.68585,
        24.15409
      ]
    },
    "properties": {
      "id": "0047",
      "name": "一心市場",
      "seq": 76
    }
  },
  {
    "type": "Feature",
    "geometry": {
      "type": "Point",
      "coordinates": [
        120.6871,
        24.15556
      ]
    },
    "properties": {
      "id": "0934",
      "name": "三民錦中街口",
      "seq": 77
    }
  },
  {
    "type": "Feature",
    "geometry": {
      "type": "Point",
      "coordinates": [
        120.68852,
        24.15682
      ]
    },
    "properties": {
      "id": "4399",
      "name": "新民高中(三民路)",
      "seq": 78
    }
  },
  {
    "type": "Feature",
    "geometry": {
      "type": "Point",
      "coordinates": [
        120.69034,
        24.15845
      ]
    },
    "properties": {
      "id": "0960",
      "name": "寶覺寺",
      "seq": 79
    }
  },
  {
    "type": "Feature",
    "geometry": {
      "type": "Point",
      "coordinates": [
        120.69218,
        24.1611
      ]
    },
    "properties": {
      "id": "0892",
      "name": "監理站",
      "seq": 80
    }
  },
  {
    "type": "Feature",
    "geometry": {
      "type": "Point",
      "coordinates": [
        120.69194,
        24.16284
      ]
    },
    "properties": {
      "id": "5515",
      "name": "北屯國小(進化北路)",
      "seq": 81
    }
  },
  {
    "type": "Feature",
    "geometry": {
      "type": "Point",
      "coordinates": [
        120.68984,
        24.16302
      ]
    },
    "properties": {
      "id": "0493",
      "name": "北屯市場",
      "seq": 82
    }
  },
  {
    "type": "Feature",
    "geometry": {
      "type": "Point",
      "coordinates": [
        120.68766,
        24.16304
      ]
    },
    "properties": {
      "id": "0830",
      "name": "稅務新村",
      "seq": 83
    }
  },
  {
    "type": "Feature",
    "geometry": {
      "type": "Point",
      "coordinates": [
        120.68623,
        24.163
      ]
    },
    "properties": {
      "id": "0800",
      "name": "頂厝里",
      "seq": 84
    }
  },
  {
    "type": "Feature",
    "geometry": {
      "type": "Point",
      "coordinates": [
        120.68509,
        24.16543
      ]
    },
    "properties": {
      "id": "0098",
      "name": "崇德橋",
      "seq": 85
    }
  },
  {
    "type": "Feature",
    "geometry": {
      "type": "Point",
      "coordinates": [
        120.68512,
        24.16787
      ]
    },
    "properties": {
      "id": "5866",
      "name": "崇德青島路口",
      "seq": 86
    }
  },
  {
    "type": "Feature",
    "geometry": {
      "type": "Point",
      "coordinates": [
        120.68546,
        24.17056
      ]
    },
    "properties": {
      "id": "1768",
      "name": "崇德北平路口",
      "seq": 87
    }
  },
  {
    "type": "Feature",
    "geometry": {
      "type": "Point",
      "coordinates": [
        120.68541,
        24.17181
      ]
    },
    "properties": {
      "id": "4339",
      "name": "崇德文心路口",
      "seq": 88
    }
  },
  {
    "type": "Feature",
    "geometry": {
      "type": "Point",
      "coordinates": [
        120.68553,
        24.17332
      ]
    },
    "properties": {
      "id": "0199",
      "name": "崇德瀋陽路口",
      "seq": 89
    }
  },
  {
    "type": "Feature",
    "geometry": {
      "type": "Point",
      "coordinates": [
        120.6856,
        24.17523
      ]
    },
    "properties": {
      "id": "5131",
      "name": "崇德國中(民俗公園)",
      "seq": 90
    }
  },
  {
    "type": "Feature",
    "geometry": {
      "type": "Point",
      "coordinates": [
        120.68577,
        24.17723
      ]
    },
    "properties": {
      "id": "0196",
      "name": "崇德一路口",
      "seq": 91
    }
  },
  {
    "type": "Feature",
    "geometry": {
      "type": "Point",
      "coordinates": [
        120.68589,
        24.17913
      ]
    },
    "properties": {
      "id": "0195",
      "name": "崇德五路口",
      "seq": 92
    }
  },
  {
    "type": "Feature",
    "geometry": {
      "type": "Point",
      "coordinates": [
        120.6861,
        24.18134
      ]
    },
    "properties": {
      "id": "5387",
      "name": "崇德六路口",
      "seq": 93
    }
  },
  {
    "type": "Feature",
    "geometry": {
      "type": "Point",
      "coordinates": [
        120.68613,
        24.18307
      ]
    },
    "properties": {
      "id": "0194",
      "name": "北屯區行政大樓",
      "seq": 94
    }
  },
  {
    "type": "Feature",
    "geometry": {
      "type": "Point",
      "coordinates": [
        120.68627,
        24.18493
      ]
    },
    "properties": {
      "id": "1393",
      "name": "崇德山西路口",
      "seq": 95
    }
  },
  {
    "type": "Feature",
    "geometry": {
      "type": "Point",
      "coordinates": [
        120.68567,
        24.18967
      ]
    },
    "properties": {
      "id": "0698",
      "name": "南四張犁",
      "seq": 96
    }
  },
  {
    "type": "Feature",
    "geometry": {
      "type": "Point",
      "coordinates": [
        120.68378,
        24.19137
      ]
    },
    "properties": {
      "id": "5892",
      "name": "仁美里(昌平路)",
      "seq": 97
    }
  },
  {
    "type": "Feature",
    "geometry": {
      "type": "Point",
      "coordinates": [
        120.68263,
        24.19193
      ]
    },
    "properties": {
      "id": "0541",
      "name": "四民市場",
      "seq": 98
    }
  },
  {
    "type": "Feature",
    "geometry": {
      "type": "Point",
      "coordinates": [
        120.68049,
        24.19288
      ]
    },
    "properties": {
      "id": "5514",
      "name": "四民衛生所",
      "seq": 99
    }
  },
  {
    "type": "Feature",
    "geometry": {
      "type": "Point",
      "coordinates": [
        120.67843,
        24.19316
      ]
    },
    "properties": {
      "id": "1851",
      "name": "四張犁國小",
      "seq": 100
    }
  }
]
