<?xml version="1.0" encoding="UTF-8" standalone="yes"?>
<BusDynInfo><EssentialInfo><Location><name>TCBUS</name><CenterName>Maxwin</CenterName></Location><UpdateTime>2014-12-20 07:44:30</UpdateTime><CoordinateSystem/></EssentialInfo>
<BusInfo><Stop Id="0071" routeId="75區1" nameZh="臺中女中" seqNo="1" pgp="0" terminal="0" districtId="1" GoBack="1" latitude="24.13594" longitude="120.67799" inDis="50" outDis="50" oid="92CABD19F89445B48A30B415D975CDF7" /><Stop Id="4284" routeId="75區1" nameZh="民權繼光街口" seqNo="2" pgp="0" terminal="0" districtId="1" GoBack="1" latitude="24.13702" longitude="120.6811" inDis="50" outDis="50" oid="753223F679A2463AA37A1E3F09667AD5" /><Stop Id="1824" routeId="75區1" nameZh="臺中火車站" seqNo="3" pgp="0" terminal="0" districtId="1" GoBack="1" latitude="24.13734" longitude="120.6846" inDis="50" outDis="50" oid="352F71F4F6F9446688F03EED41D42F66" /><Stop Id="0402" routeId="75區1" nameZh="干城站" seqNo="4" pgp="0" terminal="0" districtId="1" GoBack="1" latitude="24.14096" longitude="120.68603" inDis="50" outDis="50" oid="45EA8F87C30E4F00B87292C539BD58EE" /><Stop Id="5318" routeId="75區1" nameZh="立體停車場(自由路)" seqNo="5" pgp="0" terminal="0" districtId="1" GoBack="1" latitude="24.14304" longitude="120.68759" inDis="50" outDis="50" oid="A1B75E6B58034DD092CF2F3BFF2785FE" /><Stop Id="2030" routeId="75區1" nameZh="自由富台東街口" seqNo="6" pgp="0" terminal="0" districtId="1" GoBack="1" latitude="24.14281" longitude="120.69065" inDis="50" outDis="50" oid="4D6EAB1C5E774951B5CA349A8B84E625" /><Stop Id="0073" routeId="75區1" nameZh="明功堂醫院" seqNo="7" pgp="0" terminal="0" districtId="1" GoBack="1" latitude="24.14277" longitude="120.69194" inDis="50" outDis="50" oid="F2E108DD972043F19032732E898F5243" /><Stop Id="4563" routeId="75區1" nameZh="樂業建成路口" seqNo="8" pgp="0" terminal="0" districtId="1" GoBack="1" latitude="24.13883" longitude="120.69694" inDis="50" outDis="50" oid="42B3301D5A1D4AE0A2BC2F5AB6158A9B" /><Stop Id="0075" routeId="75區1" nameZh="育英國中" seqNo="9" pgp="0" terminal="0" districtId="1" GoBack="1" latitude="24.13893" longitude="120.69971" inDis="50" outDis="50" oid="5DB8427611E74634A9E58D7DB71E1C4B" /><Stop Id="0083" routeId="75區1" nameZh="樂成公園" seqNo="10" pgp="0" terminal="0" districtId="1" GoBack="1" latitude="24.13869" longitude="120.70369" inDis="50" outDis="50" oid="3836" /><Stop Id="4212" routeId="75區1" nameZh="東英樂業路口" seqNo="11" pgp="0" terminal="0" districtId="1" GoBack="1" latitude="24.13772" longitude="120.70514" inDis="50" outDis="50" oid="248603753" /><Stop Id="4213" routeId="75區1" nameZh="東英旱溪街口" seqNo="12" pgp="0" terminal="0" districtId="1" GoBack="1" latitude="24.13967" longitude="120.70597" inDis="50" outDis="50" oid="248603755" /><Stop Id="4214" routeId="75區1" nameZh="東英自由路口" seqNo="13" pgp="0" terminal="0" districtId="1" GoBack="1" latitude="24.14221" longitude="120.70616" inDis="50" outDis="50" oid="248603757" /><Stop Id="4215" routeId="75區1" nameZh="十甲東路口" seqNo="14" pgp="0" terminal="0" districtId="1" GoBack="1" latitude="24.14442" longitude="120.70794" inDis="50" outDis="50" oid="248603759" /><Stop Id="1043" routeId="75區1" nameZh="十甲宜昌路口" seqNo="15" pgp="0" terminal="0" districtId="1" GoBack="1" latitude="24.14435" longitude="120.7131" inDis="50" outDis="50" oid="3841" /><Stop Id="3764" routeId="75區1" nameZh="賢德醫院" seqNo="16" pgp="0" terminal="0" districtId="1" GoBack="1" latitude="24.14546" longitude="120.71413" inDis="50" outDis="50" oid="3842" /><Stop Id="1422" routeId="75區1" nameZh="宜昌中山路口" seqNo="17" pgp="0" terminal="0" districtId="1" GoBack="1" latitude="24.14842" longitude="120.71595" inDis="50" outDis="50" oid="3843" /><Stop Id="3404" routeId="75區1" nameZh="新城里福德祠" seqNo="18" pgp="0" terminal="0" districtId="1" GoBack="1" latitude="24.1503" longitude="120.71649" inDis="50" outDis="50" oid="3844" /><Stop Id="3374" routeId="75區1" nameZh="新平國小" seqNo="19" pgp="0" terminal="0" districtId="1" GoBack="1" latitude="24.15308" longitude="120.71804" inDis="50" outDis="50" oid="3845" /><Stop Id="3791" routeId="75區1" nameZh="樹孝育才路口" seqNo="20" pgp="0" terminal="0" districtId="1" GoBack="1" latitude="24.15595" longitude="120.71989" inDis="50" outDis="50" oid="3846" /><Stop Id="2267" routeId="75區1" nameZh="育才育德路口" seqNo="21" pgp="0" terminal="0" districtId="1" GoBack="1" latitude="24.15586" longitude="120.72164" inDis="50" outDis="50" oid="3847" /><Stop Id="4315" routeId="75區1" nameZh="樂安宮" seqNo="22" pgp="0" terminal="0" districtId="1" GoBack="1" latitude="24.15548" longitude="120.72406" inDis="50" outDis="50" oid="3848" /><Stop Id="0290" routeId="75區1" nameZh="新坪里活動中心" seqNo="23" pgp="0" terminal="0" districtId="1" GoBack="1" latitude="24.15612" longitude="120.72669" inDis="50" outDis="50" oid="318434400" /><Stop Id="5601" routeId="75區1" nameZh="萬和社區" seqNo="24" pgp="0" terminal="0" districtId="1" GoBack="1" latitude="24.15321" longitude="120.72464" inDis="50" outDis="50" oid="FD7E3C75BC3345E0B693823DE22A72F1" /><Stop Id="2826" routeId="75區1" nameZh="特二號中山路口" seqNo="25" pgp="0" terminal="0" districtId="1" GoBack="1" latitude="24.14975" longitude="120.72326" inDis="50" outDis="50" oid="3850" /><Stop Id="0899" routeId="75區1" nameZh="精武社區" seqNo="26" pgp="0" terminal="0" districtId="1" GoBack="1" latitude="24.14959" longitude="120.72554" inDis="50" outDis="50" oid="3851" /><Stop Id="3560" routeId="75區1" nameZh="預立二村" seqNo="27" pgp="0" terminal="0" districtId="1" GoBack="1" latitude="24.15" longitude="120.72856" inDis="50" outDis="50" oid="3852" /><Stop Id="2934" routeId="75區1" nameZh="國軍臺中總醫院" seqNo="28" pgp="0" terminal="0" districtId="1" GoBack="1" latitude="24.15018" longitude="120.72996" inDis="50" outDis="50" oid="3853" /><Stop Id="0346" routeId="75區1" nameZh="叉路口" seqNo="29" pgp="0" terminal="0" districtId="1" GoBack="1" latitude="24.15037" longitude="120.73296" inDis="50" outDis="50" oid="3854" /><Stop Id="4350" routeId="75區1" nameZh="太平國中" seqNo="30" pgp="0" terminal="0" districtId="1" GoBack="1" latitude="24.1491" longitude="120.73435" inDis="50" outDis="50" oid="13262" /><Stop Id="0319" routeId="75區1" nameZh="三中心" seqNo="31" pgp="0" terminal="0" districtId="1" GoBack="1" latitude="24.14677" longitude="120.73349" inDis="50" outDis="50" oid="3856" /><Stop Id="0632" routeId="75區1" nameZh="坪林" seqNo="32" pgp="0" terminal="0" districtId="1" GoBack="1" latitude="24.14494" longitude="120.73424" inDis="50" outDis="50" oid="3857" /><Stop Id="4364" routeId="75區1" nameZh="勤益科技大學" seqNo="33" pgp="0" terminal="0" districtId="1" GoBack="1" latitude="24.14298" longitude="120.7334" inDis="50" outDis="50" oid="3858" /><Stop Id="0631" routeId="75區1" nameZh="和平橋" seqNo="34" pgp="0" terminal="0" districtId="1" GoBack="1" latitude="24.14098" longitude="120.73201" inDis="50" outDis="50" oid="3859" /><Stop Id="5547" routeId="75區1" nameZh="洪厝庄" seqNo="35" pgp="0" terminal="0" districtId="1" GoBack="1" latitude="24.13912" longitude="120.73197" inDis="50" outDis="50" oid="316462700" /><Stop Id="4229" routeId="75區1" nameZh="亞姆拉公司" seqNo="36" pgp="0" terminal="0" districtId="1" GoBack="1" latitude="24.13664" longitude="120.73247" inDis="50" outDis="50" oid="13163" /><Stop Id="0977" routeId="75區1" nameZh="一江橋" seqNo="37" pgp="0" terminal="0" districtId="1" GoBack="1" latitude="24.13352" longitude="120.73561" inDis="50" outDis="50" oid="5730" /><Stop Id="0977" routeId="75區1" nameZh="一江橋" seqNo="1" pgp="0" terminal="0" districtId="1" GoBack="2" latitude="24.13352" longitude="120.73561" inDis="50" outDis="50" oid="5730" /><Stop Id="4229" routeId="75區1" nameZh="亞姆拉公司" seqNo="2" pgp="0" terminal="0" districtId="1" GoBack="2" latitude="24.13701" longitude="120.7325" inDis="50" outDis="50" oid="13164" /><Stop Id="5547" routeId="75區1" nameZh="洪厝庄" seqNo="3" pgp="0" terminal="0" districtId="1" GoBack="2" latitude="24.13917" longitude="120.73204" inDis="50" outDis="50" oid="316462701" /><Stop Id="0631" routeId="75區1" nameZh="和平橋" seqNo="4" pgp="0" terminal="0" districtId="1" GoBack="2" latitude="24.14072" longitude="120.73204" inDis="50" outDis="50" oid="3860" /><Stop Id="4364" routeId="75區1" nameZh="勤益科技大學" seqNo="5" pgp="0" terminal="0" districtId="1" GoBack="2" latitude="24.14283" longitude="120.73359" inDis="50" outDis="50" oid="3861" /><Stop Id="0632" routeId="75區1" nameZh="坪林" seqNo="6" pgp="0" terminal="0" districtId="1" GoBack="2" latitude="24.14491" longitude="120.73444" inDis="50" outDis="50" oid="3862" /><Stop Id="0319" routeId="75區1" nameZh="三中心" seqNo="7" pgp="0" terminal="0" districtId="1" GoBack="2" latitude="24.14684" longitude="120.73372" inDis="50" outDis="50" oid="3863" /><Stop Id="4350" routeId="75區1" nameZh="太平國中" seqNo="8" pgp="0" terminal="0" districtId="1" GoBack="2" latitude="24.1491" longitude="120.73435" inDis="50" outDis="50" oid="13262" /><Stop Id="0346" routeId="75區1" nameZh="叉路口" seqNo="9" pgp="0" terminal="0" districtId="1" GoBack="2" latitude="24.15056" longitude="120.73288" inDis="50" outDis="50" oid="3865" /><Stop Id="2934" routeId="75區1" nameZh="國軍臺中總醫院" seqNo="10" pgp="0" terminal="0" districtId="1" GoBack="2" latitude="24.1504" longitude="120.73022" inDis="50" outDis="50" oid="3866" /><Stop Id="3560" routeId="75區1" nameZh="預立二村" seqNo="11" pgp="0" terminal="0" districtId="1" GoBack="2" latitude="24.15015" longitude="120.72833" inDis="50" outDis="50" oid="3867" /><Stop Id="0899" routeId="75區1" nameZh="精武社區" seqNo="12" pgp="0" terminal="0" districtId="1" GoBack="2" latitude="24.14981" longitude="120.72578" inDis="50" outDis="50" oid="3868" /><Stop Id="2826" routeId="75區1" nameZh="特二號中山路口" seqNo="13" pgp="0" terminal="0" districtId="1" GoBack="2" latitude="24.14978" longitude="120.72326" inDis="50" outDis="50" oid="3869" /><Stop Id="0290" routeId="75區1" nameZh="新坪里活動中心" seqNo="14" pgp="0" terminal="0" districtId="1" GoBack="2" latitude="24.1561" longitude="120.72691" inDis="50" outDis="50" oid="318434401" /><Stop Id="4315" routeId="75區1" nameZh="樂安宮" seqNo="15" pgp="0" terminal="0" districtId="1" GoBack="2" latitude="24.15564" longitude="120.72422" inDis="50" outDis="50" oid="3871" /><Stop Id="2267" routeId="75區1" nameZh="育才育德路口" seqNo="16" pgp="0" terminal="0" districtId="1" GoBack="2" latitude="24.15592" longitude="120.72208" inDis="50" outDis="50" oid="3872" /><Stop Id="3791" routeId="75區1" nameZh="樹孝育才路口" seqNo="17" pgp="0" terminal="0" districtId="1" GoBack="2" latitude="24.15612" longitude="120.71975" inDis="50" outDis="50" oid="3873" /><Stop Id="3374" routeId="75區1" nameZh="新平國小" seqNo="18" pgp="0" terminal="0" districtId="1" GoBack="2" latitude="24.1532" longitude="120.71791" inDis="50" outDis="50" oid="3874" /><Stop Id="3404" routeId="75區1" nameZh="新城里福德祠" seqNo="19" pgp="0" terminal="0" districtId="1" GoBack="2" latitude="24.15114" longitude="120.71657" inDis="50" outDis="50" oid="3875" /><Stop Id="1422" routeId="75區1" nameZh="宜昌中山路口" seqNo="20" pgp="0" terminal="0" districtId="1" GoBack="2" latitude="24.14822" longitude="120.71558" inDis="50" outDis="50" oid="3876" /><Stop Id="3764" routeId="75區1" nameZh="賢德醫院" seqNo="21" pgp="0" terminal="0" districtId="1" GoBack="2" latitude="24.14605" longitude="120.71439" inDis="50" outDis="50" oid="3877" /><Stop Id="1043" routeId="75區1" nameZh="十甲宜昌路口" seqNo="22" pgp="0" terminal="0" districtId="1" GoBack="2" latitude="24.14456" longitude="120.71305" inDis="50" outDis="50" oid="3878" /><Stop Id="4215" routeId="75區1" nameZh="十甲東路口" seqNo="23" pgp="0" terminal="0" districtId="1" GoBack="2" latitude="24.14457" longitude="120.70995" inDis="50" outDis="50" oid="248603761" /><Stop Id="4214" routeId="75區1" nameZh="東英自由路口" seqNo="24" pgp="0" terminal="0" districtId="1" GoBack="2" latitude="24.14429" longitude="120.70601" inDis="50" outDis="50" oid="248603763" /><Stop Id="4213" routeId="75區1" nameZh="東英旱溪街口" seqNo="25" pgp="0" terminal="0" districtId="1" GoBack="2" latitude="24.14079" longitude="120.70601" inDis="50" outDis="50" oid="248603765" /><Stop Id="4212" routeId="75區1" nameZh="東英樂業路口" seqNo="26" pgp="0" terminal="0" districtId="1" GoBack="2" latitude="24.13848" longitude="120.70548" inDis="50" outDis="50" oid="248603767" /><Stop Id="0083" routeId="75區1" nameZh="樂成公園" seqNo="27" pgp="0" terminal="0" districtId="1" GoBack="2" latitude="24.13856" longitude="120.70378" inDis="50" outDis="50" oid="3883" /><Stop Id="0075" routeId="75區1" nameZh="育英國中" seqNo="28" pgp="0" terminal="0" districtId="1" GoBack="2" latitude="24.13897" longitude="120.69933" inDis="50" outDis="50" oid="598A78EEBCE64C85B31E3C1FA131035C" /><Stop Id="4563" routeId="75區1" nameZh="樂業建成路口" seqNo="29" pgp="0" terminal="0" districtId="1" GoBack="2" latitude="24.13896" longitude="120.69696" inDis="50" outDis="50" oid="379025CD24E346369455262B9DB1A45C" /><Stop Id="0073" routeId="75區1" nameZh="明功堂醫院" seqNo="30" pgp="0" terminal="0" districtId="1" GoBack="2" latitude="24.14275" longitude="120.69224" inDis="50" outDis="50" oid="921C1B317B0F4954AA194E1FAA48ED98" /><Stop Id="2030" routeId="75區1" nameZh="自由富台東街口" seqNo="31" pgp="0" terminal="0" districtId="1" GoBack="2" latitude="24.14284" longitude="120.69054" inDis="50" outDis="50" oid="CA8BB0F24DEA42C3AEE75ECA93177574" /><Stop Id="5318" routeId="75區1" nameZh="立體停車場(自由路)" seqNo="32" pgp="0" terminal="0" districtId="1" GoBack="2" latitude="24.14306" longitude="120.68754" inDis="50" outDis="50" oid="FB03C4089004492492E0123C1CFD304C" /><Stop Id="0402" routeId="75區1" nameZh="干城站" seqNo="33" pgp="0" terminal="0" districtId="1" GoBack="2" latitude="24.14196" longitude="120.68579" inDis="50" outDis="50" oid="5AB5A51881A44EB39CA6DB4E5E90A7E2" /><Stop Id="1824" routeId="75區1" nameZh="臺中火車站" seqNo="34" pgp="0" terminal="0" districtId="1" GoBack="2" latitude="24.1379" longitude="120.6853" inDis="50" outDis="50" oid="616B01CB26394967931808918B6CA2F3" /><Stop Id="4284" routeId="75區1" nameZh="民權繼光街口" seqNo="35" pgp="0" terminal="0" districtId="1" GoBack="2" latitude="24.1371" longitude="120.68093" inDis="50" outDis="50" oid="7A35536C989948AF88620652A0EC81FB" /><Stop Id="0071" routeId="75區1" nameZh="臺中女中" seqNo="36" pgp="0" terminal="0" districtId="1" GoBack="2" latitude="24.1358" longitude="120.67764" inDis="50" outDis="50" oid="F764BE34D95843DCB1D98ED13BD21430" /></BusInfo></BusDynInfo>