<?xml version="1.0" encoding="UTF-8" standalone="yes"?>
<BusDynInfo><EssentialInfo><Location><name>TCBUS</name><CenterName>Maxwin</CenterName></Location><UpdateTime>2014-12-20 08:27:44</UpdateTime><CoordinateSystem/></EssentialInfo>
<BusInfo><Stop Id="2428" routeId="263" nameZh="東勢" seqNo="1" pgp="0" terminal="0" districtId="1" GoBack="1" latitude="24.25742" longitude="120.82862" inDis="50" outDis="50" oid="5900" /><Stop Id="4500" routeId="263" nameZh="東勢老人會館" seqNo="2" pgp="0" terminal="0" districtId="1" GoBack="1" latitude="24.26098" longitude="120.8272" inDis="50" outDis="80" oid="5745" /><Stop Id="2434" routeId="263" nameZh="東新國中" seqNo="3" pgp="0" terminal="0" districtId="1" GoBack="1" latitude="24.26256" longitude="120.82676" inDis="50" outDis="80" oid="5905" /><Stop Id="4494" routeId="263" nameZh="新豐新寧街口" seqNo="4" pgp="0" terminal="0" districtId="1" GoBack="1" latitude="24.26264" longitude="120.82464" inDis="50" outDis="50" oid="13803" /><Stop Id="4650" routeId="263" nameZh="土牛(和盛街)" seqNo="5" pgp="0" terminal="0" districtId="1" GoBack="1" latitude="24.25913" longitude="120.81565" inDis="50" outDis="50" oid="5197" /><Stop Id="2593" routeId="263" nameZh="南眉" seqNo="6" pgp="0" terminal="0" districtId="1" GoBack="1" latitude="24.25639" longitude="120.81402" inDis="50" outDis="50" oid="6000" /><Stop Id="2446" routeId="263" nameZh="果菜市場" seqNo="9" pgp="0" terminal="0" districtId="1" GoBack="1" latitude="24.25706" longitude="120.80775" inDis="50" outDis="50" oid="5914" /><Stop Id="1394" routeId="263" nameZh="山頂" seqNo="10" pgp="0" terminal="0" districtId="1" GoBack="1" latitude="24.25547" longitude="120.80698" inDis="50" outDis="50" oid="5287" /><Stop Id="3557" routeId="263" nameZh="電信局前" seqNo="11" pgp="0" terminal="0" districtId="1" GoBack="1" latitude="24.25339" longitude="120.80775" inDis="50" outDis="50" oid="6515" /><Stop Id="1438" routeId="263" nameZh="中正里" seqNo="12" pgp="0" terminal="0" districtId="1" GoBack="1" latitude="24.25027" longitude="120.80893" inDis="50" outDis="50" oid="5318" /><Stop Id="0011" routeId="263" nameZh="郵局" seqNo="13" pgp="0" terminal="0" districtId="1" GoBack="1" latitude="24.24772" longitude="120.80868" inDis="50" outDis="50" oid="6372" /><Stop Id="1199" routeId="263" nameZh="下新社" seqNo="14" pgp="0" terminal="0" districtId="1" GoBack="1" latitude="24.24638" longitude="120.80832" inDis="50" outDis="50" oid="5153" /><Stop Id="3398" routeId="263" nameZh="新社" seqNo="15" pgp="0" terminal="0" districtId="1" GoBack="1" latitude="24.24458" longitude="120.80835" inDis="50" outDis="50" oid="6433" /><Stop Id="3162" routeId="263" nameZh="頂新社" seqNo="16" pgp="0" terminal="0" districtId="1" GoBack="1" latitude="24.24262" longitude="120.80769" inDis="50" outDis="50" oid="6311" /><Stop Id="5268" routeId="263" nameZh="橫坪" seqNo="17" pgp="0" terminal="0" districtId="1" GoBack="1" latitude="24.24129" longitude="120.80379" inDis="50" outDis="50" oid="310787844" /><Stop Id="5216" routeId="263" nameZh="上橫坪" seqNo="19" pgp="0" terminal="0" districtId="1" GoBack="1" latitude="24.2434" longitude="120.79837" inDis="50" outDis="50" oid="310787738" /><Stop Id="5250" routeId="263" nameZh="食水嵙" seqNo="21" pgp="0" terminal="0" districtId="1" GoBack="1" latitude="24.24688" longitude="120.79552" inDis="50" outDis="50" oid="310787808" /><Stop Id="1752" routeId="263" nameZh="仙塘坪" seqNo="22" pgp="0" terminal="0" districtId="1" GoBack="1" latitude="24.24694" longitude="120.79549" inDis="50" outDis="50" oid="5507" /><Stop Id="5214" routeId="263" nameZh="上仙塘坪" seqNo="23" pgp="0" terminal="0" districtId="1" GoBack="1" latitude="24.24856" longitude="120.7921" inDis="50" outDis="50" oid="310787734" /><Stop Id="1152" routeId="263" nameZh="下坪" seqNo="24" pgp="0" terminal="0" districtId="1" GoBack="1" latitude="24.24477" longitude="120.78751" inDis="50" outDis="50" oid="5124" /><Stop Id="5210" routeId="263" nameZh="下崑山" seqNo="25" pgp="0" terminal="0" districtId="1" GoBack="1" latitude="24.2432" longitude="120.78597" inDis="50" outDis="50" oid="310787726" /><Stop Id="5252" routeId="263" nameZh="崑山" seqNo="26" pgp="0" terminal="0" districtId="1" GoBack="1" latitude="24.24109" longitude="120.7874" inDis="50" outDis="50" oid="310787812" /><Stop Id="5252" routeId="263" nameZh="崑山" seqNo="1" pgp="0" terminal="0" districtId="1" GoBack="2" latitude="24.24109" longitude="120.7874" inDis="50" outDis="50" oid="310787813" /><Stop Id="5210" routeId="263" nameZh="下崑山" seqNo="2" pgp="0" terminal="0" districtId="1" GoBack="2" latitude="24.2432" longitude="120.78597" inDis="50" outDis="50" oid="310787727" /><Stop Id="1152" routeId="263" nameZh="下坪" seqNo="3" pgp="0" terminal="0" districtId="1" GoBack="2" latitude="24.24477" longitude="120.78751" inDis="50" outDis="50" oid="5124" /><Stop Id="5214" routeId="263" nameZh="上仙塘坪" seqNo="4" pgp="0" terminal="0" districtId="1" GoBack="2" latitude="24.24856" longitude="120.7921" inDis="50" outDis="50" oid="310787735" /><Stop Id="1752" routeId="263" nameZh="仙塘坪" seqNo="5" pgp="0" terminal="0" districtId="1" GoBack="2" latitude="24.24694" longitude="120.79549" inDis="50" outDis="50" oid="5507" /><Stop Id="5250" routeId="263" nameZh="食水嵙" seqNo="6" pgp="0" terminal="0" districtId="1" GoBack="2" latitude="24.24688" longitude="120.79552" inDis="50" outDis="50" oid="310787809" /><Stop Id="5216" routeId="263" nameZh="上橫坪" seqNo="8" pgp="0" terminal="0" districtId="1" GoBack="2" latitude="24.2434" longitude="120.79837" inDis="50" outDis="50" oid="310787739" /><Stop Id="5268" routeId="263" nameZh="橫坪" seqNo="10" pgp="0" terminal="0" districtId="1" GoBack="2" latitude="24.24129" longitude="120.80379" inDis="50" outDis="50" oid="310787845" /><Stop Id="3162" routeId="263" nameZh="頂新社" seqNo="11" pgp="0" terminal="0" districtId="1" GoBack="2" latitude="24.24262" longitude="120.80769" inDis="50" outDis="50" oid="6311" /><Stop Id="3398" routeId="263" nameZh="新社" seqNo="12" pgp="0" terminal="0" districtId="1" GoBack="2" latitude="24.24458" longitude="120.80835" inDis="50" outDis="50" oid="6433" /><Stop Id="1199" routeId="263" nameZh="下新社" seqNo="13" pgp="0" terminal="0" districtId="1" GoBack="2" latitude="24.24638" longitude="120.80832" inDis="50" outDis="50" oid="5153" /><Stop Id="0011" routeId="263" nameZh="郵局" seqNo="14" pgp="0" terminal="0" districtId="1" GoBack="2" latitude="24.24772" longitude="120.80868" inDis="50" outDis="50" oid="6372" /><Stop Id="1438" routeId="263" nameZh="中正里" seqNo="15" pgp="0" terminal="0" districtId="1" GoBack="2" latitude="24.25027" longitude="120.80893" inDis="50" outDis="50" oid="5318" /><Stop Id="3557" routeId="263" nameZh="電信局前" seqNo="16" pgp="0" terminal="0" districtId="1" GoBack="2" latitude="24.25339" longitude="120.80775" inDis="50" outDis="50" oid="6515" /><Stop Id="1394" routeId="263" nameZh="山頂" seqNo="17" pgp="0" terminal="0" districtId="1" GoBack="2" latitude="24.25547" longitude="120.80698" inDis="50" outDis="50" oid="5287" /><Stop Id="2446" routeId="263" nameZh="果菜市場" seqNo="18" pgp="0" terminal="0" districtId="1" GoBack="2" latitude="24.25706" longitude="120.80775" inDis="50" outDis="50" oid="5914" /><Stop Id="2593" routeId="263" nameZh="南眉" seqNo="21" pgp="0" terminal="0" districtId="1" GoBack="2" latitude="24.25639" longitude="120.81402" inDis="50" outDis="50" oid="6000" /><Stop Id="4650" routeId="263" nameZh="土牛(和盛街)" seqNo="22" pgp="0" terminal="0" districtId="1" GoBack="2" latitude="24.25913" longitude="120.81565" inDis="50" outDis="50" oid="5197" /><Stop Id="4415" routeId="263" nameZh="東勢游泳池" seqNo="23" pgp="0" terminal="0" districtId="1" GoBack="2" latitude="24.26119" longitude="120.82456" inDis="50" outDis="50" oid="304371955" /><Stop Id="2428" routeId="263" nameZh="東勢" seqNo="24" pgp="0" terminal="0" districtId="1" GoBack="2" latitude="24.25742" longitude="120.82862" inDis="50" outDis="50" oid="5900" /></BusInfo></BusDynInfo>