[
  {
    "type": "Feature",
    "geometry": {
      "type": "Point",
      "coordinates": [
        120.61478,
        24.35087
      ]
    },
    "properties": {
      "id": "5061",
      "name": "新政大安港路口",
      "seq": 1
    }
  },
  {
    "type": "Feature",
    "geometry": {
      "type": "Point",
      "coordinates": [
        120.62143,
        24.34212
      ]
    },
    "properties": {
      "id": "5048",
      "name": "大甲高中(中山路)",
      "seq": 10
    }
  },
  {
    "type": "Feature",
    "geometry": {
      "type": "Point",
      "coordinates": [
        120.61874,
        24.33972
      ]
    },
    "properties": {
      "id": "5693",
      "name": "水尾橋",
      "seq": 11
    }
  },
  {
    "type": "Feature",
    "geometry": {
      "type": "Point",
      "coordinates": [
        120.61723,
        24.33731
      ]
    },
    "properties": {
      "id": "1859",
      "name": "外水尾",
      "seq": 12
    }
  },
  {
    "type": "Feature",
    "geometry": {
      "type": "Point",
      "coordinates": [
        120.61302,
        24.33171
      ]
    },
    "properties": {
      "id": "4133",
      "name": "番子寮",
      "seq": 13
    }
  },
  {
    "type": "Feature",
    "geometry": {
      "type": "Point",
      "coordinates": [
        120.6102,
        24.32879
      ]
    },
    "properties": {
      "id": "6023",
      "name": "武陵里",
      "seq": 14
    }
  },
  {
    "type": "Feature",
    "geometry": {
      "type": "Point",
      "coordinates": [
        120.60843,
        24.3267
      ]
    },
    "properties": {
      "id": "1705",
      "name": "水汴頭",
      "seq": 15
    }
  },
  {
    "type": "Feature",
    "geometry": {
      "type": "Point",
      "coordinates": [
        120.60112,
        24.30457
      ]
    },
    "properties": {
      "id": "1993",
      "name": "甲南",
      "seq": 16
    }
  },
  {
    "type": "Feature",
    "geometry": {
      "type": "Point",
      "coordinates": [
        120.59271,
        24.305
      ]
    },
    "properties": {
      "id": "3022",
      "name": "清泉國中",
      "seq": 17
    }
  },
  {
    "type": "Feature",
    "geometry": {
      "type": "Point",
      "coordinates": [
        120.58429,
        24.30266
      ]
    },
    "properties": {
      "id": "2933",
      "name": "國姓廟",
      "seq": 18
    }
  },
  {
    "type": "Feature",
    "geometry": {
      "type": "Point",
      "coordinates": [
        120.57816,
        24.30095
      ]
    },
    "properties": {
      "id": "5772",
      "name": "臨港三美路口",
      "seq": 19
    }
  },
  {
    "type": "Feature",
    "geometry": {
      "type": "Point",
      "coordinates": [
        120.61645,
        24.34723
      ]
    },
    "properties": {
      "id": "2038",
      "name": "光田",
      "seq": 2
    }
  },
  {
    "type": "Feature",
    "geometry": {
      "type": "Point",
      "coordinates": [
        120.57483,
        24.30009
      ]
    },
    "properties": {
      "id": "3473",
      "name": "溪埔仔",
      "seq": 20
    }
  },
  {
    "type": "Feature",
    "geometry": {
      "type": "Point",
      "coordinates": [
        120.56491,
        24.29737
      ]
    },
    "properties": {
      "id": "5771",
      "name": "臨港高美路口",
      "seq": 21
    }
  },
  {
    "type": "Feature",
    "geometry": {
      "type": "Point",
      "coordinates": [
        120.55094,
        24.29344
      ]
    },
    "properties": {
      "id": "5770",
      "name": "臨港港埠路口",
      "seq": 22
    }
  },
  {
    "type": "Feature",
    "geometry": {
      "type": "Point",
      "coordinates": [
        120.53974,
        24.28838
      ]
    },
    "properties": {
      "id": "5063",
      "name": "臺中港北堤",
      "seq": 23
    }
  },
  {
    "type": "Feature",
    "geometry": {
      "type": "Point",
      "coordinates": [
        120.53797,
        24.28544
      ]
    },
    "properties": {
      "id": "3763",
      "name": "賢德大樓",
      "seq": 24
    }
  },
  {
    "type": "Feature",
    "geometry": {
      "type": "Point",
      "coordinates": [
        120.53716,
        24.28354
      ]
    },
    "properties": {
      "id": "3729",
      "name": "德豐大樓",
      "seq": 25
    }
  },
  {
    "type": "Feature",
    "geometry": {
      "type": "Point",
      "coordinates": [
        120.53648,
        24.28195
      ]
    },
    "properties": {
      "id": "2180",
      "name": "西瓜寮",
      "seq": 26
    }
  },
  {
    "type": "Feature",
    "geometry": {
      "type": "Point",
      "coordinates": [
        120.53521,
        24.27895
      ]
    },
    "properties": {
      "id": "2657",
      "name": "後營門口",
      "seq": 27
    }
  },
  {
    "type": "Feature",
    "geometry": {
      "type": "Point",
      "coordinates": [
        120.53423,
        24.27666
      ]
    },
    "properties": {
      "id": "2996",
      "name": "梧棟",
      "seq": 28
    }
  },
  {
    "type": "Feature",
    "geometry": {
      "type": "Point",
      "coordinates": [
        120.5331,
        24.27372
      ]
    },
    "properties": {
      "id": "5066",
      "name": "環球大樓",
      "seq": 29
    }
  },
  {
    "type": "Feature",
    "geometry": {
      "type": "Point",
      "coordinates": [
        120.61737,
        24.35018
      ]
    },
    "properties": {
      "id": "5691",
      "name": "大甲體育場",
      "seq": 3
    }
  },
  {
    "type": "Feature",
    "geometry": {
      "type": "Point",
      "coordinates": [
        120.53229,
        24.27162
      ]
    },
    "properties": {
      "id": "5058",
      "name": "舶來品商圈",
      "seq": 30
    }
  },
  {
    "type": "Feature",
    "geometry": {
      "type": "Point",
      "coordinates": [
        120.53144,
        24.26981
      ]
    },
    "properties": {
      "id": "4397",
      "name": "港灣技術中心",
      "seq": 31
    }
  },
  {
    "type": "Feature",
    "geometry": {
      "type": "Point",
      "coordinates": [
        120.52987,
        24.26109
      ]
    },
    "properties": {
      "id": "4374",
      "name": "大智梧北路口",
      "seq": 32
    }
  },
  {
    "type": "Feature",
    "geometry": {
      "type": "Point",
      "coordinates": [
        120.53033,
        24.26076
      ]
    },
    "properties": {
      "id": "4979",
      "name": "下寮里",
      "seq": 33
    }
  },
  {
    "type": "Feature",
    "geometry": {
      "type": "Point",
      "coordinates": [
        120.53011,
        24.25861
      ]
    },
    "properties": {
      "id": "1208",
      "name": "下寮社區",
      "seq": 34
    }
  },
  {
    "type": "Feature",
    "geometry": {
      "type": "Point",
      "coordinates": [
        120.52987,
        24.25756
      ]
    },
    "properties": {
      "id": "5057",
      "name": "梧棲郵局",
      "seq": 35
    }
  },
  {
    "type": "Feature",
    "geometry": {
      "type": "Point",
      "coordinates": [
        120.52953,
        24.25661
      ]
    },
    "properties": {
      "id": "4841",
      "name": "梧棲(朝元宮)",
      "seq": 36
    }
  },
  {
    "type": "Feature",
    "geometry": {
      "type": "Point",
      "coordinates": [
        120.61841,
        24.35135
      ]
    },
    "properties": {
      "id": "5692",
      "name": "李綜合醫院",
      "seq": 4
    }
  },
  {
    "type": "Feature",
    "geometry": {
      "type": "Point",
      "coordinates": [
        120.62028,
        24.34819
      ]
    },
    "properties": {
      "id": "5775",
      "name": "庄尾(文武路)",
      "seq": 5
    }
  },
  {
    "type": "Feature",
    "geometry": {
      "type": "Point",
      "coordinates": [
        120.62286,
        24.34726
      ]
    },
    "properties": {
      "id": "1074",
      "name": "文昌祠",
      "seq": 6
    }
  },
  {
    "type": "Feature",
    "geometry": {
      "type": "Point",
      "coordinates": [
        120.62664,
        24.34461
      ]
    },
    "properties": {
      "id": "4432",
      "name": "大甲火車站",
      "seq": 7
    }
  },
  {
    "type": "Feature",
    "geometry": {
      "type": "Point",
      "coordinates": [
        120.62553,
        24.34321
      ]
    },
    "properties": {
      "id": "5084",
      "name": "大甲",
      "seq": 8
    }
  },
  {
    "type": "Feature",
    "geometry": {
      "type": "Point",
      "coordinates": [
        120.62404,
        24.34279
      ]
    },
    "properties": {
      "id": "5639",
      "name": "南陽里(中山路)",
      "seq": 9
    }
  }
]
