<?xml version="1.0" encoding="UTF-8" standalone="yes"?>
<BusDynInfo><EssentialInfo><Location><name>TCBUS</name><CenterName>Maxwin</CenterName></Location><UpdateTime>2014-12-20 08:22:40</UpdateTime><CoordinateSystem/></EssentialInfo>
<BusInfo><Stop Id="3935" routeId="236" nameZh="豐原" seqNo="1" pgp="0" terminal="0" districtId="1" GoBack="1" latitude="24.2538" longitude="120.72154" inDis="70" outDis="70" oid="6693" /><Stop Id="3343" routeId="236" nameZh="媽祖廟" seqNo="2" pgp="0" terminal="0" districtId="1" GoBack="1" latitude="24.25157" longitude="120.71851" inDis="50" outDis="50" oid="6397" /><Stop Id="3939" routeId="236" nameZh="豐原郵局" seqNo="3" pgp="0" terminal="0" districtId="1" GoBack="1" latitude="24.2514" longitude="120.71552" inDis="50" outDis="50" oid="12284" /><Stop Id="3357" routeId="236" nameZh="慈龍寺" seqNo="4" pgp="0" terminal="0" districtId="1" GoBack="1" latitude="24.25079" longitude="120.712" inDis="50" outDis="50" oid="8065" /><Stop Id="4448" routeId="236" nameZh="中正圓環西路口" seqNo="5" pgp="0" terminal="0" districtId="1" GoBack="1" latitude="24.25039" longitude="120.70963" inDis="50" outDis="50" oid="6688" /><Stop Id="1065" routeId="236" nameZh="三光新村" seqNo="6" pgp="0" terminal="0" districtId="1" GoBack="1" latitude="24.24999" longitude="120.70672" inDis="50" outDis="50" oid="5072" /><Stop Id="2349" routeId="236" nameZh="忠勤新村" seqNo="7" pgp="0" terminal="0" districtId="1" GoBack="1" latitude="24.24962" longitude="120.70434" inDis="50" outDis="50" oid="5856" /><Stop Id="2489" routeId="236" nameZh="社皮鐵路巷" seqNo="8" pgp="0" terminal="0" districtId="1" GoBack="1" latitude="24.24951" longitude="120.70229" inDis="50" outDis="50" oid="8015" /><Stop Id="4498" routeId="236" nameZh="臺豐社區" seqNo="9" pgp="0" terminal="0" districtId="1" GoBack="1" latitude="24.249" longitude="120.70003" inDis="50" outDis="50" oid="13826" /><Stop Id="5438" routeId="236" nameZh="岸裡國小" seqNo="10" pgp="0" terminal="0" districtId="1" GoBack="1" latitude="24.24871" longitude="120.69809" inDis="50" outDis="50" oid="12282" /><Stop Id="2993" routeId="236" nameZh="望寮" seqNo="11" pgp="0" terminal="0" districtId="1" GoBack="1" latitude="24.24841" longitude="120.69323" inDis="50" outDis="50" oid="6203" /><Stop Id="2700" routeId="236" nameZh="紅瓦厝口" seqNo="12" pgp="0" terminal="0" districtId="1" GoBack="1" latitude="24.2476" longitude="120.6896" inDis="50" outDis="50" oid="8031" /><Stop Id="2486" routeId="236" nameZh="社口" seqNo="13" pgp="0" terminal="0" districtId="1" GoBack="1" latitude="24.24668" longitude="120.68563" inDis="50" outDis="50" oid="5941" /><Stop Id="2836" routeId="236" nameZh="神岡國中" seqNo="14" pgp="0" terminal="0" districtId="1" GoBack="1" latitude="24.24731" longitude="120.68146" inDis="50" outDis="50" oid="6140" /><Stop Id="3656" routeId="236" nameZh="福隆新村" seqNo="15" pgp="0" terminal="0" districtId="1" GoBack="1" latitude="24.24901" longitude="120.67946" inDis="50" outDis="50" oid="6553" /><Stop Id="3655" routeId="236" nameZh="福華公司" seqNo="16" pgp="0" terminal="0" districtId="1" GoBack="1" latitude="24.25099" longitude="120.67622" inDis="50" outDis="50" oid="6552" /><Stop Id="3556" routeId="236" nameZh="電信局" seqNo="17" pgp="0" terminal="0" districtId="1" GoBack="1" latitude="24.25317" longitude="120.67368" inDis="50" outDis="50" oid="13823" /><Stop Id="3460" routeId="236" nameZh="中山溝心路口" seqNo="18" pgp="0" terminal="0" districtId="1" GoBack="1" latitude="24.25521" longitude="120.67224" inDis="50" outDis="50" oid="6474" /><Stop Id="1783" routeId="236" nameZh="北庄" seqNo="19" pgp="0" terminal="0" districtId="1" GoBack="1" latitude="24.25732" longitude="120.66832" inDis="50" outDis="50" oid="12271" /><Stop Id="3066" routeId="236" nameZh="庄頭" seqNo="20" pgp="0" terminal="0" districtId="1" GoBack="1" latitude="24.25812" longitude="120.66294" inDis="50" outDis="50" oid="12270" /><Stop Id="2837" routeId="236" nameZh="神岡區公所" seqNo="21" pgp="0" terminal="0" districtId="1" GoBack="1" latitude="24.25771" longitude="120.66141" inDis="50" outDis="50" oid="6141" /><Stop Id="2835" routeId="236" nameZh="神岡" seqNo="22" pgp="0" terminal="0" districtId="1" GoBack="1" latitude="24.25703" longitude="120.6593" inDis="50" outDis="50" oid="6139" /><Stop Id="4445" routeId="236" nameZh="中正中山路口" seqNo="23" pgp="0" terminal="0" districtId="1" GoBack="1" latitude="24.25842" longitude="120.65605" inDis="50" outDis="50" oid="13808" /><Stop Id="3654" routeId="236" nameZh="福連公司" seqNo="24" pgp="0" terminal="0" districtId="1" GoBack="1" latitude="24.25852" longitude="120.6531" inDis="50" outDis="50" oid="6551" /><Stop Id="1392" routeId="236" nameZh="山皮" seqNo="25" pgp="0" terminal="0" districtId="1" GoBack="1" latitude="24.25824" longitude="120.64935" inDis="50" outDis="50" oid="5286" /><Stop Id="2282" routeId="236" nameZh="車站前" seqNo="26" pgp="0" terminal="0" districtId="1" GoBack="1" latitude="24.25339" longitude="120.64411" inDis="50" outDis="50" oid="5810" /><Stop Id="1118" routeId="236" nameZh="下山皮" seqNo="27" pgp="0" terminal="0" districtId="1" GoBack="1" latitude="24.24622" longitude="120.63801" inDis="50" outDis="50" oid="5104" /><Stop Id="5242" routeId="236" nameZh="和平清陽一路口" seqNo="28" pgp="0" terminal="0" districtId="1" GoBack="1" latitude="24.24309" longitude="120.63456" inDis="50" outDis="50" oid="310787792" /><Stop Id="4188" routeId="236" nameZh="埔仔墘" seqNo="29" pgp="0" terminal="0" districtId="1" GoBack="1" latitude="24.24095" longitude="120.63102" inDis="50" outDis="50" oid="12263" /><Stop Id="3663" routeId="236" nameZh="福樂新城" seqNo="30" pgp="0" terminal="0" districtId="1" GoBack="1" latitude="24.24248" longitude="120.62673" inDis="50" outDis="50" oid="00F44A45672A4A16994A287A6E61763B" /><Stop Id="4669" routeId="236" nameZh="中清信義路口" seqNo="31" pgp="0" terminal="0" districtId="1" GoBack="1" latitude="24.2425" longitude="120.6204" inDis="50" outDis="50" oid="7425" /><Stop Id="3023" routeId="236" nameZh="清泉里" seqNo="32" pgp="0" terminal="0" districtId="1" GoBack="1" latitude="24.24409" longitude="120.61466" inDis="50" outDis="50" oid="6230" /><Stop Id="0169" routeId="236" nameZh="清泉派出所" seqNo="33" pgp="0" terminal="0" districtId="1" GoBack="1" latitude="24.24561" longitude="120.61048" inDis="50" outDis="50" oid="318241812" /><Stop Id="1604" routeId="236" nameZh="公明里" seqNo="34" pgp="0" terminal="0" districtId="1" GoBack="1" latitude="24.24655" longitude="120.60824" inDis="50" outDis="50" oid="3E8D6863D7C6417AB4B68003C95F12DE" /><Stop Id="3738" routeId="236" nameZh="樂群二村" seqNo="35" pgp="0" terminal="0" districtId="1" GoBack="1" latitude="24.24772" longitude="120.60567" inDis="50" outDis="50" oid="5D3D303824DE44588FF28F594C522805" /><Stop Id="1556" routeId="236" nameZh="中清仁愛巷口" seqNo="36" pgp="0" terminal="0" districtId="1" GoBack="1" latitude="24.24946" longitude="120.6018" inDis="50" outDis="50" oid="0032883D9F1A4E049568D5607D04A15E" /><Stop Id="4713" routeId="236" nameZh="公明國中" seqNo="37" pgp="0" terminal="0" districtId="1" GoBack="1" latitude="24.2501" longitude="120.59881" inDis="50" outDis="50" oid="310614301" /><Stop Id="0135" routeId="236" nameZh="臺中航空站" seqNo="38" pgp="0" terminal="0" districtId="1" GoBack="1" latitude="24.25348" longitude="120.59899" inDis="50" outDis="50" oid="312174380" /><Stop Id="4982" routeId="236" nameZh="漢翔複材中心" seqNo="39" pgp="0" terminal="0" districtId="1" GoBack="1" latitude="24.25234" longitude="120.5984" inDis="50" outDis="50" oid="306167896" /><Stop Id="2202" routeId="236" nameZh="西勢寮" seqNo="40" pgp="0" terminal="0" districtId="1" GoBack="1" latitude="24.25027" longitude="120.59626" inDis="50" outDis="50" oid="5767" /><Stop Id="3035" routeId="236" nameZh="犁份" seqNo="41" pgp="0" terminal="0" districtId="1" GoBack="1" latitude="24.24204" longitude="120.57118" inDis="50" outDis="100" oid="6238" /><Stop Id="5221" routeId="236" nameZh="中山臺灣大道口" seqNo="42" pgp="0" terminal="0" districtId="1" GoBack="1" latitude="24.2371" longitude="120.56918" inDis="50" outDis="50" oid="310787748" /><Stop Id="5222" routeId="236" nameZh="中山鎮政路口" seqNo="43" pgp="0" terminal="0" districtId="1" GoBack="1" latitude="24.23698" longitude="120.56673" inDis="50" outDis="50" oid="310787750" /><Stop Id="4390" routeId="236" nameZh="沙鹿高工(中山路)" seqNo="44" pgp="0" terminal="0" districtId="1" GoBack="1" latitude="24.23726" longitude="120.56491" inDis="50" outDis="50" oid="17385" /><Stop Id="2682" routeId="236" nameZh="洛泉里" seqNo="45" pgp="0" terminal="0" districtId="1" GoBack="1" latitude="24.2376" longitude="120.56252" inDis="50" outDis="50" oid="6041" /><Stop Id="4681" routeId="236" nameZh="沙鹿市場" seqNo="46" pgp="0" terminal="0" districtId="1" GoBack="1" latitude="24.23737" longitude="120.55967" inDis="50" outDis="50" oid="14045" /><Stop Id="4815" routeId="236" nameZh="沙鹿火車站" seqNo="47" pgp="0" terminal="0" districtId="1" GoBack="1" latitude="24.23602" longitude="120.55931" inDis="50" outDis="50" oid="15238" /><Stop Id="4816" routeId="236" nameZh="沙鹿光田醫院" seqNo="48" pgp="0" terminal="0" districtId="1" GoBack="1" latitude="24.23492" longitude="120.55882" inDis="50" outDis="50" oid="313222697" /><Stop Id="4816" routeId="236" nameZh="沙鹿光田醫院" seqNo="1" pgp="0" terminal="0" districtId="1" GoBack="2" latitude="24.23492" longitude="120.55882" inDis="50" outDis="50" oid="313222697" /><Stop Id="4815" routeId="236" nameZh="沙鹿火車站" seqNo="2" pgp="0" terminal="0" districtId="1" GoBack="2" latitude="24.23602" longitude="120.55931" inDis="50" outDis="50" oid="15238" /><Stop Id="4681" routeId="236" nameZh="沙鹿市場" seqNo="3" pgp="0" terminal="0" districtId="1" GoBack="2" latitude="24.23737" longitude="120.55967" inDis="50" outDis="50" oid="14045" /><Stop Id="2682" routeId="236" nameZh="洛泉里" seqNo="4" pgp="0" terminal="0" districtId="1" GoBack="2" latitude="24.2376" longitude="120.56252" inDis="50" outDis="50" oid="6041" /><Stop Id="4390" routeId="236" nameZh="沙鹿高工(中山路)" seqNo="5" pgp="0" terminal="0" districtId="1" GoBack="2" latitude="24.23722" longitude="120.56494" inDis="50" outDis="50" oid="17454" /><Stop Id="5222" routeId="236" nameZh="中山鎮政路口" seqNo="6" pgp="0" terminal="0" districtId="1" GoBack="2" latitude="24.23698" longitude="120.56673" inDis="50" outDis="50" oid="310787750" /><Stop Id="5221" routeId="236" nameZh="中山臺灣大道口" seqNo="7" pgp="0" terminal="0" districtId="1" GoBack="2" latitude="24.2371" longitude="120.56918" inDis="50" outDis="50" oid="310787748" /><Stop Id="3035" routeId="236" nameZh="犁份" seqNo="8" pgp="0" terminal="0" districtId="1" GoBack="2" latitude="24.24204" longitude="120.57118" inDis="50" outDis="100" oid="6238" /><Stop Id="2202" routeId="236" nameZh="西勢寮" seqNo="9" pgp="0" terminal="0" districtId="1" GoBack="2" latitude="24.25027" longitude="120.59626" inDis="50" outDis="50" oid="5767" /><Stop Id="4982" routeId="236" nameZh="漢翔複材中心" seqNo="10" pgp="0" terminal="0" districtId="1" GoBack="2" latitude="24.25234" longitude="120.5984" inDis="50" outDis="50" oid="306167896" /><Stop Id="0135" routeId="236" nameZh="臺中航空站" seqNo="11" pgp="0" terminal="0" districtId="1" GoBack="2" latitude="24.25348" longitude="120.59899" inDis="50" outDis="50" oid="312174380" /><Stop Id="4713" routeId="236" nameZh="公明國中" seqNo="12" pgp="0" terminal="0" districtId="1" GoBack="2" latitude="24.2501" longitude="120.59881" inDis="50" outDis="50" oid="310614301" /><Stop Id="1556" routeId="236" nameZh="中清仁愛巷口" seqNo="13" pgp="0" terminal="0" districtId="1" GoBack="2" latitude="24.24946" longitude="120.6018" inDis="50" outDis="50" oid="0032883D9F1A4E049568D5607D04A15E" /><Stop Id="3738" routeId="236" nameZh="樂群二村" seqNo="14" pgp="0" terminal="0" districtId="1" GoBack="2" latitude="24.24772" longitude="120.60567" inDis="50" outDis="50" oid="5D3D303824DE44588FF28F594C522805" /><Stop Id="1604" routeId="236" nameZh="公明里" seqNo="15" pgp="0" terminal="0" districtId="1" GoBack="2" latitude="24.24655" longitude="120.60824" inDis="50" outDis="50" oid="3E8D6863D7C6417AB4B68003C95F12DE" /><Stop Id="0169" routeId="236" nameZh="清泉派出所" seqNo="16" pgp="0" terminal="0" districtId="1" GoBack="2" latitude="24.24561" longitude="120.61048" inDis="50" outDis="50" oid="318241812" /><Stop Id="3023" routeId="236" nameZh="清泉里" seqNo="17" pgp="0" terminal="0" districtId="1" GoBack="2" latitude="24.24409" longitude="120.61466" inDis="50" outDis="50" oid="6230" /><Stop Id="4669" routeId="236" nameZh="中清信義路口" seqNo="18" pgp="0" terminal="0" districtId="1" GoBack="2" latitude="24.2425" longitude="120.6204" inDis="50" outDis="50" oid="7425" /><Stop Id="3663" routeId="236" nameZh="福樂新城" seqNo="19" pgp="0" terminal="0" districtId="1" GoBack="2" latitude="24.24248" longitude="120.62673" inDis="50" outDis="50" oid="00F44A45672A4A16994A287A6E61763B" /><Stop Id="4188" routeId="236" nameZh="埔仔墘" seqNo="20" pgp="0" terminal="0" districtId="1" GoBack="2" latitude="24.24095" longitude="120.63102" inDis="50" outDis="50" oid="12263" /><Stop Id="5242" routeId="236" nameZh="和平清陽一路口" seqNo="21" pgp="0" terminal="0" districtId="1" GoBack="2" latitude="24.24309" longitude="120.63456" inDis="50" outDis="50" oid="310787792" /><Stop Id="1118" routeId="236" nameZh="下山皮" seqNo="22" pgp="0" terminal="0" districtId="1" GoBack="2" latitude="24.24622" longitude="120.63801" inDis="50" outDis="50" oid="5104" /><Stop Id="2282" routeId="236" nameZh="車站前" seqNo="23" pgp="0" terminal="0" districtId="1" GoBack="2" latitude="24.25339" longitude="120.64411" inDis="50" outDis="50" oid="5810" /><Stop Id="1392" routeId="236" nameZh="山皮" seqNo="24" pgp="0" terminal="0" districtId="1" GoBack="2" latitude="24.25824" longitude="120.64935" inDis="50" outDis="50" oid="5286" /><Stop Id="3654" routeId="236" nameZh="福連公司" seqNo="25" pgp="0" terminal="0" districtId="1" GoBack="2" latitude="24.25852" longitude="120.6531" inDis="50" outDis="50" oid="6551" /><Stop Id="4445" routeId="236" nameZh="中正中山路口" seqNo="26" pgp="0" terminal="0" districtId="1" GoBack="2" latitude="24.25842" longitude="120.65605" inDis="50" outDis="50" oid="13808" /><Stop Id="2835" routeId="236" nameZh="神岡" seqNo="27" pgp="0" terminal="0" districtId="1" GoBack="2" latitude="24.25703" longitude="120.6593" inDis="50" outDis="50" oid="6139" /><Stop Id="2837" routeId="236" nameZh="神岡區公所" seqNo="28" pgp="0" terminal="0" districtId="1" GoBack="2" latitude="24.25771" longitude="120.66141" inDis="50" outDis="50" oid="6141" /><Stop Id="3066" routeId="236" nameZh="庄頭" seqNo="29" pgp="0" terminal="0" districtId="1" GoBack="2" latitude="24.25812" longitude="120.66294" inDis="50" outDis="50" oid="12270" /><Stop Id="1783" routeId="236" nameZh="北庄" seqNo="30" pgp="0" terminal="0" districtId="1" GoBack="2" latitude="24.25732" longitude="120.66832" inDis="50" outDis="50" oid="12271" /><Stop Id="3460" routeId="236" nameZh="中山溝心路口" seqNo="31" pgp="0" terminal="0" districtId="1" GoBack="2" latitude="24.25521" longitude="120.67224" inDis="50" outDis="50" oid="6474" /><Stop Id="3556" routeId="236" nameZh="電信局" seqNo="32" pgp="0" terminal="0" districtId="1" GoBack="2" latitude="24.25317" longitude="120.67368" inDis="50" outDis="50" oid="13823" /><Stop Id="3655" routeId="236" nameZh="福華公司" seqNo="33" pgp="0" terminal="0" districtId="1" GoBack="2" latitude="24.25099" longitude="120.67622" inDis="50" outDis="50" oid="6552" /><Stop Id="3656" routeId="236" nameZh="福隆新村" seqNo="34" pgp="0" terminal="0" districtId="1" GoBack="2" latitude="24.24901" longitude="120.67946" inDis="50" outDis="50" oid="6553" /><Stop Id="2836" routeId="236" nameZh="神岡國中" seqNo="35" pgp="0" terminal="0" districtId="1" GoBack="2" latitude="24.24731" longitude="120.68146" inDis="50" outDis="50" oid="6140" /><Stop Id="2486" routeId="236" nameZh="社口" seqNo="36" pgp="0" terminal="0" districtId="1" GoBack="2" latitude="24.24668" longitude="120.68563" inDis="50" outDis="50" oid="5941" /><Stop Id="2700" routeId="236" nameZh="紅瓦厝口" seqNo="37" pgp="0" terminal="0" districtId="1" GoBack="2" latitude="24.2476" longitude="120.6896" inDis="50" outDis="50" oid="8031" /><Stop Id="2993" routeId="236" nameZh="望寮" seqNo="38" pgp="0" terminal="0" districtId="1" GoBack="2" latitude="24.24841" longitude="120.69323" inDis="50" outDis="50" oid="6203" /><Stop Id="5438" routeId="236" nameZh="岸裡國小" seqNo="39" pgp="0" terminal="0" districtId="1" GoBack="2" latitude="24.24871" longitude="120.69809" inDis="50" outDis="50" oid="12282" /><Stop Id="4498" routeId="236" nameZh="臺豐社區" seqNo="40" pgp="0" terminal="0" districtId="1" GoBack="2" latitude="24.249" longitude="120.70003" inDis="50" outDis="50" oid="13826" /><Stop Id="2489" routeId="236" nameZh="社皮鐵路巷" seqNo="41" pgp="0" terminal="0" districtId="1" GoBack="2" latitude="24.24951" longitude="120.70229" inDis="50" outDis="50" oid="8015" /><Stop Id="2349" routeId="236" nameZh="忠勤新村" seqNo="42" pgp="0" terminal="0" districtId="1" GoBack="2" latitude="24.24962" longitude="120.70434" inDis="50" outDis="50" oid="5856" /><Stop Id="1065" routeId="236" nameZh="三光新村" seqNo="43" pgp="0" terminal="0" districtId="1" GoBack="2" latitude="24.24999" longitude="120.70672" inDis="50" outDis="50" oid="5072" /><Stop Id="4448" routeId="236" nameZh="中正圓環西路口" seqNo="44" pgp="0" terminal="0" districtId="1" GoBack="2" latitude="24.25039" longitude="120.70963" inDis="50" outDis="50" oid="6688" /><Stop Id="3357" routeId="236" nameZh="慈龍寺" seqNo="45" pgp="0" terminal="0" districtId="1" GoBack="2" latitude="24.25079" longitude="120.712" inDis="50" outDis="50" oid="8065" /><Stop Id="3939" routeId="236" nameZh="豐原郵局" seqNo="46" pgp="0" terminal="0" districtId="1" GoBack="2" latitude="24.2514" longitude="120.71552" inDis="50" outDis="50" oid="12284" /><Stop Id="3343" routeId="236" nameZh="媽祖廟" seqNo="47" pgp="0" terminal="0" districtId="1" GoBack="2" latitude="24.25157" longitude="120.71851" inDis="50" outDis="50" oid="6397" /><Stop Id="2309" routeId="236" nameZh="和平街" seqNo="48" pgp="0" terminal="0" districtId="1" GoBack="2" latitude="24.25233" longitude="120.71986" inDis="50" outDis="50" oid="5834" /><Stop Id="3935" routeId="236" nameZh="豐原" seqNo="49" pgp="0" terminal="0" districtId="1" GoBack="2" latitude="24.2538" longitude="120.72154" inDis="70" outDis="70" oid="6693" /></BusInfo></BusDynInfo>