<?xml version="1.0" encoding="UTF-8" standalone="yes"?>
<BusDynInfo><EssentialInfo><Location><name>TCBUS</name><CenterName>Maxwin</CenterName></Location><UpdateTime>2014-12-20 08:07:28</UpdateTime><CoordinateSystem/></EssentialInfo>
<BusInfo><Stop Id="5061" routeId="170" nameZh="新政大安港路口" seqNo="1" pgp="0" terminal="0" districtId="1" GoBack="1" latitude="24.35087" longitude="120.61478" inDis="50" outDis="50" oid="309863811" /><Stop Id="2038" routeId="170" nameZh="光田" seqNo="2" pgp="0" terminal="0" districtId="1" GoBack="1" latitude="24.34723" longitude="120.61645" inDis="50" outDis="50" oid="5679" /><Stop Id="5691" routeId="170" nameZh="大甲體育場" seqNo="3" pgp="0" terminal="0" districtId="1" GoBack="1" latitude="24.35018" longitude="120.61737" inDis="50" outDis="50" oid="319713434" /><Stop Id="5692" routeId="170" nameZh="李綜合醫院" seqNo="4" pgp="0" terminal="0" districtId="1" GoBack="1" latitude="24.35135" longitude="120.61841" inDis="50" outDis="50" oid="320604390" /><Stop Id="5775" routeId="170" nameZh="庄尾(文武路)" seqNo="5" pgp="0" terminal="0" districtId="1" GoBack="1" latitude="24.34819" longitude="120.62028" inDis="50" outDis="50" oid="320571958" /><Stop Id="1074" routeId="170" nameZh="文昌祠" seqNo="6" pgp="0" terminal="0" districtId="1" GoBack="1" latitude="24.34726" longitude="120.62286" inDis="50" outDis="50" oid="13774" /><Stop Id="4432" routeId="170" nameZh="大甲火車站" seqNo="7" pgp="0" terminal="0" districtId="1" GoBack="1" latitude="24.34461" longitude="120.62664" inDis="50" outDis="50" oid="14074" /><Stop Id="5084" routeId="170" nameZh="大甲" seqNo="8" pgp="0" terminal="0" districtId="1" GoBack="1" latitude="24.34321" longitude="120.62553" inDis="50" outDis="50" oid="5215" /><Stop Id="5639" routeId="170" nameZh="南陽里(中山路)" seqNo="9" pgp="0" terminal="0" districtId="1" GoBack="1" latitude="24.34279" longitude="120.62404" inDis="50" outDis="50" oid="4049" /><Stop Id="5048" routeId="170" nameZh="大甲高中(中山路)" seqNo="10" pgp="0" terminal="0" districtId="1" GoBack="1" latitude="24.34212" longitude="120.62143" inDis="50" outDis="50" oid="309863798" /><Stop Id="5693" routeId="170" nameZh="水尾橋 " seqNo="11" pgp="0" terminal="0" districtId="1" GoBack="1" latitude="24.33972" longitude="120.61874" inDis="50" outDis="50" oid="319916595" /><Stop Id="1859" routeId="170" nameZh="外水尾" seqNo="12" pgp="0" terminal="0" districtId="1" GoBack="1" latitude="24.33731" longitude="120.61723" inDis="50" outDis="50" oid="5584" /><Stop Id="4133" routeId="170" nameZh="番子寮" seqNo="13" pgp="0" terminal="0" districtId="1" GoBack="1" latitude="24.33171" longitude="120.61302" inDis="50" outDis="50" oid="319916345" /><Stop Id="1705" routeId="170" nameZh="水汴頭" seqNo="14" pgp="0" terminal="0" districtId="1" GoBack="1" latitude="24.3267" longitude="120.60843" inDis="50" outDis="50" oid="5482" /><Stop Id="1993" routeId="170" nameZh="甲南" seqNo="15" pgp="0" terminal="0" districtId="1" GoBack="1" latitude="24.30457" longitude="120.60112" inDis="50" outDis="50" oid="5645" /><Stop Id="3022" routeId="170" nameZh="清泉國中　" seqNo="16" pgp="0" terminal="0" districtId="1" GoBack="1" latitude="24.305" longitude="120.59271" inDis="50" outDis="50" oid="6229" /><Stop Id="2933" routeId="170" nameZh="國姓廟" seqNo="17" pgp="0" terminal="0" districtId="1" GoBack="1" latitude="24.30266" longitude="120.58429" inDis="50" outDis="50" oid="6180" /><Stop Id="5772" routeId="170" nameZh="臨港三美路口" seqNo="18" pgp="0" terminal="0" districtId="1" GoBack="1" latitude="24.30095" longitude="120.57816" inDis="50" outDis="50" oid="309863817" /><Stop Id="3473" routeId="170" nameZh="溪埔仔" seqNo="19" pgp="0" terminal="0" districtId="1" GoBack="1" latitude="24.30009" longitude="120.57483" inDis="50" outDis="50" oid="6486" /><Stop Id="5771" routeId="170" nameZh="臨港高美路口" seqNo="20" pgp="0" terminal="0" districtId="1" GoBack="1" latitude="24.29737" longitude="120.56491" inDis="50" outDis="50" oid="309863818" /><Stop Id="5770" routeId="170" nameZh="臨港港埠路口" seqNo="21" pgp="0" terminal="0" districtId="1" GoBack="1" latitude="24.29344" longitude="120.55094" inDis="50" outDis="50" oid="309863819" /><Stop Id="5063" routeId="170" nameZh="臺中港北堤" seqNo="22" pgp="0" terminal="0" districtId="1" GoBack="1" latitude="24.28838" longitude="120.53974" inDis="50" outDis="50" oid="309863813" /><Stop Id="3763" routeId="170" nameZh="賢德大樓" seqNo="23" pgp="0" terminal="0" districtId="1" GoBack="1" latitude="24.28544" longitude="120.53797" inDis="50" outDis="50" oid="6614" /><Stop Id="3729" routeId="170" nameZh="德豐大樓" seqNo="24" pgp="0" terminal="0" districtId="1" GoBack="1" latitude="24.28354" longitude="120.53716" inDis="50" outDis="50" oid="6597" /><Stop Id="2180" routeId="170" nameZh="西瓜寮" seqNo="25" pgp="0" terminal="0" districtId="1" GoBack="1" latitude="24.28195" longitude="120.53648" inDis="50" outDis="50" oid="5758" /><Stop Id="2657" routeId="170" nameZh="後營門口" seqNo="26" pgp="0" terminal="0" districtId="1" GoBack="1" latitude="24.27895" longitude="120.53521" inDis="50" outDis="50" oid="6031" /><Stop Id="2996" routeId="170" nameZh="梧棟" seqNo="27" pgp="0" terminal="0" districtId="1" GoBack="1" latitude="24.27666" longitude="120.53423" inDis="50" outDis="50" oid="6206" /><Stop Id="5066" routeId="170" nameZh="環球大樓" seqNo="28" pgp="0" terminal="0" districtId="1" GoBack="1" latitude="24.27372" longitude="120.5331" inDis="50" outDis="50" oid="309863816" /><Stop Id="5058" routeId="170" nameZh="舶來品商圈" seqNo="29" pgp="0" terminal="0" districtId="1" GoBack="1" latitude="24.27162" longitude="120.53229" inDis="50" outDis="50" oid="309863808" /><Stop Id="4397" routeId="170" nameZh="港灣技術中心" seqNo="30" pgp="0" terminal="0" districtId="1" GoBack="1" latitude="24.26981" longitude="120.53144" inDis="50" outDis="50" oid="13547" /><Stop Id="4374" routeId="170" nameZh="大智梧北路口" seqNo="31" pgp="0" terminal="0" districtId="1" GoBack="1" latitude="24.26109" longitude="120.52987" inDis="50" outDis="50" oid="309863799" /><Stop Id="5057" routeId="170" nameZh="梧棲郵局" seqNo="32" pgp="0" terminal="0" districtId="1" GoBack="1" latitude="24.25756" longitude="120.52987" inDis="50" outDis="50" oid="309863807" /><Stop Id="2997" routeId="170" nameZh="梧棲(梧棲路)" seqNo="33" pgp="0" terminal="0" districtId="1" GoBack="1" latitude="24.25647" longitude="120.52946" inDis="50" outDis="50" oid="319851511" /><Stop Id="2997" routeId="170" nameZh="梧棲(梧棲路)" seqNo="1" pgp="0" terminal="0" districtId="1" GoBack="2" latitude="24.25647" longitude="120.52946" inDis="50" outDis="50" oid="319851511" /><Stop Id="5057" routeId="170" nameZh="梧棲郵局" seqNo="2" pgp="0" terminal="0" districtId="1" GoBack="2" latitude="24.25756" longitude="120.52987" inDis="50" outDis="50" oid="309863807" /><Stop Id="4374" routeId="170" nameZh="大智梧北路口" seqNo="3" pgp="0" terminal="0" districtId="1" GoBack="2" latitude="24.26109" longitude="120.52987" inDis="50" outDis="50" oid="309863799" /><Stop Id="4397" routeId="170" nameZh="港灣技術中心" seqNo="4" pgp="0" terminal="0" districtId="1" GoBack="2" latitude="24.26981" longitude="120.53144" inDis="50" outDis="50" oid="13547" /><Stop Id="5058" routeId="170" nameZh="舶來品商圈" seqNo="5" pgp="0" terminal="0" districtId="1" GoBack="2" latitude="24.27162" longitude="120.53229" inDis="50" outDis="50" oid="309863808" /><Stop Id="5066" routeId="170" nameZh="環球大樓" seqNo="6" pgp="0" terminal="0" districtId="1" GoBack="2" latitude="24.27372" longitude="120.5331" inDis="50" outDis="50" oid="309863816" /><Stop Id="2996" routeId="170" nameZh="梧棟" seqNo="7" pgp="0" terminal="0" districtId="1" GoBack="2" latitude="24.27666" longitude="120.53423" inDis="50" outDis="50" oid="6206" /><Stop Id="2657" routeId="170" nameZh="後營門口" seqNo="8" pgp="0" terminal="0" districtId="1" GoBack="2" latitude="24.27895" longitude="120.53521" inDis="50" outDis="50" oid="6031" /><Stop Id="2180" routeId="170" nameZh="西瓜寮" seqNo="9" pgp="0" terminal="0" districtId="1" GoBack="2" latitude="24.28195" longitude="120.53648" inDis="50" outDis="50" oid="5758" /><Stop Id="3729" routeId="170" nameZh="德豐大樓" seqNo="10" pgp="0" terminal="0" districtId="1" GoBack="2" latitude="24.28354" longitude="120.53716" inDis="50" outDis="50" oid="6597" /><Stop Id="3763" routeId="170" nameZh="賢德大樓" seqNo="11" pgp="0" terminal="0" districtId="1" GoBack="2" latitude="24.28544" longitude="120.53797" inDis="50" outDis="50" oid="6614" /><Stop Id="5063" routeId="170" nameZh="臺中港北堤" seqNo="12" pgp="0" terminal="0" districtId="1" GoBack="2" latitude="24.28838" longitude="120.53974" inDis="50" outDis="50" oid="309863813" /><Stop Id="5770" routeId="170" nameZh="臨港港埠路口" seqNo="13" pgp="0" terminal="0" districtId="1" GoBack="2" latitude="24.29344" longitude="120.55094" inDis="50" outDis="50" oid="309863819" /><Stop Id="5771" routeId="170" nameZh="臨港高美路口" seqNo="14" pgp="0" terminal="0" districtId="1" GoBack="2" latitude="24.29737" longitude="120.56491" inDis="50" outDis="50" oid="309863818" /><Stop Id="3473" routeId="170" nameZh="溪埔仔" seqNo="15" pgp="0" terminal="0" districtId="1" GoBack="2" latitude="24.30009" longitude="120.57483" inDis="50" outDis="50" oid="6486" /><Stop Id="5772" routeId="170" nameZh="臨港三美路口" seqNo="16" pgp="0" terminal="0" districtId="1" GoBack="2" latitude="24.30095" longitude="120.57816" inDis="50" outDis="50" oid="309863817" /><Stop Id="2933" routeId="170" nameZh="國姓廟" seqNo="17" pgp="0" terminal="0" districtId="1" GoBack="2" latitude="24.30266" longitude="120.58429" inDis="50" outDis="50" oid="6180" /><Stop Id="3022" routeId="170" nameZh="清泉國中　" seqNo="18" pgp="0" terminal="0" districtId="1" GoBack="2" latitude="24.305" longitude="120.59271" inDis="50" outDis="50" oid="6229" /><Stop Id="1993" routeId="170" nameZh="甲南" seqNo="19" pgp="0" terminal="0" districtId="1" GoBack="2" latitude="24.30457" longitude="120.60112" inDis="50" outDis="50" oid="5645" /><Stop Id="1705" routeId="170" nameZh="水汴頭" seqNo="20" pgp="0" terminal="0" districtId="1" GoBack="2" latitude="24.3267" longitude="120.60843" inDis="50" outDis="50" oid="5482" /><Stop Id="4133" routeId="170" nameZh="番子寮" seqNo="21" pgp="0" terminal="0" districtId="1" GoBack="2" latitude="24.33171" longitude="120.61302" inDis="50" outDis="50" oid="319916345" /><Stop Id="1859" routeId="170" nameZh="外水尾" seqNo="22" pgp="0" terminal="0" districtId="1" GoBack="2" latitude="24.33731" longitude="120.61723" inDis="50" outDis="50" oid="5584" /><Stop Id="5693" routeId="170" nameZh="水尾橋 " seqNo="23" pgp="0" terminal="0" districtId="1" GoBack="2" latitude="24.33972" longitude="120.61874" inDis="50" outDis="50" oid="319916595" /><Stop Id="5048" routeId="170" nameZh="大甲高中(中山路)" seqNo="24" pgp="0" terminal="0" districtId="1" GoBack="2" latitude="24.34212" longitude="120.62143" inDis="50" outDis="50" oid="309863798" /><Stop Id="5639" routeId="170" nameZh="南陽里(中山路)" seqNo="25" pgp="0" terminal="0" districtId="1" GoBack="2" latitude="24.34279" longitude="120.62404" inDis="50" outDis="50" oid="4101" /><Stop Id="5084" routeId="170" nameZh="大甲" seqNo="26" pgp="0" terminal="0" districtId="1" GoBack="2" latitude="24.34321" longitude="120.62553" inDis="50" outDis="50" oid="5215" /><Stop Id="4432" routeId="170" nameZh="大甲火車站" seqNo="27" pgp="0" terminal="0" districtId="1" GoBack="2" latitude="24.34461" longitude="120.62664" inDis="50" outDis="50" oid="14074" /><Stop Id="1074" routeId="170" nameZh="文昌祠" seqNo="28" pgp="0" terminal="0" districtId="1" GoBack="2" latitude="24.34726" longitude="120.62286" inDis="50" outDis="50" oid="13774" /><Stop Id="5775" routeId="170" nameZh="庄尾(文武路)" seqNo="29" pgp="0" terminal="0" districtId="1" GoBack="2" latitude="24.34819" longitude="120.62028" inDis="50" outDis="50" oid="320571958" /><Stop Id="5692" routeId="170" nameZh="李綜合醫院" seqNo="30" pgp="0" terminal="0" districtId="1" GoBack="2" latitude="24.35135" longitude="120.61841" inDis="50" outDis="50" oid="320604390" /><Stop Id="5691" routeId="170" nameZh="大甲體育場" seqNo="31" pgp="0" terminal="0" districtId="1" GoBack="2" latitude="24.35018" longitude="120.61737" inDis="50" outDis="50" oid="319713434" /><Stop Id="2038" routeId="170" nameZh="光田" seqNo="32" pgp="0" terminal="0" districtId="1" GoBack="2" latitude="24.34723" longitude="120.61645" inDis="50" outDis="50" oid="5679" /><Stop Id="5061" routeId="170" nameZh="新政大安港路口" seqNo="33" pgp="0" terminal="0" districtId="1" GoBack="2" latitude="24.35087" longitude="120.61478" inDis="50" outDis="50" oid="309863811" /></BusInfo></BusDynInfo>