<?xml version="1.0" encoding="UTF-8" standalone="yes"?>
<BusDynInfo><EssentialInfo><Location><name>TCBUS</name><CenterName>Maxwin</CenterName></Location><UpdateTime>2014-12-20 07:17:49</UpdateTime><CoordinateSystem/></EssentialInfo>
<BusInfo><Stop Id="3531" routeId="藍6" nameZh="正英臺灣大道口" seqNo="1" pgp="0" terminal="0" districtId="1" GoBack="1" latitude="24.20961" longitude="120.58033" inDis="50" outDis="50" oid="310808454" /><Stop Id="4124" routeId="藍6" nameZh="頂六路" seqNo="2" pgp="0" terminal="0" districtId="1" GoBack="1" latitude="24.21332" longitude="120.58114" inDis="50" outDis="50" oid="14334" /><Stop Id="4386" routeId="藍6" nameZh="弘光科技大學" seqNo="3" pgp="0" terminal="0" districtId="1" GoBack="1" latitude="24.2166" longitude="120.5808" inDis="50" outDis="50" oid="17377" /><Stop Id="4111" routeId="藍6" nameZh="晉江里" seqNo="4" pgp="0" terminal="0" districtId="1" GoBack="1" latitude="24.22106" longitude="120.57986" inDis="50" outDis="50" oid="17574" /><Stop Id="4062" routeId="藍6" nameZh="下晉江" seqNo="5" pgp="0" terminal="0" districtId="1" GoBack="1" latitude="24.22326" longitude="120.57859" inDis="50" outDis="50" oid="15032" /><Stop Id="4147" routeId="藍6" nameZh="靜宜大學" seqNo="6" pgp="0" terminal="0" districtId="1" GoBack="1" latitude="24.22623" longitude="120.57673" inDis="50" outDis="50" oid="15033" /><Stop Id="4086" routeId="藍6" nameZh="臺灣大道北勢路口" seqNo="7" pgp="0" terminal="0" districtId="1" GoBack="1" latitude="24.23015" longitude="120.57421" inDis="50" outDis="50" oid="15167" /><Stop Id="4392" routeId="藍6" nameZh="紅竹巷" seqNo="8" pgp="0" terminal="0" districtId="1" GoBack="1" latitude="24.23312" longitude="120.57242" inDis="50" outDis="50" oid="2275" /><Stop Id="0431" routeId="藍6" nameZh="中山台灣大道口" seqNo="9" pgp="0" terminal="0" districtId="1" GoBack="1" latitude="24.23704" longitude="120.56892" inDis="50" outDis="50" oid="318961612" /><Stop Id="5222" routeId="藍6" nameZh="中山鎮政路口" seqNo="10" pgp="0" terminal="0" districtId="1" GoBack="1" latitude="24.23707" longitude="120.56704" inDis="50" outDis="50" oid="318961613" /><Stop Id="4390" routeId="藍6" nameZh="沙鹿高工(中山路)" seqNo="11" pgp="0" terminal="0" districtId="1" GoBack="1" latitude="24.23722" longitude="120.56494" inDis="50" outDis="50" oid="17454" /><Stop Id="2682" routeId="藍6" nameZh="洛泉里" seqNo="12" pgp="0" terminal="0" districtId="1" GoBack="1" latitude="24.23768" longitude="120.56236" inDis="50" outDis="50" oid="312574878" /><Stop Id="2248" routeId="藍6" nameZh="沙鹿站" seqNo="13" pgp="0" terminal="0" districtId="1" GoBack="1" latitude="24.23778" longitude="120.56142" inDis="50" outDis="50" oid="2280" /><Stop Id="5135" routeId="藍6" nameZh="第一銀行(沙鹿分行)" seqNo="14" pgp="0" terminal="0" districtId="1" GoBack="1" latitude="24.23925" longitude="120.56023" inDis="50" outDis="50" oid="310808433" /><Stop Id="5140" routeId="藍6" nameZh="童綜合醫院(沙鹿院區)" seqNo="15" pgp="0" terminal="0" districtId="1" GoBack="1" latitude="24.24245" longitude="120.56127" inDis="50" outDis="50" oid="14047" /><Stop Id="4042" routeId="藍6" nameZh="文化莊" seqNo="16" pgp="0" terminal="0" districtId="1" GoBack="1" latitude="24.24531" longitude="120.56227" inDis="50" outDis="50" oid="15177" /><Stop Id="4110" routeId="藍6" nameZh="家扶中心" seqNo="17" pgp="0" terminal="0" districtId="1" GoBack="1" latitude="24.2468" longitude="120.56281" inDis="50" outDis="50" oid="2284" /><Stop Id="5138" routeId="藍6" nameZh="鹿寮成衣商圈" seqNo="18" pgp="0" terminal="0" districtId="1" GoBack="1" latitude="24.24914" longitude="120.56506" inDis="50" outDis="50" oid="318961614" /><Stop Id="4044" routeId="藍6" nameZh="鹿寮" seqNo="19" pgp="0" terminal="0" districtId="1" GoBack="1" latitude="24.25173" longitude="120.56676" inDis="50" outDis="50" oid="17283" /><Stop Id="5392" routeId="藍6" nameZh="中山長春路口" seqNo="20" pgp="0" terminal="0" districtId="1" GoBack="1" latitude="24.2537" longitude="120.56786" inDis="50" outDis="50" oid="312897794" /><Stop Id="4045" routeId="藍6" nameZh="中峰" seqNo="21" pgp="0" terminal="0" districtId="1" GoBack="1" latitude="24.25529" longitude="120.56879" inDis="50" outDis="50" oid="14354" /><Stop Id="4471" routeId="藍6" nameZh="勞工育樂中心" seqNo="22" pgp="0" terminal="0" districtId="1" GoBack="1" latitude="24.2562" longitude="120.5693" inDis="50" outDis="50" oid="14355" /><Stop Id="4129" routeId="藍6" nameZh="鹿峰里" seqNo="23" pgp="0" terminal="0" districtId="1" GoBack="1" latitude="24.25884" longitude="120.57081" inDis="50" outDis="50" oid="17547" /><Stop Id="4441" routeId="藍6" nameZh="中山星河路口" seqNo="24" pgp="0" terminal="0" districtId="1" GoBack="1" latitude="24.25997" longitude="120.5714" inDis="50" outDis="50" oid="307275657" /><Stop Id="4121" routeId="藍6" nameZh="清水電信局" seqNo="25" pgp="0" terminal="0" districtId="1" GoBack="1" latitude="24.26214" longitude="120.57266" inDis="50" outDis="50" oid="17288" /><Stop Id="4119" routeId="藍6" nameZh="清水高中" seqNo="26" pgp="0" terminal="0" districtId="1" GoBack="1" latitude="24.2658" longitude="120.5742" inDis="50" outDis="50" oid="14359" /><Stop Id="5141" routeId="藍6" nameZh="華南銀行(清水分行)" seqNo="27" pgp="0" terminal="0" districtId="1" GoBack="1" latitude="24.26904" longitude="120.57549" inDis="50" outDis="50" oid="318961615" /><Stop Id="3013" routeId="藍6" nameZh="清水" seqNo="28" pgp="0" terminal="0" districtId="1" GoBack="1" latitude="24.27009" longitude="120.57583" inDis="50" outDis="50" oid="6222" /><Stop Id="4521" routeId="藍6" nameZh="中山董公街口" seqNo="29" pgp="0" terminal="0" districtId="1" GoBack="1" latitude="24.27295" longitude="120.57691" inDis="50" outDis="50" oid="2295" /><Stop Id="4442" routeId="藍6" nameZh="中山高美路口" seqNo="30" pgp="0" terminal="0" districtId="1" GoBack="1" latitude="24.27531" longitude="120.57725" inDis="50" outDis="50" oid="14059" /><Stop Id="4065" routeId="藍6" nameZh="下湳加油站" seqNo="31" pgp="0" terminal="0" districtId="1" GoBack="1" latitude="24.27858" longitude="120.57942" inDis="50" outDis="50" oid="2297" /><Stop Id="4130" routeId="藍6" nameZh="朝興宮" seqNo="32" pgp="0" terminal="0" districtId="1" GoBack="1" latitude="24.281" longitude="120.58119" inDis="50" outDis="50" oid="2298" /><Stop Id="4063" routeId="藍6" nameZh="下湳子" seqNo="33" pgp="0" terminal="0" districtId="1" GoBack="1" latitude="24.28369" longitude="120.58331" inDis="50" outDis="50" oid="2299" /><Stop Id="4058" routeId="藍6" nameZh="三田國小" seqNo="34" pgp="0" terminal="0" districtId="1" GoBack="1" latitude="24.28801" longitude="120.58578" inDis="50" outDis="50" oid="2300" /><Stop Id="4139" routeId="藍6" nameZh="福元批發" seqNo="35" pgp="0" terminal="0" districtId="1" GoBack="1" latitude="24.29059" longitude="120.58733" inDis="50" outDis="50" oid="2301" /><Stop Id="4127" routeId="藍6" nameZh="頂湳子" seqNo="36" pgp="0" terminal="0" districtId="1" GoBack="1" latitude="24.29229" longitude="120.58824" inDis="50" outDis="50" oid="2302" /><Stop Id="4150" routeId="藍6" nameZh="轉播站" seqNo="37" pgp="0" terminal="0" districtId="1" GoBack="1" latitude="24.29584" longitude="120.59094" inDis="50" outDis="50" oid="2303" /><Stop Id="4144" routeId="藍6" nameZh="震陽工廠" seqNo="38" pgp="0" terminal="0" districtId="1" GoBack="1" latitude="24.2978" longitude="120.59296" inDis="50" outDis="50" oid="318961616" /><Stop Id="4134" routeId="藍6" nameZh="菁埔里" seqNo="39" pgp="0" terminal="0" districtId="1" GoBack="1" latitude="24.30093" longitude="120.59579" inDis="50" outDis="50" oid="2305" /><Stop Id="1993" routeId="藍6" nameZh="甲南" seqNo="40" pgp="0" terminal="0" districtId="1" GoBack="1" latitude="24.30457" longitude="120.6012" inDis="50" outDis="50" oid="2306" /><Stop Id="4071" routeId="藍6" nameZh="大甲溪橋" seqNo="41" pgp="0" terminal="0" districtId="1" GoBack="1" latitude="24.31061" longitude="120.60347" inDis="50" outDis="50" oid="2307" /><Stop Id="1705" routeId="藍6" nameZh="水汴頭" seqNo="42" pgp="0" terminal="0" districtId="1" GoBack="1" latitude="24.32661" longitude="120.60852" inDis="50" outDis="50" oid="2308" /><Stop Id="4133" routeId="藍6" nameZh="番子寮" seqNo="43" pgp="0" terminal="0" districtId="1" GoBack="1" latitude="24.33247" longitude="120.61377" inDis="50" outDis="50" oid="2309" /><Stop Id="1859" routeId="藍6" nameZh="外水尾" seqNo="44" pgp="0" terminal="0" districtId="1" GoBack="1" latitude="24.33771" longitude="120.61743" inDis="50" outDis="50" oid="2310" /><Stop Id="5693" routeId="藍6" nameZh="水尾橋 " seqNo="45" pgp="0" terminal="0" districtId="1" GoBack="1" latitude="24.33972" longitude="120.61874" inDis="50" outDis="50" oid="319916595" /><Stop Id="5048" routeId="藍6" nameZh="大甲高中(中山路)" seqNo="46" pgp="0" terminal="0" districtId="1" GoBack="1" latitude="24.342" longitude="120.62135" inDis="50" outDis="50" oid="319713430" /><Stop Id="2609" routeId="藍6" nameZh="南陽里" seqNo="47" pgp="0" terminal="0" districtId="1" GoBack="1" latitude="24.34272" longitude="120.62431" inDis="50" outDis="50" oid="2312" /><Stop Id="4067" routeId="藍6" nameZh="大甲站" seqNo="48" pgp="0" terminal="0" districtId="1" GoBack="1" latitude="24.34387" longitude="120.62525" inDis="50" outDis="50" oid="2164" /><Stop Id="4067" routeId="藍6" nameZh="大甲站" seqNo="1" pgp="0" terminal="0" districtId="1" GoBack="2" latitude="24.34387" longitude="120.62525" inDis="50" outDis="50" oid="2164" /><Stop Id="2589" routeId="藍6" nameZh="南門" seqNo="2" pgp="0" terminal="0" districtId="1" GoBack="2" latitude="24.34371" longitude="120.6217" inDis="50" outDis="50" oid="5995" /><Stop Id="5361" routeId="藍6" nameZh="大甲高中(順天路)" seqNo="3" pgp="0" terminal="0" districtId="1" GoBack="2" latitude="24.34237" longitude="120.6205" inDis="50" outDis="50" oid="2166" /><Stop Id="5693" routeId="藍6" nameZh="水尾橋 " seqNo="4" pgp="0" terminal="0" districtId="1" GoBack="2" latitude="24.33972" longitude="120.61874" inDis="50" outDis="50" oid="319916595" /><Stop Id="1859" routeId="藍6" nameZh="外水尾" seqNo="5" pgp="0" terminal="0" districtId="1" GoBack="2" latitude="24.33744" longitude="120.61751" inDis="50" outDis="50" oid="2167" /><Stop Id="4133" routeId="藍6" nameZh="番子寮" seqNo="6" pgp="0" terminal="0" districtId="1" GoBack="2" latitude="24.33278" longitude="120.61384" inDis="50" outDis="50" oid="2168" /><Stop Id="1705" routeId="藍6" nameZh="水汴頭" seqNo="7" pgp="0" terminal="0" districtId="1" GoBack="2" latitude="24.32677" longitude="120.60827" inDis="50" outDis="50" oid="2169" /><Stop Id="4071" routeId="藍6" nameZh="大甲溪橋" seqNo="8" pgp="0" terminal="0" districtId="1" GoBack="2" latitude="24.31061" longitude="120.60346" inDis="50" outDis="50" oid="2170" /><Stop Id="1993" routeId="藍6" nameZh="甲南" seqNo="9" pgp="0" terminal="0" districtId="1" GoBack="2" latitude="24.30478" longitude="120.60117" inDis="50" outDis="50" oid="2171" /><Stop Id="4134" routeId="藍6" nameZh="菁埔里" seqNo="10" pgp="0" terminal="0" districtId="1" GoBack="2" latitude="24.30116" longitude="120.59601" inDis="50" outDis="50" oid="2172" /><Stop Id="4144" routeId="藍6" nameZh="震陽工廠" seqNo="11" pgp="0" terminal="0" districtId="1" GoBack="2" latitude="24.29788" longitude="120.59262" inDis="50" outDis="50" oid="2173" /><Stop Id="4150" routeId="藍6" nameZh="轉播站" seqNo="12" pgp="0" terminal="0" districtId="1" GoBack="2" latitude="24.29572" longitude="120.59084" inDis="50" outDis="50" oid="2174" /><Stop Id="4127" routeId="藍6" nameZh="頂湳子" seqNo="13" pgp="0" terminal="0" districtId="1" GoBack="2" latitude="24.29345" longitude="120.58861" inDis="50" outDis="50" oid="2175" /><Stop Id="4139" routeId="藍6" nameZh="福元批發" seqNo="14" pgp="0" terminal="0" districtId="1" GoBack="2" latitude="24.29065" longitude="120.58706" inDis="50" outDis="50" oid="2176" /><Stop Id="4058" routeId="藍6" nameZh="三田國小" seqNo="15" pgp="0" terminal="0" districtId="1" GoBack="2" latitude="24.28813" longitude="120.58562" inDis="50" outDis="50" oid="2177" /><Stop Id="4063" routeId="藍6" nameZh="下湳子" seqNo="16" pgp="0" terminal="0" districtId="1" GoBack="2" latitude="24.28398" longitude="120.58327" inDis="50" outDis="50" oid="2178" /><Stop Id="4130" routeId="藍6" nameZh="朝興宮" seqNo="17" pgp="0" terminal="0" districtId="1" GoBack="2" latitude="24.28091" longitude="120.58128" inDis="50" outDis="50" oid="2179" /><Stop Id="4065" routeId="藍6" nameZh="下湳加油站" seqNo="18" pgp="0" terminal="0" districtId="1" GoBack="2" latitude="24.2787" longitude="120.57941" inDis="50" outDis="50" oid="2180" /><Stop Id="4442" routeId="藍6" nameZh="中山高美路口" seqNo="19" pgp="0" terminal="0" districtId="1" GoBack="2" latitude="24.27461" longitude="120.57725" inDis="50" outDis="50" oid="312352563" /><Stop Id="4521" routeId="藍6" nameZh="中山董公街口" seqNo="20" pgp="0" terminal="0" districtId="1" GoBack="2" latitude="24.27301" longitude="120.57707" inDis="50" outDis="50" oid="2182" /><Stop Id="3013" routeId="藍6" nameZh="清水" seqNo="21" pgp="0" terminal="0" districtId="1" GoBack="2" latitude="24.2703" longitude="120.57598" inDis="50" outDis="50" oid="17291" /><Stop Id="5141" routeId="藍6" nameZh="華南銀行(清水分行)" seqNo="22" pgp="0" terminal="0" districtId="1" GoBack="2" latitude="24.26835" longitude="120.57522" inDis="50" outDis="50" oid="17290" /><Stop Id="4119" routeId="藍6" nameZh="清水高中" seqNo="23" pgp="0" terminal="0" districtId="1" GoBack="2" latitude="24.26615" longitude="120.57421" inDis="50" outDis="50" oid="2185" /><Stop Id="4121" routeId="藍6" nameZh="清水電信局" seqNo="24" pgp="0" terminal="0" districtId="1" GoBack="2" latitude="24.26214" longitude="120.57262" inDis="50" outDis="50" oid="2186" /><Stop Id="4441" routeId="藍6" nameZh="中山星河路口" seqNo="25" pgp="0" terminal="0" districtId="1" GoBack="2" latitude="24.25997" longitude="120.5714" inDis="50" outDis="50" oid="307275657" /><Stop Id="4129" routeId="藍6" nameZh="鹿峰里" seqNo="26" pgp="0" terminal="0" districtId="1" GoBack="2" latitude="24.25885" longitude="120.57075" inDis="50" outDis="50" oid="2188" /><Stop Id="4471" routeId="藍6" nameZh="勞工育樂中心" seqNo="27" pgp="0" terminal="0" districtId="1" GoBack="2" latitude="24.25755" longitude="120.56993" inDis="50" outDis="50" oid="2189" /><Stop Id="4045" routeId="藍6" nameZh="中峰" seqNo="28" pgp="0" terminal="0" districtId="1" GoBack="2" latitude="24.25542" longitude="120.56885" inDis="50" outDis="50" oid="10585" /><Stop Id="5392" routeId="藍6" nameZh="中山長春路口" seqNo="29" pgp="0" terminal="0" districtId="1" GoBack="2" latitude="24.2537" longitude="120.56786" inDis="50" outDis="50" oid="312897794" /><Stop Id="4044" routeId="藍6" nameZh="鹿寮" seqNo="30" pgp="0" terminal="0" districtId="1" GoBack="2" latitude="24.2515" longitude="120.56664" inDis="50" outDis="50" oid="2191" /><Stop Id="5138" routeId="藍6" nameZh="鹿寮成衣商圈" seqNo="31" pgp="0" terminal="0" districtId="1" GoBack="2" latitude="24.2489" longitude="120.56484" inDis="50" outDis="50" oid="14049" /><Stop Id="4110" routeId="藍6" nameZh="家扶中心" seqNo="32" pgp="0" terminal="0" districtId="1" GoBack="2" latitude="24.24659" longitude="120.56257" inDis="50" outDis="50" oid="15101" /><Stop Id="4042" routeId="藍6" nameZh="文化莊" seqNo="33" pgp="0" terminal="0" districtId="1" GoBack="2" latitude="24.24543" longitude="120.56214" inDis="50" outDis="50" oid="14251" /><Stop Id="5140" routeId="藍6" nameZh="童綜合醫院(沙鹿院區)" seqNo="34" pgp="0" terminal="0" districtId="1" GoBack="2" latitude="24.24318" longitude="120.5613" inDis="50" outDis="50" oid="318961610" /><Stop Id="5135" routeId="藍6" nameZh="第一銀行(沙鹿分行)" seqNo="35" pgp="0" terminal="0" districtId="1" GoBack="2" latitude="24.23932" longitude="120.56" inDis="50" outDis="50" oid="14046" /><Stop Id="2248" routeId="藍6" nameZh="沙鹿站" seqNo="36" pgp="0" terminal="0" districtId="1" GoBack="2" latitude="24.23804" longitude="120.56091" inDis="50" outDis="50" oid="318961611" /><Stop Id="2335" routeId="藍6" nameZh="居仁里" seqNo="37" pgp="0" terminal="0" districtId="1" GoBack="2" latitude="24.24004" longitude="120.56294" inDis="50" outDis="50" oid="2198" /><Stop Id="0005" routeId="藍6" nameZh="沙鹿高工(臺灣大道)" seqNo="38" pgp="0" terminal="0" districtId="1" GoBack="2" latitude="24.23937" longitude="120.56527" inDis="50" outDis="50" oid="2199" /><Stop Id="2147" routeId="藍6" nameZh="竹林國小" seqNo="39" pgp="0" terminal="0" districtId="1" GoBack="2" latitude="24.23829" longitude="120.56765" inDis="50" outDis="50" oid="2200" /><Stop Id="4389" routeId="藍6" nameZh="竹林里" seqNo="40" pgp="0" terminal="0" districtId="1" GoBack="2" latitude="24.23632" longitude="120.56994" inDis="50" outDis="50" oid="2201" /><Stop Id="4392" routeId="藍6" nameZh="紅竹巷" seqNo="41" pgp="0" terminal="0" districtId="1" GoBack="2" latitude="24.2342" longitude="120.57129" inDis="50" outDis="50" oid="2202" /><Stop Id="4086" routeId="藍6" nameZh="臺灣大道北勢路口" seqNo="42" pgp="0" terminal="0" districtId="1" GoBack="2" latitude="24.23102" longitude="120.57331" inDis="50" outDis="50" oid="2203" /><Stop Id="4147" routeId="藍6" nameZh="靜宜大學" seqNo="43" pgp="0" terminal="0" districtId="1" GoBack="2" latitude="24.22593" longitude="120.57658" inDis="50" outDis="50" oid="2204" /><Stop Id="4062" routeId="藍6" nameZh="下晉江" seqNo="44" pgp="0" terminal="0" districtId="1" GoBack="2" latitude="24.22357" longitude="120.57809" inDis="50" outDis="50" oid="2205" /><Stop Id="4111" routeId="藍6" nameZh="晉江里" seqNo="45" pgp="0" terminal="0" districtId="1" GoBack="2" latitude="24.22106" longitude="120.57986" inDis="50" outDis="50" oid="2206" /><Stop Id="4386" routeId="藍6" nameZh="弘光科技大學" seqNo="46" pgp="0" terminal="0" districtId="1" GoBack="2" latitude="24.2166" longitude="120.5808" inDis="50" outDis="50" oid="17377" /><Stop Id="4124" routeId="藍6" nameZh="頂六路" seqNo="47" pgp="0" terminal="0" districtId="1" GoBack="2" latitude="24.21365" longitude="120.58079" inDis="50" outDis="50" oid="2208" /><Stop Id="3531" routeId="藍6" nameZh="正英臺灣大道口" seqNo="48" pgp="0" terminal="0" districtId="1" GoBack="2" latitude="24.20961" longitude="120.58033" inDis="50" outDis="50" oid="310808454" /></BusInfo></BusDynInfo>