<?xml version="1.0" encoding="UTF-8" standalone="yes"?>
<BusDynInfo><EssentialInfo><Location><name>TCBUS</name><CenterName>Maxwin</CenterName></Location><UpdateTime>2014-12-20 08:23:41</UpdateTime><CoordinateSystem/></EssentialInfo>
<BusInfo><Stop Id="3935" routeId="239" nameZh="豐原" seqNo="1" pgp="0" terminal="0" districtId="1" GoBack="1" latitude="24.2538" longitude="120.72154" inDis="70" outDis="70" oid="6693" /><Stop Id="2309" routeId="239" nameZh="和平街" seqNo="2" pgp="0" terminal="0" districtId="1" GoBack="1" latitude="24.25233" longitude="120.71986" inDis="50" outDis="50" oid="5835" /><Stop Id="3343" routeId="239" nameZh="媽祖廟" seqNo="3" pgp="0" terminal="0" districtId="1" GoBack="1" latitude="24.25157" longitude="120.71851" inDis="50" outDis="50" oid="6397" /><Stop Id="3939" routeId="239" nameZh="豐原郵局" seqNo="4" pgp="0" terminal="0" districtId="1" GoBack="1" latitude="24.25136" longitude="120.71526" inDis="50" outDis="50" oid="6698" /><Stop Id="3357" routeId="239" nameZh="慈龍寺" seqNo="5" pgp="0" terminal="0" districtId="1" GoBack="1" latitude="24.25079" longitude="120.712" inDis="50" outDis="50" oid="6406" /><Stop Id="4448" routeId="239" nameZh="中正圓環西路口" seqNo="6" pgp="0" terminal="0" districtId="1" GoBack="1" latitude="24.25039" longitude="120.70963" inDis="50" outDis="50" oid="6688" /><Stop Id="1065" routeId="239" nameZh="三光新村" seqNo="7" pgp="0" terminal="0" districtId="1" GoBack="1" latitude="24.24999" longitude="120.70672" inDis="50" outDis="50" oid="5072" /><Stop Id="2349" routeId="239" nameZh="忠勤新村" seqNo="8" pgp="0" terminal="0" districtId="1" GoBack="1" latitude="24.24962" longitude="120.70434" inDis="50" outDis="50" oid="5856" /><Stop Id="2489" routeId="239" nameZh="社皮鐵路巷" seqNo="9" pgp="0" terminal="0" districtId="1" GoBack="1" latitude="24.24951" longitude="120.70229" inDis="50" outDis="50" oid="5943" /><Stop Id="4498" routeId="239" nameZh="臺豐社區" seqNo="10" pgp="0" terminal="0" districtId="1" GoBack="1" latitude="24.249" longitude="120.70003" inDis="50" outDis="50" oid="13826" /><Stop Id="5438" routeId="239" nameZh="岸裡國小" seqNo="11" pgp="0" terminal="0" districtId="1" GoBack="1" latitude="24.2487" longitude="120.69799" inDis="50" outDis="50" oid="5237" /><Stop Id="2993" routeId="239" nameZh="望寮" seqNo="12" pgp="0" terminal="0" districtId="1" GoBack="1" latitude="24.24841" longitude="120.69323" inDis="50" outDis="50" oid="6203" /><Stop Id="2700" routeId="239" nameZh="紅瓦厝口" seqNo="13" pgp="0" terminal="0" districtId="1" GoBack="1" latitude="24.2476" longitude="120.6896" inDis="50" outDis="50" oid="6056" /><Stop Id="2486" routeId="239" nameZh="社口" seqNo="14" pgp="0" terminal="0" districtId="1" GoBack="1" latitude="24.24668" longitude="120.68563" inDis="50" outDis="50" oid="5941" /><Stop Id="2492" routeId="239" nameZh="社南廟" seqNo="15" pgp="0" terminal="0" districtId="1" GoBack="1" latitude="24.24607" longitude="120.68237" inDis="50" outDis="50" oid="5945" /><Stop Id="3103" routeId="239" nameZh="頂牛埔" seqNo="16" pgp="0" terminal="0" districtId="1" GoBack="1" latitude="24.24386" longitude="120.67895" inDis="50" outDis="50" oid="6287" /><Stop Id="4721" routeId="239" nameZh="三采幼稚園" seqNo="17" pgp="0" terminal="0" districtId="1" GoBack="1" latitude="24.24282" longitude="120.67731" inDis="50" outDis="50" oid="306625603" /><Stop Id="1733" routeId="239" nameZh="牛埔仔" seqNo="18" pgp="0" terminal="0" districtId="1" GoBack="1" latitude="24.24073" longitude="120.67445" inDis="50" outDis="50" oid="5499" /><Stop Id="3707" routeId="239" nameZh="億鴻新村" seqNo="19" pgp="0" terminal="0" districtId="1" GoBack="1" latitude="24.23781" longitude="120.67004" inDis="50" outDis="50" oid="6589" /><Stop Id="3454" routeId="239" nameZh="楓樹腳" seqNo="20" pgp="0" terminal="0" districtId="1" GoBack="1" latitude="24.23591" longitude="120.66726" inDis="50" outDis="50" oid="6471" /><Stop Id="1204" routeId="239" nameZh="下楓樹腳" seqNo="21" pgp="0" terminal="0" districtId="1" GoBack="1" latitude="24.23335" longitude="120.66354" inDis="50" outDis="50" oid="5156" /><Stop Id="3544" routeId="239" nameZh="達聲" seqNo="22" pgp="0" terminal="0" districtId="1" GoBack="1" latitude="24.23155" longitude="120.65948" inDis="50" outDis="50" oid="6510" /><Stop Id="3304" routeId="239" nameZh="雅洲新城" seqNo="23" pgp="0" terminal="0" districtId="1" GoBack="1" latitude="24.22915" longitude="120.65401" inDis="50" outDis="50" oid="6380" /><Stop Id="1366" routeId="239" nameZh="大榮橋" seqNo="24" pgp="0" terminal="0" districtId="1" GoBack="1" latitude="24.22764" longitude="120.65112" inDis="50" outDis="50" oid="5281" /><Stop Id="4722" routeId="239" nameZh="玉山銀行大雅分行" seqNo="25" pgp="0" terminal="0" districtId="1" GoBack="1" latitude="24.22531" longitude="120.64796" inDis="50" outDis="50" oid="306625604" /><Stop Id="1620" routeId="239" nameZh="大雅分駐所" seqNo="26" pgp="0" terminal="0" districtId="1" GoBack="1" latitude="24.22493" longitude="120.64682" inDis="50" outDis="50" oid="6977D047141849C5BC29B7A698C9CD14" /><Stop Id="5423" routeId="239" nameZh="大雅澄清醫院" seqNo="27" pgp="0" terminal="0" districtId="1" GoBack="1" latitude="24.22699" longitude="120.64457" inDis="50" outDis="50" oid="313288973" /><Stop Id="1310" routeId="239" nameZh="大明國小" seqNo="28" pgp="0" terminal="0" districtId="1" GoBack="1" latitude="24.2287" longitude="120.64281" inDis="50" outDis="50" oid="5232" /><Stop Id="2253" routeId="239" nameZh="秀山里" seqNo="29" pgp="0" terminal="0" districtId="1" GoBack="1" latitude="24.23084" longitude="120.64077" inDis="50" outDis="50" oid="5795" /><Stop Id="2798" routeId="239" nameZh="泰聯公司" seqNo="30" pgp="0" terminal="0" districtId="1" GoBack="1" latitude="24.2331" longitude="120.63847" inDis="50" outDis="50" oid="27214FDE7184410ABF972E795AF52CDC" /><Stop Id="1593" routeId="239" nameZh="六寶里" seqNo="31" pgp="0" terminal="0" districtId="1" GoBack="1" latitude="24.23695" longitude="120.63452" inDis="50" outDis="50" oid="5411" /><Stop Id="2289" routeId="239" nameZh="亞東公司" seqNo="32" pgp="0" terminal="0" districtId="1" GoBack="1" latitude="24.23905" longitude="120.63238" inDis="50" outDis="50" oid="41F45D5AF249445FAECF6D6432E2F566" /><Stop Id="1591" routeId="239" nameZh="六張犁" seqNo="33" pgp="0" terminal="0" districtId="1" GoBack="1" latitude="24.24015" longitude="120.63124" inDis="50" outDis="50" oid="EBFADEDA761C48B5A70E45E3540BABF4" /><Stop Id="3663" routeId="239" nameZh="福樂新城" seqNo="34" pgp="0" terminal="0" districtId="1" GoBack="1" latitude="24.24248" longitude="120.62673" inDis="50" outDis="50" oid="00F44A45672A4A16994A287A6E61763B" /><Stop Id="4669" routeId="239" nameZh="中清信義路口" seqNo="35" pgp="0" terminal="0" districtId="1" GoBack="1" latitude="24.2425" longitude="120.6204" inDis="50" outDis="50" oid="7425" /><Stop Id="3023" routeId="239" nameZh="清泉里" seqNo="36" pgp="0" terminal="0" districtId="1" GoBack="1" latitude="24.24409" longitude="120.61466" inDis="50" outDis="50" oid="6230" /><Stop Id="0169" routeId="239" nameZh="清泉派出所" seqNo="37" pgp="0" terminal="0" districtId="1" GoBack="1" latitude="24.24561" longitude="120.61048" inDis="50" outDis="50" oid="318241812" /><Stop Id="1604" routeId="239" nameZh="公明里" seqNo="38" pgp="0" terminal="0" districtId="1" GoBack="1" latitude="24.24655" longitude="120.60824" inDis="50" outDis="50" oid="3E8D6863D7C6417AB4B68003C95F12DE" /><Stop Id="3738" routeId="239" nameZh="樂群二村" seqNo="39" pgp="0" terminal="0" districtId="1" GoBack="1" latitude="24.24772" longitude="120.60567" inDis="50" outDis="50" oid="5D3D303824DE44588FF28F594C522805" /><Stop Id="1556" routeId="239" nameZh="中清仁愛巷口" seqNo="40" pgp="0" terminal="0" districtId="1" GoBack="1" latitude="24.24946" longitude="120.6018" inDis="50" outDis="50" oid="0032883D9F1A4E049568D5607D04A15E" /><Stop Id="4713" routeId="239" nameZh="公明國中" seqNo="41" pgp="0" terminal="0" districtId="1" GoBack="1" latitude="24.2501" longitude="120.59881" inDis="50" outDis="50" oid="310614301" /><Stop Id="4982" routeId="239" nameZh="漢翔複材中心" seqNo="42" pgp="0" terminal="0" districtId="1" GoBack="1" latitude="24.25229" longitude="120.59843" inDis="50" outDis="50" oid="306167895" /><Stop Id="0135" routeId="239" nameZh="臺中航空站" seqNo="43" pgp="0" terminal="0" districtId="1" GoBack="1" latitude="24.25348" longitude="120.59899" inDis="50" outDis="50" oid="312174380" /><Stop Id="5381" routeId="239" nameZh="西勢十巷口" seqNo="44" pgp="0" terminal="0" districtId="1" GoBack="1" latitude="24.25557" longitude="120.60003" inDis="50" outDis="50" oid="312172944" /><Stop Id="5662" routeId="239" nameZh="中航和睦路口" seqNo="45" pgp="0" terminal="0" districtId="1" GoBack="1" latitude="24.2578" longitude="120.60119" inDis="50" outDis="50" oid="317773386" /><Stop Id="4101" routeId="239" nameZh="西勢里" seqNo="46" pgp="0" terminal="0" districtId="1" GoBack="1" latitude="24.25982" longitude="120.5987" inDis="50" outDis="50" oid="317773389" /><Stop Id="4083" routeId="239" nameZh="公館國小" seqNo="47" pgp="0" terminal="0" districtId="1" GoBack="1" latitude="24.26075" longitude="120.59564" inDis="50" outDis="50" oid="10743" /><Stop Id="5033" routeId="239" nameZh="國仕加油站" seqNo="48" pgp="0" terminal="0" districtId="1" GoBack="1" latitude="24.26416" longitude="120.58787" inDis="50" outDis="50" oid="309555541" /><Stop Id="4137" routeId="239" nameZh="嘉陽高中" seqNo="49" pgp="0" terminal="0" districtId="1" GoBack="1" latitude="24.26533" longitude="120.58566" inDis="50" outDis="50" oid="10891" /><Stop Id="4119" routeId="239" nameZh="清水高中" seqNo="50" pgp="0" terminal="0" districtId="1" GoBack="1" latitude="24.26588" longitude="120.5743" inDis="50" outDis="50" oid="10845" /><Stop Id="5141" routeId="239" nameZh="華南銀行(清水分行)" seqNo="51" pgp="0" terminal="0" districtId="1" GoBack="1" latitude="24.2683" longitude="120.57516" inDis="50" outDis="50" oid="14057" /><Stop Id="3013" routeId="239" nameZh="清水" seqNo="52" pgp="0" terminal="0" districtId="1" GoBack="1" latitude="24.27125" longitude="120.57632" inDis="50" outDis="50" oid="6223" /><Stop Id="4521" routeId="239" nameZh="中山董公街口" seqNo="53" pgp="0" terminal="0" districtId="1" GoBack="1" latitude="24.27284" longitude="120.57687" inDis="50" outDis="50" oid="305513525" /><Stop Id="4442" routeId="239" nameZh="中山高美路口" seqNo="54" pgp="0" terminal="0" districtId="1" GoBack="1" latitude="24.27531" longitude="120.57725" inDis="50" outDis="50" oid="14059" /><Stop Id="4956" routeId="239" nameZh="西寧國小" seqNo="55" pgp="0" terminal="0" districtId="1" GoBack="1" latitude="24.2757" longitude="120.57505" inDis="50" outDis="50" oid="17813" /><Stop Id="5586" routeId="239" nameZh="清水龍天宮" seqNo="56" pgp="0" terminal="0" districtId="1" GoBack="1" latitude="24.27161" longitude="120.57171" inDis="50" outDis="50" oid="129901843" /><Stop Id="5587" routeId="239" nameZh="海濱中華路口" seqNo="57" pgp="0" terminal="0" districtId="1" GoBack="1" latitude="24.27184" longitude="120.56751" inDis="50" outDis="50" oid="129901845" /><Stop Id="5588" routeId="239" nameZh="華江北民享路口" seqNo="58" pgp="0" terminal="0" districtId="1" GoBack="1" latitude="24.2738" longitude="120.56548" inDis="50" outDis="50" oid="129901851" /><Stop Id="5591" routeId="239" nameZh="海濱民享路口" seqNo="59" pgp="0" terminal="0" districtId="1" GoBack="1" latitude="24.27476" longitude="120.56382" inDis="50" outDis="50" oid="129901867" /><Stop Id="0096" routeId="239" nameZh="慈濟靜思堂(海濱路)" seqNo="60" pgp="0" terminal="0" districtId="1" GoBack="1" latitude="24.27715" longitude="120.56179" inDis="50" outDis="50" oid="10648" /><Stop Id="5047" routeId="239" nameZh="上武鹿" seqNo="61" pgp="0" terminal="0" districtId="1" GoBack="1" latitude="24.27949" longitude="120.55948" inDis="50" outDis="50" oid="309863797" /><Stop Id="2476" routeId="239" nameZh="武鹿" seqNo="62" pgp="0" terminal="0" districtId="1" GoBack="1" latitude="24.27995" longitude="120.55645" inDis="50" outDis="50" oid="5934" /><Stop Id="1159" routeId="239" nameZh="下武鹿" seqNo="63" pgp="0" terminal="0" districtId="1" GoBack="1" latitude="24.27987" longitude="120.55417" inDis="50" outDis="50" oid="5127" /><Stop Id="2143" routeId="239" nameZh="竹仔寮" seqNo="64" pgp="0" terminal="0" districtId="1" GoBack="1" latitude="24.28078" longitude="120.55201" inDis="50" outDis="50" oid="5737" /><Stop Id="3143" routeId="239" nameZh="頂海濱里" seqNo="65" pgp="0" terminal="0" districtId="1" GoBack="1" latitude="24.28675" longitude="120.54703" inDis="50" outDis="50" oid="6302" /><Stop Id="2812" routeId="239" nameZh="海濱里" seqNo="66" pgp="0" terminal="0" districtId="1" GoBack="1" latitude="24.28674" longitude="120.54541" inDis="50" outDis="50" oid="6128" /><Stop Id="5063" routeId="239" nameZh="臺中港北堤" seqNo="67" pgp="0" terminal="0" districtId="1" GoBack="1" latitude="24.28838" longitude="120.53974" inDis="50" outDis="50" oid="309863813" /><Stop Id="3763" routeId="239" nameZh="賢德大樓" seqNo="68" pgp="0" terminal="0" districtId="1" GoBack="1" latitude="24.28528" longitude="120.5379" inDis="50" outDis="50" oid="6613" /><Stop Id="3729" routeId="239" nameZh="德豐大樓" seqNo="69" pgp="0" terminal="0" districtId="1" GoBack="1" latitude="24.28326" longitude="120.53703" inDis="50" outDis="50" oid="6596" /><Stop Id="2180" routeId="239" nameZh="西瓜寮" seqNo="70" pgp="0" terminal="0" districtId="1" GoBack="1" latitude="24.28169" longitude="120.53637" inDis="50" outDis="50" oid="5757" /><Stop Id="2657" routeId="239" nameZh="後營門口" seqNo="71" pgp="0" terminal="0" districtId="1" GoBack="1" latitude="24.27858" longitude="120.53504" inDis="50" outDis="50" oid="6030" /><Stop Id="2996" routeId="239" nameZh="梧棟" seqNo="72" pgp="0" terminal="0" districtId="1" GoBack="1" latitude="24.27653" longitude="120.53417" inDis="50" outDis="50" oid="6205" /><Stop Id="5066" routeId="239" nameZh="環球大樓" seqNo="73" pgp="0" terminal="0" districtId="1" GoBack="1" latitude="24.27372" longitude="120.5331" inDis="50" outDis="50" oid="309863816" /><Stop Id="5058" routeId="239" nameZh="舶來品商圈" seqNo="74" pgp="0" terminal="0" districtId="1" GoBack="1" latitude="24.27162" longitude="120.53229" inDis="50" outDis="50" oid="309863808" /><Stop Id="4397" routeId="239" nameZh="港灣技術中心" seqNo="75" pgp="0" terminal="0" districtId="1" GoBack="1" latitude="24.26981" longitude="120.53144" inDis="50" outDis="50" oid="13547" /><Stop Id="4374" routeId="239" nameZh="大智梧北路口" seqNo="76" pgp="0" terminal="0" districtId="1" GoBack="1" latitude="24.26117" longitude="120.52999" inDis="50" outDis="50" oid="13423" /><Stop Id="5057" routeId="239" nameZh="梧棲郵局" seqNo="77" pgp="0" terminal="0" districtId="1" GoBack="1" latitude="24.25757" longitude="120.52986" inDis="50" outDis="50" oid="310614304" /><Stop Id="2997" routeId="239" nameZh="梧棲(梧棲路)" seqNo="78" pgp="0" terminal="0" districtId="1" GoBack="1" latitude="24.25525" longitude="120.5291" inDis="50" outDis="50" oid="6207" /><Stop Id="2997" routeId="239" nameZh="梧棲" seqNo="1" pgp="0" terminal="0" districtId="1" GoBack="2" latitude="24.26245" longitude="120.53639" inDis="50" outDis="50" oid="6210" /><Stop Id="5057" routeId="239" nameZh="梧棲郵局" seqNo="2" pgp="0" terminal="0" districtId="1" GoBack="2" latitude="24.25757" longitude="120.52986" inDis="50" outDis="50" oid="310614304" /><Stop Id="4374" routeId="239" nameZh="大智梧北路口" seqNo="3" pgp="0" terminal="0" districtId="1" GoBack="2" latitude="24.26117" longitude="120.52999" inDis="50" outDis="50" oid="13423" /><Stop Id="4397" routeId="239" nameZh="港灣技術中心" seqNo="4" pgp="0" terminal="0" districtId="1" GoBack="2" latitude="24.26981" longitude="120.53144" inDis="50" outDis="50" oid="13547" /><Stop Id="5058" routeId="239" nameZh="舶來品商圈" seqNo="5" pgp="0" terminal="0" districtId="1" GoBack="2" latitude="24.27162" longitude="120.53229" inDis="50" outDis="50" oid="309863808" /><Stop Id="5066" routeId="239" nameZh="環球大樓" seqNo="6" pgp="0" terminal="0" districtId="1" GoBack="2" latitude="24.27372" longitude="120.5331" inDis="50" outDis="50" oid="309863816" /><Stop Id="2996" routeId="239" nameZh="梧棟" seqNo="7" pgp="0" terminal="0" districtId="1" GoBack="2" latitude="24.27653" longitude="120.53417" inDis="50" outDis="50" oid="6205" /><Stop Id="2657" routeId="239" nameZh="後營門口" seqNo="8" pgp="0" terminal="0" districtId="1" GoBack="2" latitude="24.27858" longitude="120.53504" inDis="50" outDis="50" oid="6030" /><Stop Id="2180" routeId="239" nameZh="西瓜寮" seqNo="9" pgp="0" terminal="0" districtId="1" GoBack="2" latitude="24.28169" longitude="120.53637" inDis="50" outDis="50" oid="5757" /><Stop Id="3729" routeId="239" nameZh="德豐大樓" seqNo="10" pgp="0" terminal="0" districtId="1" GoBack="2" latitude="24.28326" longitude="120.53703" inDis="50" outDis="50" oid="6596" /><Stop Id="3763" routeId="239" nameZh="賢德大樓" seqNo="11" pgp="0" terminal="0" districtId="1" GoBack="2" latitude="24.28528" longitude="120.5379" inDis="50" outDis="50" oid="6613" /><Stop Id="5063" routeId="239" nameZh="臺中港北堤" seqNo="12" pgp="0" terminal="0" districtId="1" GoBack="2" latitude="24.28838" longitude="120.53974" inDis="50" outDis="50" oid="309863813" /><Stop Id="2812" routeId="239" nameZh="海濱里" seqNo="13" pgp="0" terminal="0" districtId="1" GoBack="2" latitude="24.28674" longitude="120.54541" inDis="50" outDis="50" oid="6128" /><Stop Id="3143" routeId="239" nameZh="頂海濱里" seqNo="14" pgp="0" terminal="0" districtId="1" GoBack="2" latitude="24.28675" longitude="120.54703" inDis="50" outDis="50" oid="6302" /><Stop Id="2143" routeId="239" nameZh="竹仔寮" seqNo="15" pgp="0" terminal="0" districtId="1" GoBack="2" latitude="24.28078" longitude="120.55201" inDis="50" outDis="50" oid="5737" /><Stop Id="1159" routeId="239" nameZh="下武鹿" seqNo="16" pgp="0" terminal="0" districtId="1" GoBack="2" latitude="24.27987" longitude="120.55417" inDis="50" outDis="50" oid="5127" /><Stop Id="2476" routeId="239" nameZh="武鹿" seqNo="17" pgp="0" terminal="0" districtId="1" GoBack="2" latitude="24.27995" longitude="120.55645" inDis="50" outDis="50" oid="5934" /><Stop Id="5047" routeId="239" nameZh="上武鹿" seqNo="18" pgp="0" terminal="0" districtId="1" GoBack="2" latitude="24.27949" longitude="120.55948" inDis="50" outDis="50" oid="309863797" /><Stop Id="0096" routeId="239" nameZh="慈濟靜思堂(海濱路)" seqNo="19" pgp="0" terminal="0" districtId="1" GoBack="2" latitude="24.27715" longitude="120.56179" inDis="50" outDis="50" oid="10648" /><Stop Id="5591" routeId="239" nameZh="海濱民享路口" seqNo="20" pgp="0" terminal="0" districtId="1" GoBack="2" latitude="24.27476" longitude="120.56382" inDis="50" outDis="50" oid="129901867" /><Stop Id="5588" routeId="239" nameZh="華江北民享路口" seqNo="21" pgp="0" terminal="0" districtId="1" GoBack="2" latitude="24.2738" longitude="120.56548" inDis="50" outDis="50" oid="129901851" /><Stop Id="5587" routeId="239" nameZh="海濱中華路口" seqNo="22" pgp="0" terminal="0" districtId="1" GoBack="2" latitude="24.27184" longitude="120.56751" inDis="50" outDis="50" oid="129901845" /><Stop Id="5586" routeId="239" nameZh="清水龍天宮" seqNo="23" pgp="0" terminal="0" districtId="1" GoBack="2" latitude="24.27161" longitude="120.57171" inDis="50" outDis="50" oid="129901843" /><Stop Id="4956" routeId="239" nameZh="西寧國小" seqNo="24" pgp="0" terminal="0" districtId="1" GoBack="2" latitude="24.2757" longitude="120.57505" inDis="50" outDis="50" oid="17813" /><Stop Id="4442" routeId="239" nameZh="中山高美路口" seqNo="25" pgp="0" terminal="0" districtId="1" GoBack="2" latitude="24.27531" longitude="120.57725" inDis="50" outDis="50" oid="14059" /><Stop Id="4521" routeId="239" nameZh="中山董公街口" seqNo="26" pgp="0" terminal="0" districtId="1" GoBack="2" latitude="24.27284" longitude="120.57687" inDis="50" outDis="50" oid="305513525" /><Stop Id="3013" routeId="239" nameZh="清水" seqNo="27" pgp="0" terminal="0" districtId="1" GoBack="2" latitude="24.27125" longitude="120.57632" inDis="50" outDis="50" oid="6223" /><Stop Id="5141" routeId="239" nameZh="華南銀行(清水分行)" seqNo="28" pgp="0" terminal="0" districtId="1" GoBack="2" latitude="24.2683" longitude="120.57516" inDis="50" outDis="50" oid="14057" /><Stop Id="4119" routeId="239" nameZh="清水高中" seqNo="29" pgp="0" terminal="0" districtId="1" GoBack="2" latitude="24.26588" longitude="120.5743" inDis="50" outDis="50" oid="10845" /><Stop Id="4137" routeId="239" nameZh="嘉陽高中" seqNo="30" pgp="0" terminal="0" districtId="1" GoBack="2" latitude="24.26533" longitude="120.58566" inDis="50" outDis="50" oid="10891" /><Stop Id="5033" routeId="239" nameZh="國仕加油站" seqNo="31" pgp="0" terminal="0" districtId="1" GoBack="2" latitude="24.26416" longitude="120.58787" inDis="50" outDis="50" oid="309555541" /><Stop Id="4083" routeId="239" nameZh="公館國小" seqNo="32" pgp="0" terminal="0" districtId="1" GoBack="2" latitude="24.26075" longitude="120.59564" inDis="50" outDis="50" oid="10743" /><Stop Id="4101" routeId="239" nameZh="西勢里" seqNo="33" pgp="0" terminal="0" districtId="1" GoBack="2" latitude="24.25982" longitude="120.5987" inDis="50" outDis="50" oid="317773389" /><Stop Id="5662" routeId="239" nameZh="中航和睦路口" seqNo="34" pgp="0" terminal="0" districtId="1" GoBack="2" latitude="24.25821" longitude="120.60129" inDis="50" outDis="50" oid="317773387" /><Stop Id="5381" routeId="239" nameZh="西勢十巷口" seqNo="35" pgp="0" terminal="0" districtId="1" GoBack="2" latitude="24.25557" longitude="120.60003" inDis="50" outDis="50" oid="312172944" /><Stop Id="0135" routeId="239" nameZh="臺中航空站" seqNo="36" pgp="0" terminal="0" districtId="1" GoBack="2" latitude="24.25348" longitude="120.59899" inDis="50" outDis="50" oid="312174380" /><Stop Id="4982" routeId="239" nameZh="漢翔複材中心" seqNo="37" pgp="0" terminal="0" districtId="1" GoBack="2" latitude="24.25229" longitude="120.59843" inDis="50" outDis="50" oid="306167895" /><Stop Id="4713" routeId="239" nameZh="公明國中" seqNo="38" pgp="0" terminal="0" districtId="1" GoBack="2" latitude="24.2501" longitude="120.59881" inDis="50" outDis="50" oid="310614301" /><Stop Id="1556" routeId="239" nameZh="中清仁愛巷口" seqNo="39" pgp="0" terminal="0" districtId="1" GoBack="2" latitude="24.24946" longitude="120.6018" inDis="50" outDis="50" oid="0032883D9F1A4E049568D5607D04A15E" /><Stop Id="3738" routeId="239" nameZh="樂群二村" seqNo="40" pgp="0" terminal="0" districtId="1" GoBack="2" latitude="24.24772" longitude="120.60567" inDis="50" outDis="50" oid="5D3D303824DE44588FF28F594C522805" /><Stop Id="1604" routeId="239" nameZh="公明里" seqNo="41" pgp="0" terminal="0" districtId="1" GoBack="2" latitude="24.24655" longitude="120.60824" inDis="50" outDis="50" oid="3E8D6863D7C6417AB4B68003C95F12DE" /><Stop Id="0169" routeId="239" nameZh="清泉派出所" seqNo="42" pgp="0" terminal="0" districtId="1" GoBack="2" latitude="24.24561" longitude="120.61048" inDis="50" outDis="50" oid="318241812" /><Stop Id="3023" routeId="239" nameZh="清泉里" seqNo="43" pgp="0" terminal="0" districtId="1" GoBack="2" latitude="24.24426" longitude="120.61474" inDis="50" outDis="50" oid="D90FAB12CDBB4D5892F586D599903AD8" /><Stop Id="4669" routeId="239" nameZh="中清信義路口" seqNo="44" pgp="0" terminal="0" districtId="1" GoBack="2" latitude="24.2425" longitude="120.6204" inDis="50" outDis="50" oid="7425" /><Stop Id="3663" routeId="239" nameZh="福樂新城" seqNo="45" pgp="0" terminal="0" districtId="1" GoBack="2" latitude="24.24248" longitude="120.62673" inDis="50" outDis="50" oid="00F44A45672A4A16994A287A6E61763B" /><Stop Id="1591" routeId="239" nameZh="六張犁" seqNo="46" pgp="0" terminal="0" districtId="1" GoBack="2" latitude="24.24015" longitude="120.63124" inDis="50" outDis="50" oid="EBFADEDA761C48B5A70E45E3540BABF4" /><Stop Id="2289" routeId="239" nameZh="亞東公司" seqNo="47" pgp="0" terminal="0" districtId="1" GoBack="2" latitude="24.23905" longitude="120.63238" inDis="50" outDis="50" oid="41F45D5AF249445FAECF6D6432E2F566" /><Stop Id="1593" routeId="239" nameZh="六寶里" seqNo="48" pgp="0" terminal="0" districtId="1" GoBack="2" latitude="24.23695" longitude="120.63452" inDis="50" outDis="50" oid="5411" /><Stop Id="2798" routeId="239" nameZh="泰聯公司" seqNo="49" pgp="0" terminal="0" districtId="1" GoBack="2" latitude="24.2331" longitude="120.63847" inDis="50" outDis="50" oid="27214FDE7184410ABF972E795AF52CDC" /><Stop Id="2253" routeId="239" nameZh="秀山里" seqNo="50" pgp="0" terminal="0" districtId="1" GoBack="2" latitude="24.23084" longitude="120.64077" inDis="50" outDis="50" oid="5795" /><Stop Id="1310" routeId="239" nameZh="大明國小" seqNo="51" pgp="0" terminal="0" districtId="1" GoBack="2" latitude="24.2287" longitude="120.64281" inDis="50" outDis="50" oid="5232" /><Stop Id="5423" routeId="239" nameZh="大雅澄清醫院" seqNo="52" pgp="0" terminal="0" districtId="1" GoBack="2" latitude="24.22699" longitude="120.64457" inDis="50" outDis="50" oid="313288973" /><Stop Id="1620" routeId="239" nameZh="大雅分駐所" seqNo="53" pgp="0" terminal="0" districtId="1" GoBack="2" latitude="24.22493" longitude="120.64682" inDis="50" outDis="50" oid="6977D047141849C5BC29B7A698C9CD14" /><Stop Id="4722" routeId="239" nameZh="玉山銀行大雅分行" seqNo="54" pgp="0" terminal="0" districtId="1" GoBack="2" latitude="24.22531" longitude="120.64796" inDis="50" outDis="50" oid="306625604" /><Stop Id="1366" routeId="239" nameZh="大榮橋" seqNo="55" pgp="0" terminal="0" districtId="1" GoBack="2" latitude="24.22764" longitude="120.65112" inDis="50" outDis="50" oid="5281" /><Stop Id="3304" routeId="239" nameZh="雅洲新城" seqNo="56" pgp="0" terminal="0" districtId="1" GoBack="2" latitude="24.22915" longitude="120.65401" inDis="50" outDis="50" oid="6380" /><Stop Id="3544" routeId="239" nameZh="達聲" seqNo="57" pgp="0" terminal="0" districtId="1" GoBack="2" latitude="24.23155" longitude="120.65948" inDis="50" outDis="50" oid="6510" /><Stop Id="1204" routeId="239" nameZh="下楓樹腳" seqNo="58" pgp="0" terminal="0" districtId="1" GoBack="2" latitude="24.23335" longitude="120.66354" inDis="50" outDis="50" oid="5156" /><Stop Id="3454" routeId="239" nameZh="楓樹腳" seqNo="59" pgp="0" terminal="0" districtId="1" GoBack="2" latitude="24.23591" longitude="120.66726" inDis="50" outDis="50" oid="6471" /><Stop Id="3707" routeId="239" nameZh="億鴻新村" seqNo="60" pgp="0" terminal="0" districtId="1" GoBack="2" latitude="24.23781" longitude="120.67004" inDis="50" outDis="50" oid="6589" /><Stop Id="1733" routeId="239" nameZh="牛埔仔" seqNo="61" pgp="0" terminal="0" districtId="1" GoBack="2" latitude="24.24073" longitude="120.67445" inDis="50" outDis="50" oid="5499" /><Stop Id="4721" routeId="239" nameZh="三采幼稚園" seqNo="62" pgp="0" terminal="0" districtId="1" GoBack="2" latitude="24.24282" longitude="120.67731" inDis="50" outDis="50" oid="306625603" /><Stop Id="3103" routeId="239" nameZh="頂牛埔" seqNo="63" pgp="0" terminal="0" districtId="1" GoBack="2" latitude="24.24386" longitude="120.67895" inDis="50" outDis="50" oid="6287" /><Stop Id="2492" routeId="239" nameZh="社南廟" seqNo="64" pgp="0" terminal="0" districtId="1" GoBack="2" latitude="24.24607" longitude="120.68237" inDis="50" outDis="50" oid="5945" /><Stop Id="2486" routeId="239" nameZh="社口" seqNo="65" pgp="0" terminal="0" districtId="1" GoBack="2" latitude="24.24668" longitude="120.68563" inDis="50" outDis="50" oid="5941" /><Stop Id="2700" routeId="239" nameZh="紅瓦厝口" seqNo="66" pgp="0" terminal="0" districtId="1" GoBack="2" latitude="24.2476" longitude="120.6896" inDis="50" outDis="50" oid="6056" /><Stop Id="2993" routeId="239" nameZh="望寮" seqNo="67" pgp="0" terminal="0" districtId="1" GoBack="2" latitude="24.24841" longitude="120.69323" inDis="50" outDis="50" oid="6203" /><Stop Id="5438" routeId="239" nameZh="岸裡國小" seqNo="68" pgp="0" terminal="0" districtId="1" GoBack="2" latitude="24.2487" longitude="120.69799" inDis="50" outDis="50" oid="5237" /><Stop Id="4498" routeId="239" nameZh="臺豐社區" seqNo="69" pgp="0" terminal="0" districtId="1" GoBack="2" latitude="24.249" longitude="120.70003" inDis="50" outDis="50" oid="13826" /><Stop Id="2489" routeId="239" nameZh="社皮鐵路巷" seqNo="70" pgp="0" terminal="0" districtId="1" GoBack="2" latitude="24.24951" longitude="120.70229" inDis="50" outDis="50" oid="5943" /><Stop Id="2349" routeId="239" nameZh="忠勤新村" seqNo="71" pgp="0" terminal="0" districtId="1" GoBack="2" latitude="24.24962" longitude="120.70434" inDis="50" outDis="50" oid="5856" /><Stop Id="1065" routeId="239" nameZh="三光新村" seqNo="72" pgp="0" terminal="0" districtId="1" GoBack="2" latitude="24.24999" longitude="120.70672" inDis="50" outDis="50" oid="5072" /><Stop Id="4448" routeId="239" nameZh="中正圓環西路口" seqNo="73" pgp="0" terminal="0" districtId="1" GoBack="2" latitude="24.25039" longitude="120.70963" inDis="50" outDis="50" oid="6688" /><Stop Id="3357" routeId="239" nameZh="慈龍寺" seqNo="74" pgp="0" terminal="0" districtId="1" GoBack="2" latitude="24.25079" longitude="120.712" inDis="50" outDis="50" oid="6406" /><Stop Id="3939" routeId="239" nameZh="豐原郵局" seqNo="75" pgp="0" terminal="0" districtId="1" GoBack="2" latitude="24.25136" longitude="120.71526" inDis="50" outDis="50" oid="6698" /><Stop Id="3343" routeId="239" nameZh="媽祖廟" seqNo="76" pgp="0" terminal="0" districtId="1" GoBack="2" latitude="24.25157" longitude="120.71851" inDis="50" outDis="50" oid="6397" /><Stop Id="2309" routeId="239" nameZh="和平街" seqNo="77" pgp="0" terminal="0" districtId="1" GoBack="2" latitude="24.25233" longitude="120.71986" inDis="50" outDis="50" oid="5835" /><Stop Id="3935" routeId="239" nameZh="豐原" seqNo="78" pgp="0" terminal="0" districtId="1" GoBack="2" latitude="24.2538" longitude="120.72154" inDis="70" outDis="70" oid="6693" /></BusInfo></BusDynInfo>