<?xml version="1.0" encoding="UTF-8" standalone="yes"?>
<BusDynInfo><EssentialInfo><Location><name>TCBUS</name><CenterName>Maxwin</CenterName></Location><UpdateTime>2014-12-20 07:18:09</UpdateTime><CoordinateSystem/></EssentialInfo>
<BusInfo><Stop Id="3531" routeId="藍6區" nameZh="正英臺灣大道口" seqNo="1" pgp="0" terminal="0" districtId="1" GoBack="1" latitude="24.20961" longitude="120.58033" inDis="50" outDis="50" oid="310808454" /><Stop Id="4124" routeId="藍6區" nameZh="頂六路" seqNo="2" pgp="0" terminal="0" districtId="1" GoBack="1" latitude="24.21332" longitude="120.58114" inDis="50" outDis="50" oid="14334" /><Stop Id="4386" routeId="藍6區" nameZh="弘光科技大學" seqNo="3" pgp="0" terminal="0" districtId="1" GoBack="1" latitude="24.2166" longitude="120.5808" inDis="50" outDis="50" oid="17377" /><Stop Id="4111" routeId="藍6區" nameZh="晉江里" seqNo="4" pgp="0" terminal="0" districtId="1" GoBack="1" latitude="24.22106" longitude="120.57986" inDis="50" outDis="50" oid="17574" /><Stop Id="4062" routeId="藍6區" nameZh="下晉江" seqNo="5" pgp="0" terminal="0" districtId="1" GoBack="1" latitude="24.22326" longitude="120.57859" inDis="50" outDis="50" oid="15032" /><Stop Id="4147" routeId="藍6區" nameZh="靜宜大學" seqNo="6" pgp="0" terminal="0" districtId="1" GoBack="1" latitude="24.22623" longitude="120.57673" inDis="50" outDis="50" oid="15033" /><Stop Id="4086" routeId="藍6區" nameZh="臺灣大道北勢路口" seqNo="7" pgp="0" terminal="0" districtId="1" GoBack="1" latitude="24.23015" longitude="120.57421" inDis="50" outDis="50" oid="15167" /><Stop Id="4392" routeId="藍6區" nameZh="紅竹巷" seqNo="8" pgp="0" terminal="0" districtId="1" GoBack="1" latitude="24.23312" longitude="120.57242" inDis="50" outDis="50" oid="2275" /><Stop Id="0431" routeId="藍6區" nameZh="中山台灣大道口" seqNo="9" pgp="0" terminal="0" districtId="1" GoBack="1" latitude="24.23704" longitude="120.56892" inDis="50" outDis="50" oid="318961612" /><Stop Id="5222" routeId="藍6區" nameZh="中山鎮政路口" seqNo="10" pgp="0" terminal="0" districtId="1" GoBack="1" latitude="24.23707" longitude="120.56704" inDis="50" outDis="50" oid="318961613" /><Stop Id="4390" routeId="藍6區" nameZh="沙鹿高工(中山路)" seqNo="11" pgp="0" terminal="0" districtId="1" GoBack="1" latitude="24.23722" longitude="120.56494" inDis="50" outDis="50" oid="17454" /><Stop Id="2682" routeId="藍6區" nameZh="洛泉里" seqNo="12" pgp="0" terminal="0" districtId="1" GoBack="1" latitude="24.23768" longitude="120.56236" inDis="50" outDis="50" oid="312574878" /><Stop Id="2248" routeId="藍6區" nameZh="沙鹿站" seqNo="13" pgp="0" terminal="0" districtId="1" GoBack="1" latitude="24.23778" longitude="120.56142" inDis="50" outDis="50" oid="2280" /><Stop Id="5135" routeId="藍6區" nameZh="第一銀行(沙鹿分行)" seqNo="14" pgp="0" terminal="0" districtId="1" GoBack="1" latitude="24.23925" longitude="120.56023" inDis="50" outDis="50" oid="310808433" /><Stop Id="5140" routeId="藍6區" nameZh="童綜合醫院(沙鹿院區)" seqNo="15" pgp="0" terminal="0" districtId="1" GoBack="1" latitude="24.24245" longitude="120.56127" inDis="50" outDis="50" oid="14047" /><Stop Id="4042" routeId="藍6區" nameZh="文化莊" seqNo="16" pgp="0" terminal="0" districtId="1" GoBack="1" latitude="24.24531" longitude="120.56227" inDis="50" outDis="50" oid="15177" /><Stop Id="4110" routeId="藍6區" nameZh="家扶中心" seqNo="17" pgp="0" terminal="0" districtId="1" GoBack="1" latitude="24.2468" longitude="120.56281" inDis="50" outDis="50" oid="2284" /><Stop Id="5138" routeId="藍6區" nameZh="鹿寮成衣商圈" seqNo="18" pgp="0" terminal="0" districtId="1" GoBack="1" latitude="24.24914" longitude="120.56506" inDis="50" outDis="50" oid="318961614" /><Stop Id="4044" routeId="藍6區" nameZh="鹿寮" seqNo="19" pgp="0" terminal="0" districtId="1" GoBack="1" latitude="24.25173" longitude="120.56676" inDis="50" outDis="50" oid="17283" /><Stop Id="5392" routeId="藍6區" nameZh="中山長春路口" seqNo="20" pgp="0" terminal="0" districtId="1" GoBack="1" latitude="24.2537" longitude="120.56786" inDis="50" outDis="50" oid="312897794" /><Stop Id="4045" routeId="藍6區" nameZh="中峰" seqNo="21" pgp="0" terminal="0" districtId="1" GoBack="1" latitude="24.25529" longitude="120.56879" inDis="50" outDis="50" oid="14354" /><Stop Id="4471" routeId="藍6區" nameZh="勞工育樂中心" seqNo="22" pgp="0" terminal="0" districtId="1" GoBack="1" latitude="24.2562" longitude="120.5693" inDis="50" outDis="50" oid="14355" /><Stop Id="4129" routeId="藍6區" nameZh="鹿峰里" seqNo="23" pgp="0" terminal="0" districtId="1" GoBack="1" latitude="24.25884" longitude="120.57081" inDis="50" outDis="50" oid="17547" /><Stop Id="4441" routeId="藍6區" nameZh="中山星河路口" seqNo="24" pgp="0" terminal="0" districtId="1" GoBack="1" latitude="24.25997" longitude="120.5714" inDis="50" outDis="50" oid="307275657" /><Stop Id="4121" routeId="藍6區" nameZh="清水電信局" seqNo="25" pgp="0" terminal="0" districtId="1" GoBack="1" latitude="24.26214" longitude="120.57266" inDis="50" outDis="50" oid="17288" /><Stop Id="4119" routeId="藍6區" nameZh="清水高中" seqNo="26" pgp="0" terminal="0" districtId="1" GoBack="1" latitude="24.2658" longitude="120.5742" inDis="50" outDis="50" oid="14359" /><Stop Id="5141" routeId="藍6區" nameZh="華南銀行(清水分行)" seqNo="27" pgp="0" terminal="0" districtId="1" GoBack="1" latitude="24.26904" longitude="120.57549" inDis="50" outDis="50" oid="318961615" /><Stop Id="3013" routeId="藍6區" nameZh="清水" seqNo="28" pgp="0" terminal="0" districtId="1" GoBack="1" latitude="24.27009" longitude="120.57583" inDis="50" outDis="50" oid="6222" /></BusInfo></BusDynInfo>