<?xml version="1.0" encoding="UTF-8" standalone="yes"?>
<BusDynInfo><EssentialInfo><Location><name>TCBUS</name><CenterName>Maxwin</CenterName></Location><UpdateTime>2014-12-20 08:03:05</UpdateTime><CoordinateSystem/></EssentialInfo>
<BusInfo><Stop Id="4137" routeId="162" nameZh="嘉陽高中" seqNo="1" pgp="0" terminal="0" districtId="1" GoBack="1" latitude="24.26578" longitude="120.58224" inDis="50" outDis="50" oid="13560" /><Stop Id="5033" routeId="162" nameZh="國仕加油站" seqNo="2" pgp="0" terminal="0" districtId="1" GoBack="1" latitude="24.26416" longitude="120.58787" inDis="50" outDis="50" oid="309555541" /><Stop Id="4083" routeId="162" nameZh="公館國小" seqNo="3" pgp="0" terminal="0" districtId="1" GoBack="1" latitude="24.26084" longitude="120.59513" inDis="50" outDis="50" oid="13450" /><Stop Id="4101" routeId="162" nameZh="西勢里" seqNo="4" pgp="0" terminal="0" districtId="1" GoBack="1" latitude="24.25982" longitude="120.5987" inDis="50" outDis="50" oid="317773389" /><Stop Id="5662" routeId="162" nameZh="中航和睦路口" seqNo="5" pgp="0" terminal="0" districtId="1" GoBack="1" latitude="24.2578" longitude="120.60119" inDis="50" outDis="50" oid="317773386" /><Stop Id="5381" routeId="162" nameZh="西勢十巷口" seqNo="6" pgp="0" terminal="0" districtId="1" GoBack="1" latitude="24.25557" longitude="120.60003" inDis="50" outDis="50" oid="312172944" /><Stop Id="0135" routeId="162" nameZh="臺中航空站" seqNo="7" pgp="0" terminal="0" districtId="1" GoBack="1" latitude="24.25348" longitude="120.59899" inDis="50" outDis="50" oid="312174380" /><Stop Id="2202" routeId="162" nameZh="西勢寮" seqNo="8" pgp="0" terminal="0" districtId="1" GoBack="1" latitude="24.25027" longitude="120.59626" inDis="50" outDis="50" oid="5767" /><Stop Id="3035" routeId="162" nameZh="犁分" seqNo="11" pgp="0" terminal="0" districtId="1" GoBack="1" latitude="24.24204" longitude="120.57118" inDis="50" outDis="50" oid="319559965" /><Stop Id="4389" routeId="162" nameZh="竹林里" seqNo="12" pgp="0" terminal="0" districtId="1" GoBack="1" latitude="24.23617" longitude="120.57012" inDis="50" outDis="100" oid="13484" /><Stop Id="4392" routeId="162" nameZh="紅竹巷" seqNo="13" pgp="0" terminal="0" districtId="1" GoBack="1" latitude="24.23325" longitude="120.57198" inDis="50" outDis="100" oid="13510" /><Stop Id="4086" routeId="162" nameZh="臺灣大道北勢路口" seqNo="14" pgp="0" terminal="0" districtId="1" GoBack="1" latitude="24.2301" longitude="120.57408" inDis="50" outDis="50" oid="314838068" /><Stop Id="0498" routeId="162" nameZh="靜宜大學(英才路)" seqNo="15" pgp="0" terminal="0" districtId="1" GoBack="1" latitude="24.22699" longitude="120.57533" inDis="50" outDis="50" oid="319559959" /><Stop Id="5370" routeId="162" nameZh="英才東英路口" seqNo="16" pgp="0" terminal="0" districtId="1" GoBack="1" latitude="24.2263" longitude="120.5731" inDis="50" outDis="100" oid="311864570" /><Stop Id="4794" routeId="162" nameZh="北勢國中" seqNo="17" pgp="0" terminal="0" districtId="1" GoBack="1" latitude="24.2251" longitude="120.5692" inDis="50" outDis="100" oid="311864569" /><Stop Id="2362" routeId="162" nameZh="明泰社區" seqNo="18" pgp="0" terminal="0" districtId="1" GoBack="1" latitude="24.22861" longitude="120.56715" inDis="50" outDis="50" oid="5871" /><Stop Id="4817" routeId="162" nameZh="沙鹿區公所" seqNo="19" pgp="0" terminal="0" districtId="1" GoBack="1" latitude="24.23245" longitude="120.56548" inDis="50" outDis="50" oid="312512873" /><Stop Id="5794" routeId="162" nameZh="沙鹿國中(鎮南路)" seqNo="20" pgp="0" terminal="0" districtId="1" GoBack="1" latitude="24.23335" longitude="120.5632" inDis="50" outDis="50" oid="15264" /><Stop Id="4816" routeId="162" nameZh="沙鹿光田醫院" seqNo="21" pgp="0" terminal="0" districtId="1" GoBack="1" latitude="24.23511" longitude="120.5591" inDis="50" outDis="50" oid="15266" /><Stop Id="4815" routeId="162" nameZh="沙鹿火車站" seqNo="22" pgp="0" terminal="0" districtId="1" GoBack="1" latitude="24.23602" longitude="120.55931" inDis="50" outDis="50" oid="15238" /><Stop Id="4681" routeId="162" nameZh="沙鹿市場" seqNo="23" pgp="0" terminal="0" districtId="1" GoBack="1" latitude="24.23736" longitude="120.5597" inDis="50" outDis="50" oid="312074368" /><Stop Id="4815" routeId="162" nameZh="沙鹿火車站" seqNo="1" pgp="0" terminal="0" districtId="1" GoBack="2" latitude="24.23602" longitude="120.55931" inDis="50" outDis="50" oid="15238" /><Stop Id="4681" routeId="162" nameZh="沙鹿市場" seqNo="2" pgp="0" terminal="0" districtId="1" GoBack="2" latitude="24.23736" longitude="120.5597" inDis="50" outDis="50" oid="312074368" /><Stop Id="0289" routeId="162" nameZh="中山文昌街口" seqNo="3" pgp="0" terminal="0" districtId="1" GoBack="2" latitude="24.23762" longitude="120.56255" inDis="50" outDis="50" oid="318434399" /><Stop Id="4390" routeId="162" nameZh="沙鹿高工(中山路)" seqNo="4" pgp="0" terminal="0" districtId="1" GoBack="2" latitude="24.23731" longitude="120.56455" inDis="50" outDis="50" oid="307279327" /><Stop Id="5222" routeId="162" nameZh="中山鎮政路口" seqNo="5" pgp="0" terminal="0" districtId="1" GoBack="2" latitude="24.23698" longitude="120.56673" inDis="50" outDis="50" oid="310787750" /><Stop Id="5504" routeId="162" nameZh="沙鹿戶政事務所" seqNo="6" pgp="0" terminal="0" districtId="1" GoBack="2" latitude="24.2335" longitude="120.5659" inDis="50" outDis="50" oid="314838065" /><Stop Id="4817" routeId="162" nameZh="沙鹿區公所" seqNo="7" pgp="0" terminal="0" districtId="1" GoBack="2" latitude="24.23245" longitude="120.56548" inDis="50" outDis="50" oid="312512873" /><Stop Id="2362" routeId="162" nameZh="明泰社區" seqNo="8" pgp="0" terminal="0" districtId="1" GoBack="2" latitude="24.22861" longitude="120.56715" inDis="50" outDis="50" oid="5871" /><Stop Id="4794" routeId="162" nameZh="北勢國中" seqNo="9" pgp="0" terminal="0" districtId="1" GoBack="2" latitude="24.2251" longitude="120.5692" inDis="50" outDis="100" oid="311864569" /><Stop Id="5370" routeId="162" nameZh="英才東英路口" seqNo="10" pgp="0" terminal="0" districtId="1" GoBack="2" latitude="24.2263" longitude="120.5731" inDis="50" outDis="100" oid="311864570" /><Stop Id="0498" routeId="162" nameZh="靜宜大學(英才路)" seqNo="11" pgp="0" terminal="0" districtId="1" GoBack="2" latitude="24.22699" longitude="120.57533" inDis="50" outDis="50" oid="319559959" /><Stop Id="4086" routeId="162" nameZh="臺灣大道北勢路口" seqNo="12" pgp="0" terminal="0" districtId="1" GoBack="2" latitude="24.2301" longitude="120.57408" inDis="50" outDis="50" oid="314838068" /><Stop Id="4392" routeId="162" nameZh="紅竹巷" seqNo="13" pgp="0" terminal="0" districtId="1" GoBack="2" latitude="24.23325" longitude="120.57198" inDis="50" outDis="100" oid="13510" /><Stop Id="4389" routeId="162" nameZh="竹林里" seqNo="14" pgp="0" terminal="0" districtId="1" GoBack="2" latitude="24.23617" longitude="120.57012" inDis="50" outDis="100" oid="13484" /><Stop Id="3035" routeId="162" nameZh="犁分" seqNo="15" pgp="0" terminal="0" districtId="1" GoBack="2" latitude="24.24204" longitude="120.57118" inDis="50" outDis="50" oid="319559965" /><Stop Id="0135" routeId="162" nameZh="臺中航空站" seqNo="18" pgp="0" terminal="0" districtId="1" GoBack="2" latitude="24.25348" longitude="120.59899" inDis="50" outDis="50" oid="312174380" /><Stop Id="5381" routeId="162" nameZh="西勢十巷口" seqNo="19" pgp="0" terminal="0" districtId="1" GoBack="2" latitude="24.25557" longitude="120.60003" inDis="50" outDis="50" oid="312172944" /><Stop Id="5662" routeId="162" nameZh="中航和睦路口" seqNo="20" pgp="0" terminal="0" districtId="1" GoBack="2" latitude="24.2578" longitude="120.60119" inDis="50" outDis="50" oid="317773386" /><Stop Id="4101" routeId="162" nameZh="西勢里" seqNo="21" pgp="0" terminal="0" districtId="1" GoBack="2" latitude="24.25982" longitude="120.5987" inDis="50" outDis="50" oid="317773389" /><Stop Id="4083" routeId="162" nameZh="公館國小" seqNo="22" pgp="0" terminal="0" districtId="1" GoBack="2" latitude="24.26084" longitude="120.59513" inDis="50" outDis="50" oid="13450" /><Stop Id="5033" routeId="162" nameZh="國仕加油站" seqNo="23" pgp="0" terminal="0" districtId="1" GoBack="2" latitude="24.26416" longitude="120.58787" inDis="50" outDis="50" oid="309555541" /><Stop Id="4137" routeId="162" nameZh="嘉陽高中" seqNo="24" pgp="0" terminal="0" districtId="1" GoBack="2" latitude="24.26578" longitude="120.58224" inDis="50" outDis="50" oid="13560" /></BusInfo></BusDynInfo>