<?xml version="1.0" encoding="UTF-8" standalone="yes"?>
<BusDynInfo><EssentialInfo><Location><name>TCBUS</name><CenterName>Maxwin</CenterName></Location><UpdateTime>2014-12-20 08:25:22</UpdateTime><CoordinateSystem/></EssentialInfo>
<BusInfo><Stop Id="2428" routeId="253" nameZh="東勢" seqNo="1" pgp="0" terminal="0" districtId="1" GoBack="1" latitude="24.25742" longitude="120.82862" inDis="50" outDis="50" oid="5900" /><Stop Id="2570" routeId="253" nameZh="南平里" seqNo="2" pgp="0" terminal="0" districtId="1" GoBack="1" latitude="24.25511" longitude="120.82936" inDis="50" outDis="50" oid="5988" /><Stop Id="1415" routeId="253" nameZh="中嵙口" seqNo="3" pgp="0" terminal="0" districtId="1" GoBack="1" latitude="24.25249" longitude="120.82985" inDis="50" outDis="50" oid="5303" /><Stop Id="0108" routeId="253" nameZh="第一橫三民街口" seqNo="4" pgp="0" terminal="0" districtId="1" GoBack="1" latitude="24.2516" longitude="120.83057" inDis="50" outDis="50" oid="310787796" /><Stop Id="2795" routeId="253" nameZh="泰昌里" seqNo="5" pgp="0" terminal="0" districtId="1" GoBack="1" latitude="24.25106" longitude="120.83662" inDis="50" outDis="50" oid="6112" /><Stop Id="3334" routeId="253" nameZh="圓通精舍" seqNo="6" pgp="0" terminal="0" districtId="1" GoBack="1" latitude="24.25097" longitude="120.83947" inDis="50" outDis="50" oid="6392" /><Stop Id="5233" routeId="253" nameZh="玉山高中" seqNo="7" pgp="0" terminal="0" districtId="1" GoBack="1" latitude="24.25171" longitude="120.8423" inDis="50" outDis="50" oid="310787772" /><Stop Id="1971" routeId="253" nameZh="瓦斯中心" seqNo="8" pgp="0" terminal="0" districtId="1" GoBack="1" latitude="24.25288" longitude="120.84574" inDis="50" outDis="50" oid="5631" /><Stop Id="1414" routeId="253" nameZh="中嵙" seqNo="9" pgp="0" terminal="0" districtId="1" GoBack="1" latitude="24.25527" longitude="120.85031" inDis="50" outDis="50" oid="5301" /><Stop Id="5220" routeId="253" nameZh="大願寺" seqNo="10" pgp="0" terminal="0" districtId="1" GoBack="1" latitude="24.25867" longitude="120.85232" inDis="50" outDis="50" oid="310787746" /><Stop Id="3098" routeId="253" nameZh="頂中嵙" seqNo="11" pgp="0" terminal="0" districtId="1" GoBack="1" latitude="24.25855" longitude="120.85231" inDis="50" outDis="50" oid="6283" /><Stop Id="1211" routeId="253" nameZh="下橫龍" seqNo="13" pgp="0" terminal="0" districtId="1" GoBack="1" latitude="24.2601" longitude="120.86362" inDis="50" outDis="50" oid="5161" /><Stop Id="3784" routeId="253" nameZh="橫龍" seqNo="14" pgp="0" terminal="0" districtId="1" GoBack="1" latitude="24.25904" longitude="120.86695" inDis="50" outDis="50" oid="6624" /><Stop Id="1379" routeId="253" nameZh="大彎" seqNo="15" pgp="0" terminal="0" districtId="1" GoBack="1" latitude="24.26094" longitude="120.87059" inDis="50" outDis="50" oid="5283" /><Stop Id="3965" routeId="253" nameZh="羅厝" seqNo="16" pgp="0" terminal="0" districtId="1" GoBack="1" latitude="24.25876" longitude="120.87377" inDis="50" outDis="50" oid="6714" /><Stop Id="1739" routeId="253" nameZh="牛欄坑" seqNo="17" pgp="0" terminal="0" districtId="1" GoBack="1" latitude="24.25811" longitude="120.87613" inDis="50" outDis="50" oid="5501" /><Stop Id="5224" routeId="253" nameZh="中嵙溪" seqNo="18" pgp="0" terminal="0" districtId="1" GoBack="1" latitude="24.26027" longitude="120.88024" inDis="50" outDis="50" oid="310787754" /><Stop Id="1110" routeId="253" nameZh="下三叉坑" seqNo="19" pgp="0" terminal="0" districtId="1" GoBack="1" latitude="24.26789" longitude="120.88473" inDis="50" outDis="50" oid="5099" /><Stop Id="1057" routeId="253" nameZh="三叉坑" seqNo="20" pgp="0" terminal="0" districtId="1" GoBack="1" latitude="24.27107" longitude="120.88687" inDis="50" outDis="50" oid="5065" /><Stop Id="1585" routeId="253" nameZh="六十甲" seqNo="21" pgp="0" terminal="0" districtId="1" GoBack="1" latitude="24.27265" longitude="120.89042" inDis="50" outDis="50" oid="5402" /><Stop Id="1240" routeId="253" nameZh="上穿龍" seqNo="22" pgp="0" terminal="0" districtId="1" GoBack="1" latitude="24.27505" longitude="120.89171" inDis="50" outDis="50" oid="5185" /><Stop Id="0411" routeId="253" nameZh="穿龍橋" seqNo="23" pgp="0" terminal="0" districtId="1" GoBack="1" latitude="24.27756" longitude="120.89408" inDis="50" outDis="50" oid="318809841" /><Stop Id="2698" routeId="253" nameZh="穿龍" seqNo="26" pgp="0" terminal="0" districtId="1" GoBack="1" latitude="24.2812" longitude="120.90081" inDis="50" outDis="50" oid="6055" /><Stop Id="5208" routeId="253" nameZh="下穿龍" seqNo="27" pgp="0" terminal="0" districtId="1" GoBack="1" latitude="24.28293" longitude="120.90226" inDis="50" outDis="50" oid="310787722" /><Stop Id="4017" routeId="253" nameZh="觀音橋" seqNo="28" pgp="0" terminal="0" districtId="1" GoBack="1" latitude="24.28532" longitude="120.905" inDis="50" outDis="50" oid="6745" /><Stop Id="1217" routeId="253" nameZh="下雙崎" seqNo="29" pgp="0" terminal="0" districtId="1" GoBack="1" latitude="24.28824" longitude="120.90447" inDis="50" outDis="50" oid="5167" /><Stop Id="3954" routeId="253" nameZh="雙崎" seqNo="30" pgp="0" terminal="0" districtId="1" GoBack="1" latitude="24.2918" longitude="120.90889" inDis="50" outDis="50" oid="6708" /><Stop Id="2823" routeId="253" nameZh="烏石坑" seqNo="32" pgp="0" terminal="0" districtId="1" GoBack="1" latitude="24.29658" longitude="120.92395" inDis="50" outDis="50" oid="6133" /><Stop Id="2145" routeId="253" nameZh="竹林" seqNo="34" pgp="0" terminal="0" districtId="1" GoBack="1" latitude="24.30625" longitude="120.92435" inDis="50" outDis="50" oid="5739" /><Stop Id="1230" routeId="253" nameZh="上竹林" seqNo="35" pgp="0" terminal="0" districtId="1" GoBack="1" latitude="24.31012" longitude="120.92265" inDis="50" outDis="50" oid="5177" /><Stop Id="3969" routeId="253" nameZh="蟾蜍石" seqNo="36" pgp="0" terminal="0" districtId="1" GoBack="1" latitude="24.31592" longitude="120.92283" inDis="50" outDis="50" oid="6715" /><Stop Id="3731" routeId="253" nameZh="摩天嶺口" seqNo="37" pgp="0" terminal="0" districtId="1" GoBack="1" latitude="24.3189" longitude="120.924" inDis="50" outDis="50" oid="6599" /><Stop Id="2730" routeId="253" nameZh="香川" seqNo="38" pgp="0" terminal="0" districtId="1" GoBack="1" latitude="24.32032" longitude="120.9233" inDis="50" outDis="50" oid="6083" /><Stop Id="1207" routeId="253" nameZh="下達觀" seqNo="39" pgp="0" terminal="0" districtId="1" GoBack="1" latitude="24.32491" longitude="120.92166" inDis="50" outDis="50" oid="5158" /><Stop Id="3545" routeId="253" nameZh="達觀" seqNo="40" pgp="0" terminal="0" districtId="1" GoBack="1" latitude="24.32757" longitude="120.92009" inDis="50" outDis="50" oid="6511" /><Stop Id="2113" routeId="253" nameZh="安壁口" seqNo="42" pgp="0" terminal="0" districtId="1" GoBack="1" latitude="24.3351" longitude="120.92695" inDis="50" outDis="50" oid="5723" /><Stop Id="1244" routeId="253" nameZh="上雪山坑" seqNo="43" pgp="0" terminal="0" districtId="1" GoBack="1" latitude="24.33609" longitude="120.92842" inDis="50" outDis="50" oid="5188" /><Stop Id="3085" routeId="253" nameZh="雪山橋頭" seqNo="44" pgp="0" terminal="0" districtId="1" GoBack="1" latitude="24.33461" longitude="120.93334" inDis="50" outDis="50" oid="6277" /><Stop Id="2792" routeId="253" nameZh="桃園" seqNo="45" pgp="0" terminal="0" districtId="1" GoBack="1" latitude="24.33687" longitude="120.93412" inDis="50" outDis="50" oid="6110" /><Stop Id="3084" routeId="253" nameZh="雪山坑" seqNo="46" pgp="0" terminal="0" districtId="1" GoBack="1" latitude="24.3389" longitude="120.93452" inDis="50" outDis="50" oid="6276" /><Stop Id="5212" routeId="253" nameZh="上士林" seqNo="48" pgp="0" terminal="0" districtId="1" GoBack="1" latitude="24.34596" longitude="120.9339" inDis="50" outDis="50" oid="310787730" /><Stop Id="1266" routeId="253" nameZh="士林村" seqNo="49" pgp="0" terminal="0" districtId="1" GoBack="1" latitude="24.34462" longitude="120.92735" inDis="50" outDis="50" oid="5209" /><Stop Id="1266" routeId="253" nameZh="士林村" seqNo="1" pgp="0" terminal="0" districtId="1" GoBack="2" latitude="24.34462" longitude="120.92735" inDis="50" outDis="50" oid="5209" /><Stop Id="5212" routeId="253" nameZh="上士林" seqNo="2" pgp="0" terminal="0" districtId="1" GoBack="2" latitude="24.34596" longitude="120.9339" inDis="50" outDis="50" oid="310787730" /><Stop Id="3084" routeId="253" nameZh="雪山坑" seqNo="4" pgp="0" terminal="0" districtId="1" GoBack="2" latitude="24.3389" longitude="120.93452" inDis="50" outDis="50" oid="6276" /><Stop Id="2792" routeId="253" nameZh="桃園" seqNo="5" pgp="0" terminal="0" districtId="1" GoBack="2" latitude="24.33687" longitude="120.93412" inDis="50" outDis="50" oid="6110" /><Stop Id="3085" routeId="253" nameZh="雪山橋頭" seqNo="6" pgp="0" terminal="0" districtId="1" GoBack="2" latitude="24.33461" longitude="120.93334" inDis="50" outDis="50" oid="6277" /><Stop Id="1244" routeId="253" nameZh="上雪山坑" seqNo="7" pgp="0" terminal="0" districtId="1" GoBack="2" latitude="24.33609" longitude="120.92842" inDis="50" outDis="50" oid="5188" /><Stop Id="2113" routeId="253" nameZh="安壁口" seqNo="8" pgp="0" terminal="0" districtId="1" GoBack="2" latitude="24.3351" longitude="120.92695" inDis="50" outDis="50" oid="5723" /><Stop Id="3545" routeId="253" nameZh="達觀" seqNo="10" pgp="0" terminal="0" districtId="1" GoBack="2" latitude="24.32757" longitude="120.92009" inDis="50" outDis="50" oid="6511" /><Stop Id="1207" routeId="253" nameZh="下達觀" seqNo="11" pgp="0" terminal="0" districtId="1" GoBack="2" latitude="24.32491" longitude="120.92166" inDis="50" outDis="50" oid="5158" /><Stop Id="2730" routeId="253" nameZh="香川" seqNo="12" pgp="0" terminal="0" districtId="1" GoBack="2" latitude="24.32032" longitude="120.9233" inDis="50" outDis="50" oid="6083" /><Stop Id="3731" routeId="253" nameZh="摩天嶺口" seqNo="13" pgp="0" terminal="0" districtId="1" GoBack="2" latitude="24.3189" longitude="120.924" inDis="50" outDis="50" oid="6599" /><Stop Id="3969" routeId="253" nameZh="蟾蜍石" seqNo="14" pgp="0" terminal="0" districtId="1" GoBack="2" latitude="24.31592" longitude="120.92283" inDis="50" outDis="50" oid="6715" /><Stop Id="1230" routeId="253" nameZh="上竹林" seqNo="15" pgp="0" terminal="0" districtId="1" GoBack="2" latitude="24.31012" longitude="120.92265" inDis="50" outDis="50" oid="5177" /><Stop Id="2145" routeId="253" nameZh="竹林" seqNo="16" pgp="0" terminal="0" districtId="1" GoBack="2" latitude="24.30625" longitude="120.92435" inDis="50" outDis="50" oid="5739" /><Stop Id="2823" routeId="253" nameZh="烏石坑" seqNo="18" pgp="0" terminal="0" districtId="1" GoBack="2" latitude="24.29658" longitude="120.92395" inDis="50" outDis="50" oid="6133" /><Stop Id="3954" routeId="253" nameZh="雙崎" seqNo="20" pgp="0" terminal="0" districtId="1" GoBack="2" latitude="24.2918" longitude="120.90889" inDis="50" outDis="50" oid="6708" /><Stop Id="1217" routeId="253" nameZh="下雙崎" seqNo="21" pgp="0" terminal="0" districtId="1" GoBack="2" latitude="24.28824" longitude="120.90447" inDis="50" outDis="50" oid="5167" /><Stop Id="4017" routeId="253" nameZh="觀音橋" seqNo="22" pgp="0" terminal="0" districtId="1" GoBack="2" latitude="24.28532" longitude="120.905" inDis="50" outDis="50" oid="6745" /><Stop Id="5208" routeId="253" nameZh="下穿龍" seqNo="23" pgp="0" terminal="0" districtId="1" GoBack="2" latitude="24.28293" longitude="120.90226" inDis="50" outDis="50" oid="310787722" /><Stop Id="2698" routeId="253" nameZh="穿龍" seqNo="24" pgp="0" terminal="0" districtId="1" GoBack="2" latitude="24.2812" longitude="120.90081" inDis="50" outDis="50" oid="6055" /><Stop Id="0411" routeId="253" nameZh="穿龍橋" seqNo="27" pgp="0" terminal="0" districtId="1" GoBack="2" latitude="24.27756" longitude="120.89408" inDis="50" outDis="50" oid="318809841" /><Stop Id="1240" routeId="253" nameZh="上穿龍" seqNo="28" pgp="0" terminal="0" districtId="1" GoBack="2" latitude="24.27505" longitude="120.89171" inDis="50" outDis="50" oid="5185" /><Stop Id="1585" routeId="253" nameZh="六十甲" seqNo="29" pgp="0" terminal="0" districtId="1" GoBack="2" latitude="24.27265" longitude="120.89042" inDis="50" outDis="50" oid="5402" /><Stop Id="1057" routeId="253" nameZh="三叉坑" seqNo="30" pgp="0" terminal="0" districtId="1" GoBack="2" latitude="24.27107" longitude="120.88687" inDis="50" outDis="50" oid="5065" /><Stop Id="1110" routeId="253" nameZh="下三叉坑" seqNo="31" pgp="0" terminal="0" districtId="1" GoBack="2" latitude="24.26789" longitude="120.88473" inDis="50" outDis="50" oid="5099" /><Stop Id="5224" routeId="253" nameZh="中嵙溪" seqNo="32" pgp="0" terminal="0" districtId="1" GoBack="2" latitude="24.26027" longitude="120.88024" inDis="50" outDis="50" oid="310787754" /><Stop Id="1739" routeId="253" nameZh="牛欄坑" seqNo="33" pgp="0" terminal="0" districtId="1" GoBack="2" latitude="24.25811" longitude="120.87613" inDis="50" outDis="50" oid="5501" /><Stop Id="3965" routeId="253" nameZh="羅厝" seqNo="34" pgp="0" terminal="0" districtId="1" GoBack="2" latitude="24.25876" longitude="120.87377" inDis="50" outDis="50" oid="6714" /><Stop Id="1379" routeId="253" nameZh="大彎" seqNo="35" pgp="0" terminal="0" districtId="1" GoBack="2" latitude="24.26094" longitude="120.87059" inDis="50" outDis="50" oid="5283" /><Stop Id="3784" routeId="253" nameZh="橫龍" seqNo="36" pgp="0" terminal="0" districtId="1" GoBack="2" latitude="24.25904" longitude="120.86695" inDis="50" outDis="50" oid="6624" /><Stop Id="1211" routeId="253" nameZh="下橫龍" seqNo="37" pgp="0" terminal="0" districtId="1" GoBack="2" latitude="24.2601" longitude="120.86362" inDis="50" outDis="50" oid="5161" /><Stop Id="3098" routeId="253" nameZh="頂中嵙" seqNo="39" pgp="0" terminal="0" districtId="1" GoBack="2" latitude="24.25855" longitude="120.85231" inDis="50" outDis="50" oid="6283" /><Stop Id="5220" routeId="253" nameZh="大願寺" seqNo="40" pgp="0" terminal="0" districtId="1" GoBack="2" latitude="24.25867" longitude="120.85232" inDis="50" outDis="50" oid="310787746" /><Stop Id="1414" routeId="253" nameZh="中嵙" seqNo="41" pgp="0" terminal="0" districtId="1" GoBack="2" latitude="24.25527" longitude="120.85031" inDis="50" outDis="50" oid="5301" /><Stop Id="1971" routeId="253" nameZh="瓦斯中心" seqNo="42" pgp="0" terminal="0" districtId="1" GoBack="2" latitude="24.25288" longitude="120.84574" inDis="50" outDis="50" oid="5631" /><Stop Id="5233" routeId="253" nameZh="玉山高中" seqNo="43" pgp="0" terminal="0" districtId="1" GoBack="2" latitude="24.25171" longitude="120.8423" inDis="50" outDis="50" oid="310787772" /><Stop Id="3334" routeId="253" nameZh="圓通精舍" seqNo="44" pgp="0" terminal="0" districtId="1" GoBack="2" latitude="24.25097" longitude="120.83947" inDis="50" outDis="50" oid="6392" /><Stop Id="2795" routeId="253" nameZh="泰昌里" seqNo="45" pgp="0" terminal="0" districtId="1" GoBack="2" latitude="24.25106" longitude="120.83662" inDis="50" outDis="50" oid="6112" /><Stop Id="1415" routeId="253" nameZh="中嵙口" seqNo="46" pgp="0" terminal="0" districtId="1" GoBack="2" latitude="24.25249" longitude="120.82985" inDis="50" outDis="50" oid="5303" /><Stop Id="2570" routeId="253" nameZh="南平里" seqNo="47" pgp="0" terminal="0" districtId="1" GoBack="2" latitude="24.25511" longitude="120.82936" inDis="50" outDis="50" oid="5988" /><Stop Id="2428" routeId="253" nameZh="東勢" seqNo="48" pgp="0" terminal="0" districtId="1" GoBack="2" latitude="24.25742" longitude="120.82862" inDis="50" outDis="50" oid="5900" /></BusInfo></BusDynInfo>