<?xml version="1.0" encoding="UTF-8" standalone="yes"?>
<BusDynInfo><EssentialInfo><Location><name>TCBUS</name><CenterName>Maxwin</CenterName></Location><UpdateTime>2014-12-20 08:01:44</UpdateTime><CoordinateSystem/></EssentialInfo>
<BusInfo><Stop Id="5486" routeId="158" nameZh="高鐵臺中站(14月台)" seqNo="1" pgp="0" terminal="0" districtId="1" GoBack="1" latitude="24.10974" longitude="120.62008" inDis="150" outDis="150" oid="314581888" /><Stop Id="4176" routeId="158" nameZh="光日站" seqNo="2" pgp="0" terminal="0" districtId="1" GoBack="1" latitude="24.1088" longitude="120.62663" inDis="50" outDis="50" oid="129833955" /><Stop Id="5379" routeId="158" nameZh="九德(建國路)" seqNo="3" pgp="0" terminal="0" districtId="1" GoBack="1" latitude="24.11078" longitude="120.63425" inDis="50" outDis="50" oid="312026957" /><Stop Id="0132" routeId="158" nameZh="大慶火車站" seqNo="4" pgp="0" terminal="0" districtId="1" GoBack="1" latitude="24.11913" longitude="120.64784" inDis="50" outDis="50" oid="A7B7EB56349D4701963C3057A95E4DE9" /><Stop Id="5166" routeId="158" nameZh="中山醫學大學(建國北路)" seqNo="5" pgp="0" terminal="0" districtId="1" GoBack="1" latitude="24.12166" longitude="120.65184" inDis="75" outDis="75" oid="10950" /><Stop Id="5073" routeId="158" nameZh="崇倫" seqNo="6" pgp="0" terminal="0" districtId="1" GoBack="1" latitude="24.12465" longitude="120.65658" inDis="50" outDis="50" oid="310187786" /><Stop Id="5523" routeId="158" nameZh="民興公園(執行分署)" seqNo="7" pgp="0" terminal="0" districtId="1" GoBack="1" latitude="24.12826" longitude="120.66465" inDis="50" outDis="50" oid="315884475" /><Stop Id="5661" routeId="158" nameZh="公館(三民路)" seqNo="8" pgp="0" terminal="0" districtId="1" GoBack="1" latitude="24.1329" longitude="120.66961" inDis="50" outDis="50" oid="C78046F3FF1E4164B7AFEBEDB87A98FA" /><Stop Id="0673" routeId="158" nameZh="三民林森路口" seqNo="9" pgp="0" terminal="0" districtId="1" GoBack="1" latitude="24.13556" longitude="120.67248" inDis="50" outDis="50" oid="10388" /><Stop Id="0210" routeId="158" nameZh="忠孝國小" seqNo="10" pgp="0" terminal="0" districtId="1" GoBack="1" latitude="24.13723" longitude="120.67406" inDis="50" outDis="50" oid="BDA20E5509C64110B298E9D9E91B449B" /><Stop Id="0209" routeId="158" nameZh="臺中科大民生校區" seqNo="11" pgp="0" terminal="0" districtId="1" GoBack="1" latitude="24.139" longitude="120.67604" inDis="50" outDis="50" oid="10382" /><Stop Id="5026" routeId="158" nameZh="美榮藥局" seqNo="12" pgp="0" terminal="0" districtId="1" GoBack="1" latitude="24.14122" longitude="120.67829" inDis="50" outDis="50" oid="316849930" /><Stop Id="5506" routeId="158" nameZh="光復國小(三民路)" seqNo="13" pgp="0" terminal="0" districtId="1" GoBack="1" latitude="24.14353" longitude="120.68069" inDis="50" outDis="50" oid="316849932" /><Stop Id="5467" routeId="158" nameZh="臺中公園(公園路)" seqNo="14" pgp="0" terminal="0" districtId="1" GoBack="1" latitude="24.14382" longitude="120.68254" inDis="50" outDis="50" oid="314169247" /><Stop Id="5670" routeId="158" nameZh="公園自由路口" seqNo="15" pgp="0" terminal="0" districtId="1" GoBack="1" latitude="24.14266" longitude="120.68391" inDis="50" outDis="50" oid="0C52D3825CBE4E0EB12890BEE2862FE2" /><Stop Id="0402" routeId="158" nameZh="干城站" seqNo="16" pgp="0" terminal="0" districtId="1" GoBack="1" latitude="24.142" longitude="120.68581" inDis="50" outDis="50" oid="3608" /><Stop Id="0443" routeId="158" nameZh="仁友東站" seqNo="17" pgp="0" terminal="0" districtId="1" GoBack="1" latitude="24.13906" longitude="120.68454" inDis="50" outDis="50" oid="DB645841DD934C0396804255B3C83D46" /><Stop Id="0049" routeId="158" nameZh="第三市場(臺中家商)" seqNo="18" pgp="0" terminal="0" districtId="1" GoBack="1" latitude="24.13277" longitude="120.68384" inDis="50" outDis="50" oid="5419CC18BB5E43B8971EAAAB96823457" /><Stop Id="0257" routeId="158" nameZh="臺中國小" seqNo="19" pgp="0" terminal="0" districtId="1" GoBack="1" latitude="24.13037" longitude="120.6851" inDis="50" outDis="50" oid="A01E727DB823459BBD9A7DBB427E9A21" /><Stop Id="5607" routeId="158" nameZh="興大附農(臺中路)" seqNo="20" pgp="0" terminal="0" districtId="1" GoBack="1" latitude="24.12749" longitude="120.6844" inDis="50" outDis="50" oid="7955" /><Stop Id="0255" routeId="158" nameZh="南門仔" seqNo="21" pgp="0" terminal="0" districtId="1" GoBack="1" latitude="24.12568" longitude="120.68406" inDis="50" outDis="50" oid="7152" /><Stop Id="0254" routeId="158" nameZh="明德高中" seqNo="22" pgp="0" terminal="0" districtId="1" GoBack="1" latitude="24.12273" longitude="120.68419" inDis="50" outDis="50" oid="7119" /><Stop Id="5598" routeId="158" nameZh="興大二村" seqNo="23" pgp="0" terminal="0" districtId="1" GoBack="1" latitude="24.12244" longitude="120.68177" inDis="50" outDis="50" oid="316849938" /><Stop Id="4347" routeId="158" nameZh="中興大學(國光路)" seqNo="24" pgp="0" terminal="0" districtId="1" GoBack="1" latitude="24.12133" longitude="120.6794" inDis="50" outDis="50" oid="DE2C6BA3BE8942E79BA0CABF1CF65AE0" /><Stop Id="4292" routeId="158" nameZh="國光忠明南路口" seqNo="25" pgp="0" terminal="0" districtId="1" GoBack="1" latitude="24.1183" longitude="120.67915" inDis="50" outDis="50" oid="13206" /><Stop Id="2930" routeId="158" nameZh="國光橋" seqNo="26" pgp="0" terminal="0" districtId="1" GoBack="1" latitude="24.11585" longitude="120.67918" inDis="50" outDis="50" oid="13216" /><Stop Id="4293" routeId="158" nameZh="國光東興路口" seqNo="27" pgp="0" terminal="0" districtId="1" GoBack="1" latitude="24.11363" longitude="120.67894" inDis="50" outDis="50" oid="13208" /><Stop Id="1558" routeId="158" nameZh="大里仁愛醫院(東榮路)" seqNo="28" pgp="0" terminal="0" districtId="1" GoBack="1" latitude="24.10967" longitude="120.67988" inDis="50" outDis="50" oid="320470414" /><Stop Id="5627" routeId="158" nameZh="興大附中(東榮路)" seqNo="29" pgp="0" terminal="0" districtId="1" GoBack="1" latitude="24.11007" longitude="120.68344" inDis="50" outDis="50" oid="318373326" /><Stop Id="5074" routeId="158" nameZh="大里地政事務所" seqNo="30" pgp="0" terminal="0" districtId="1" GoBack="1" latitude="24.11039" longitude="120.68565" inDis="50" outDis="50" oid="310187787" /><Stop Id="4919" routeId="158" nameZh="大里公園" seqNo="31" pgp="0" terminal="0" districtId="1" GoBack="1" latitude="24.1102" longitude="120.68799" inDis="50" outDis="50" oid="308386882" /><Stop Id="1363" routeId="158" nameZh="中興大里路口" seqNo="32" pgp="0" terminal="0" districtId="1" GoBack="1" latitude="24.1087" longitude="120.69001" inDis="50" outDis="50" oid="5278" /><Stop Id="2026" routeId="158" nameZh="立人高中" seqNo="33" pgp="0" terminal="0" districtId="1" GoBack="1" latitude="24.10584" longitude="120.68941" inDis="50" outDis="50" oid="7054" /><Stop Id="1126" routeId="158" nameZh="下內新" seqNo="34" pgp="0" terminal="0" districtId="1" GoBack="1" latitude="24.10257" longitude="120.68864" inDis="50" outDis="50" oid="7202" /><Stop Id="5151" routeId="158" nameZh="兒童藝術館(中興路)" seqNo="35" pgp="0" terminal="0" districtId="1" GoBack="1" latitude="24.10002" longitude="120.6879" inDis="50" outDis="50" oid="12580" /><Stop Id="1322" routeId="158" nameZh="大突寮(中興路)" seqNo="36" pgp="0" terminal="0" districtId="1" GoBack="1" latitude="24.09735" longitude="120.68694" inDis="50" outDis="50" oid="309974047" /><Stop Id="4950" routeId="158" nameZh="仁化中興路口" seqNo="37" pgp="0" terminal="0" districtId="1" GoBack="1" latitude="24.09196" longitude="120.69139" inDis="50" outDis="50" oid="304725405" /><Stop Id="5017" routeId="158" nameZh="仁化至善路口" seqNo="38" pgp="0" terminal="0" districtId="1" GoBack="1" latitude="24.09601" longitude="120.69546" inDis="50" outDis="50" oid="309414101" /><Stop Id="5016" routeId="158" nameZh="仁化慈德路口" seqNo="39" pgp="0" terminal="0" districtId="1" GoBack="1" latitude="24.0966" longitude="120.69865" inDis="50" outDis="50" oid="304725409" /><Stop Id="4420" routeId="158" nameZh="仁化里" seqNo="40" pgp="0" terminal="0" districtId="1" GoBack="1" latitude="24.09626" longitude="120.70088" inDis="50" outDis="50" oid="304725411" /><Stop Id="5015" routeId="158" nameZh="仁化仁愛路口" seqNo="41" pgp="0" terminal="0" districtId="1" GoBack="1" latitude="24.09605" longitude="120.70345" inDis="50" outDis="50" oid="304725414" /><Stop Id="5014" routeId="158" nameZh="仁化仁城路口" seqNo="42" pgp="0" terminal="0" districtId="1" GoBack="1" latitude="24.09522" longitude="120.707" inDis="50" outDis="50" oid="309414094" /><Stop Id="5346" routeId="158" nameZh="百姓公廟" seqNo="43" pgp="0" terminal="0" districtId="1" GoBack="1" latitude="24.09441" longitude="120.70962" inDis="50" outDis="50" oid="314009843" /><Stop Id="2733" routeId="158" nameZh="修平科技大學" seqNo="44" pgp="0" terminal="0" districtId="1" GoBack="1" latitude="24.09515" longitude="120.71392" inDis="50" outDis="50" oid="6086" /><Stop Id="2282" routeId="158" nameZh="車站前" seqNo="45" pgp="0" terminal="0" districtId="1" GoBack="1" latitude="24.09463" longitude="120.7158" inDis="50" outDis="50" oid="5811" /><Stop Id="2525" routeId="158" nameZh="金田公司" seqNo="46" pgp="0" terminal="0" districtId="1" GoBack="1" latitude="24.09414" longitude="120.7192" inDis="60" outDis="80" oid="5959" /><Stop Id="4422" routeId="158" nameZh="和大公司" seqNo="47" pgp="0" terminal="0" districtId="1" GoBack="1" latitude="24.09251" longitude="120.72154" inDis="60" outDis="80" oid="304725416" /><Stop Id="4423" routeId="158" nameZh="大愛一村" seqNo="48" pgp="0" terminal="0" districtId="1" GoBack="1" latitude="24.09138" longitude="120.72804" inDis="60" outDis="80" oid="304725418" /><Stop Id="2913" routeId="158" nameZh="健民國小" seqNo="49" pgp="0" terminal="0" districtId="1" GoBack="1" latitude="24.08973" longitude="120.72777" inDis="50" outDis="50" oid="6172" /><Stop Id="4724" routeId="158" nameZh="吉峰國小" seqNo="50" pgp="0" terminal="0" districtId="1" GoBack="1" latitude="24.07966" longitude="120.71841" inDis="50" outDis="50" oid="306640244" /><Stop Id="4725" routeId="158" nameZh="桐林里" seqNo="51" pgp="0" terminal="0" districtId="1" GoBack="1" latitude="24.07764" longitude="120.71704" inDis="50" outDis="50" oid="306640245" /><Stop Id="2059" routeId="158" nameZh="吉峰里" seqNo="52" pgp="0" terminal="0" districtId="1" GoBack="1" latitude="24.07616" longitude="120.71493" inDis="50" outDis="50" oid="306640246" /><Stop Id="2060" routeId="158" nameZh="吉峰東路口" seqNo="53" pgp="0" terminal="0" districtId="1" GoBack="1" latitude="24.07505" longitude="120.71458" inDis="50" outDis="50" oid="306640247" /><Stop Id="3246" routeId="158" nameZh="朝陽科技大學" seqNo="54" pgp="0" terminal="0" districtId="1" GoBack="1" latitude="24.07041" longitude="120.71551" inDis="50" outDis="50" oid="7481" /><Stop Id="3246" routeId="158" nameZh="朝陽科技大學" seqNo="1" pgp="0" terminal="0" districtId="1" GoBack="2" latitude="24.07041" longitude="120.71551" inDis="50" outDis="50" oid="7481" /><Stop Id="2060" routeId="158" nameZh="吉峰東路口" seqNo="2" pgp="0" terminal="0" districtId="1" GoBack="2" latitude="24.07505" longitude="120.71458" inDis="50" outDis="50" oid="306640247" /><Stop Id="2059" routeId="158" nameZh="吉峰里" seqNo="3" pgp="0" terminal="0" districtId="1" GoBack="2" latitude="24.07616" longitude="120.71493" inDis="50" outDis="50" oid="306640246" /><Stop Id="4725" routeId="158" nameZh="桐林里" seqNo="4" pgp="0" terminal="0" districtId="1" GoBack="2" latitude="24.07764" longitude="120.71704" inDis="50" outDis="50" oid="306640245" /><Stop Id="4724" routeId="158" nameZh="吉峰國小" seqNo="5" pgp="0" terminal="0" districtId="1" GoBack="2" latitude="24.07966" longitude="120.71841" inDis="50" outDis="50" oid="306640244" /><Stop Id="2913" routeId="158" nameZh="健民國小" seqNo="6" pgp="0" terminal="0" districtId="1" GoBack="2" latitude="24.08973" longitude="120.72777" inDis="50" outDis="50" oid="6172" /><Stop Id="4423" routeId="158" nameZh="大愛一村" seqNo="7" pgp="0" terminal="0" districtId="1" GoBack="2" latitude="24.09145" longitude="120.72791" inDis="50" outDis="50" oid="304725419" /><Stop Id="4422" routeId="158" nameZh="和大公司" seqNo="8" pgp="0" terminal="0" districtId="1" GoBack="2" latitude="24.09263" longitude="120.72144" inDis="50" outDis="50" oid="304725417" /><Stop Id="2525" routeId="158" nameZh="金田公司" seqNo="9" pgp="0" terminal="0" districtId="1" GoBack="2" latitude="24.09414" longitude="120.7192" inDis="60" outDis="80" oid="5959" /><Stop Id="2282" routeId="158" nameZh="車站前" seqNo="10" pgp="0" terminal="0" districtId="1" GoBack="2" latitude="24.09463" longitude="120.7158" inDis="50" outDis="50" oid="5811" /><Stop Id="2733" routeId="158" nameZh="修平科技大學" seqNo="11" pgp="0" terminal="0" districtId="1" GoBack="2" latitude="24.09507" longitude="120.71377" inDis="50" outDis="50" oid="6087" /><Stop Id="5346" routeId="158" nameZh="百姓公廟" seqNo="12" pgp="0" terminal="0" districtId="1" GoBack="2" latitude="24.09441" longitude="120.70962" inDis="50" outDis="50" oid="314009843" /><Stop Id="5014" routeId="158" nameZh="仁化仁城路口" seqNo="13" pgp="0" terminal="0" districtId="1" GoBack="2" latitude="24.09526" longitude="120.70684" inDis="50" outDis="50" oid="309414095" /><Stop Id="5015" routeId="158" nameZh="仁化仁愛路口" seqNo="14" pgp="0" terminal="0" districtId="1" GoBack="2" latitude="24.09605" longitude="120.70345" inDis="50" outDis="50" oid="304725415" /><Stop Id="4420" routeId="158" nameZh="仁化里" seqNo="15" pgp="0" terminal="0" districtId="1" GoBack="2" latitude="24.09626" longitude="120.70088" inDis="50" outDis="50" oid="304725412" /><Stop Id="5016" routeId="158" nameZh="仁化慈德路口" seqNo="16" pgp="0" terminal="0" districtId="1" GoBack="2" latitude="24.0966" longitude="120.69865" inDis="50" outDis="50" oid="304725410" /><Stop Id="5017" routeId="158" nameZh="仁化至善路口" seqNo="17" pgp="0" terminal="0" districtId="1" GoBack="2" latitude="24.09634" longitude="120.69558" inDis="50" outDis="50" oid="309414100" /><Stop Id="4950" routeId="158" nameZh="仁化中興路口" seqNo="18" pgp="0" terminal="0" districtId="1" GoBack="2" latitude="24.09201" longitude="120.69132" inDis="50" outDis="50" oid="304725406" /><Stop Id="1322" routeId="158" nameZh="大突寮(中興路)" seqNo="19" pgp="0" terminal="0" districtId="1" GoBack="2" latitude="24.09735" longitude="120.68694" inDis="50" outDis="50" oid="309974047" /><Stop Id="5151" routeId="158" nameZh="兒童藝術館(中興路)" seqNo="20" pgp="0" terminal="0" districtId="1" GoBack="2" latitude="24.10002" longitude="120.6879" inDis="50" outDis="50" oid="12581" /><Stop Id="1126" routeId="158" nameZh="下內新" seqNo="21" pgp="0" terminal="0" districtId="1" GoBack="2" latitude="24.10271" longitude="120.68844" inDis="50" outDis="50" oid="12471" /><Stop Id="2026" routeId="158" nameZh="立人高中" seqNo="22" pgp="0" terminal="0" districtId="1" GoBack="2" latitude="24.10584" longitude="120.68941" inDis="50" outDis="50" oid="7053" /><Stop Id="1363" routeId="158" nameZh="中興大里路口" seqNo="23" pgp="0" terminal="0" districtId="1" GoBack="2" latitude="24.1087" longitude="120.69001" inDis="50" outDis="50" oid="5278" /><Stop Id="4919" routeId="158" nameZh="大里公園" seqNo="24" pgp="0" terminal="0" districtId="1" GoBack="2" latitude="24.11028" longitude="120.68735" inDis="50" outDis="50" oid="308386883" /><Stop Id="5074" routeId="158" nameZh="大里地政事務所" seqNo="25" pgp="0" terminal="0" districtId="1" GoBack="2" latitude="24.11039" longitude="120.68565" inDis="50" outDis="50" oid="310187787" /><Stop Id="5627" routeId="158" nameZh="興大附中(東榮路)" seqNo="26" pgp="0" terminal="0" districtId="1" GoBack="2" latitude="24.11007" longitude="120.68344" inDis="50" outDis="50" oid="139064871" /><Stop Id="1558" routeId="158" nameZh="大里仁愛醫院(國光路)" seqNo="27" pgp="0" terminal="0" districtId="1" GoBack="2" latitude="24.10967" longitude="120.67988" inDis="50" outDis="50" oid="320470413" /><Stop Id="4293" routeId="158" nameZh="國光東興路口" seqNo="28" pgp="0" terminal="0" districtId="1" GoBack="2" latitude="24.11363" longitude="120.67894" inDis="50" outDis="50" oid="13208" /><Stop Id="2930" routeId="158" nameZh="國光橋" seqNo="29" pgp="0" terminal="0" districtId="1" GoBack="2" latitude="24.11588" longitude="120.67947" inDis="50" outDis="50" oid="13215" /><Stop Id="4292" routeId="158" nameZh="國光忠明南路口" seqNo="30" pgp="0" terminal="0" districtId="1" GoBack="2" latitude="24.1183" longitude="120.67915" inDis="50" outDis="50" oid="13206" /><Stop Id="4347" routeId="158" nameZh="中興大學(國光路)" seqNo="31" pgp="0" terminal="0" districtId="1" GoBack="2" latitude="24.12135" longitude="120.67925" inDis="50" outDis="50" oid="FFADDB58C7DD4E5C9DF0726DEE651794" /><Stop Id="5598" routeId="158" nameZh="興大二村" seqNo="32" pgp="0" terminal="0" districtId="1" GoBack="2" latitude="24.12243" longitude="120.68138" inDis="50" outDis="50" oid="316849939" /><Stop Id="5111" routeId="158" nameZh="明德高中(南門路)" seqNo="33" pgp="0" terminal="0" districtId="1" GoBack="2" latitude="24.12239" longitude="120.68374" inDis="50" outDis="50" oid="98471333AD524EAE9801EF0E854581C6" /><Stop Id="0255" routeId="158" nameZh="南門仔" seqNo="34" pgp="0" terminal="0" districtId="1" GoBack="2" latitude="24.12529" longitude="120.68425" inDis="50" outDis="50" oid="12392" /><Stop Id="5607" routeId="158" nameZh="興大附農(臺中路)" seqNo="35" pgp="0" terminal="0" districtId="1" GoBack="2" latitude="24.12749" longitude="120.6844" inDis="50" outDis="50" oid="7955" /><Stop Id="0257" routeId="158" nameZh="臺中國小" seqNo="36" pgp="0" terminal="0" districtId="1" GoBack="2" latitude="24.13029" longitude="120.68506" inDis="50" outDis="50" oid="7007" /><Stop Id="0049" routeId="158" nameZh="第三市場(臺中家商)" seqNo="37" pgp="0" terminal="0" districtId="1" GoBack="2" latitude="24.13276" longitude="120.68367" inDis="50" outDis="50" oid="969084170705431BB407E5ECA8016ECC" /><Stop Id="5596" routeId="158" nameZh="綠川西站(民權路口)" seqNo="38" pgp="0" terminal="0" districtId="1" GoBack="2" latitude="24.13695" longitude="120.68207" inDis="50" outDis="50" oid="316849936" /><Stop Id="5595" routeId="158" nameZh="綠川西站(臺灣大道口)" seqNo="39" pgp="0" terminal="0" districtId="1" GoBack="2" latitude="24.13815" longitude="120.68328" inDis="50" outDis="50" oid="316849935" /><Stop Id="0402" routeId="158" nameZh="干城站" seqNo="40" pgp="0" terminal="0" districtId="1" GoBack="2" latitude="24.14094" longitude="120.68605" inDis="75" outDis="75" oid="10942" /><Stop Id="5594" routeId="158" nameZh="臺中公園(自由路)" seqNo="41" pgp="0" terminal="0" districtId="1" GoBack="2" latitude="24.14323" longitude="120.68565" inDis="50" outDis="50" oid="316849934" /><Stop Id="5670" routeId="158" nameZh="公園自由路口" seqNo="42" pgp="0" terminal="0" districtId="1" GoBack="2" latitude="24.14276" longitude="120.68397" inDis="50" outDis="50" oid="A1270307EAAA46CA8AE79551C5040FC3" /><Stop Id="5506" routeId="158" nameZh="光復國小(三民路)" seqNo="43" pgp="0" terminal="0" districtId="1" GoBack="2" latitude="24.14419" longitude="120.68135" inDis="50" outDis="50" oid="316849933" /><Stop Id="4609" routeId="158" nameZh="第二市場(三民路)" seqNo="44" pgp="0" terminal="0" districtId="1" GoBack="2" latitude="24.14268" longitude="120.68" inDis="50" outDis="50" oid="EE17AB29EF464F9CA084E8425184F6ED" /><Stop Id="5026" routeId="158" nameZh="美榮藥局" seqNo="45" pgp="0" terminal="0" districtId="1" GoBack="2" latitude="24.14158" longitude="120.67865" inDis="50" outDis="50" oid="316849931" /><Stop Id="0209" routeId="158" nameZh="臺中科大民生校區" seqNo="46" pgp="0" terminal="0" districtId="1" GoBack="2" latitude="24.139" longitude="120.67604" inDis="50" outDis="50" oid="10382" /><Stop Id="0210" routeId="158" nameZh="忠孝國小" seqNo="47" pgp="0" terminal="0" districtId="1" GoBack="2" latitude="24.13709" longitude="120.67409" inDis="50" outDis="50" oid="01E74E872FA34A7AB6ABB29605545998" /><Stop Id="0673" routeId="158" nameZh="三民林森路口" seqNo="48" pgp="0" terminal="0" districtId="1" GoBack="2" latitude="24.13556" longitude="120.67248" inDis="50" outDis="50" oid="10388" /><Stop Id="5661" routeId="158" nameZh="公館(三民路)" seqNo="49" pgp="0" terminal="0" districtId="1" GoBack="2" latitude="24.13271" longitude="120.6696" inDis="50" outDis="50" oid="AB4F06E191E6479BB278EF729F5E33A8" /><Stop Id="5523" routeId="158" nameZh="民興公園(執行分署)" seqNo="50" pgp="0" terminal="0" districtId="1" GoBack="2" latitude="24.12826" longitude="120.66465" inDis="50" outDis="50" oid="315884475" /><Stop Id="5073" routeId="158" nameZh="崇倫" seqNo="51" pgp="0" terminal="0" districtId="1" GoBack="2" latitude="24.12465" longitude="120.65658" inDis="50" outDis="50" oid="310187786" /><Stop Id="5166" routeId="158" nameZh="中山醫學大學(建國北路)" seqNo="52" pgp="0" terminal="0" districtId="1" GoBack="2" latitude="24.12145" longitude="120.65216" inDis="75" outDis="75" oid="10951" /><Stop Id="0132" routeId="158" nameZh="大慶火車站" seqNo="53" pgp="0" terminal="0" districtId="1" GoBack="2" latitude="24.11913" longitude="120.64784" inDis="50" outDis="50" oid="A7B7EB56349D4701963C3057A95E4DE9" /><Stop Id="5379" routeId="158" nameZh="九德(建國路)" seqNo="54" pgp="0" terminal="0" districtId="1" GoBack="2" latitude="24.11078" longitude="120.63425" inDis="50" outDis="50" oid="312026957" /><Stop Id="4176" routeId="158" nameZh="光日站" seqNo="55" pgp="0" terminal="0" districtId="1" GoBack="2" latitude="24.1086" longitude="120.62606" inDis="50" outDis="50" oid="129833958" /><Stop Id="2907" routeId="158" nameZh="高鐵台中站(10月台)" seqNo="56" pgp="0" terminal="0" districtId="1" GoBack="2" latitude="24.11117" longitude="120.61872" inDis="50" outDis="50" oid="310692259" /></BusInfo></BusDynInfo>