<?xml version="1.0" encoding="UTF-8" standalone="yes"?>
<BusDynInfo><EssentialInfo><Location><name>TCBUS</name><CenterName>Maxwin</CenterName></Location><UpdateTime>2014-12-20 07:50:55</UpdateTime><CoordinateSystem/></EssentialInfo>
<BusInfo><Stop Id="3062" routeId="98" nameZh="庄尾" seqNo="1" pgp="0" terminal="0" districtId="1" GoBack="1" latitude="24.28459" longitude="120.64462" inDis="50" outDis="50" oid="6262" /><Stop Id="3418" routeId="98" nameZh="新庄車庫" seqNo="2" pgp="0" terminal="0" districtId="1" GoBack="1" latitude="24.28102" longitude="120.65244" inDis="50" outDis="50" oid="6446" /><Stop Id="3415" routeId="98" nameZh="新庄" seqNo="3" pgp="0" terminal="0" districtId="1" GoBack="1" latitude="24.28071" longitude="120.65311" inDis="50" outDis="50" oid="12268" /><Stop Id="3660" routeId="98" nameZh="福德祠" seqNo="4" pgp="0" terminal="0" districtId="1" GoBack="1" latitude="24.27887" longitude="120.6566" inDis="50" outDis="50" oid="6556" /><Stop Id="3121" routeId="98" nameZh="頂車站" seqNo="5" pgp="0" terminal="0" districtId="1" GoBack="1" latitude="24.27418" longitude="120.65903" inDis="50" outDis="50" oid="6295" /><Stop Id="5378" routeId="98" nameZh="圳堵三民橋頭" seqNo="6" pgp="0" terminal="0" districtId="1" GoBack="1" latitude="24.27179" longitude="120.66033" inDis="50" outDis="50" oid="311929348" /><Stop Id="5022" routeId="98" nameZh="三民路口" seqNo="7" pgp="0" terminal="0" districtId="1" GoBack="1" latitude="24.27047" longitude="120.66054" inDis="50" outDis="50" oid="309414110" /><Stop Id="5023" routeId="98" nameZh="圳前活動中心" seqNo="8" pgp="0" terminal="0" districtId="1" GoBack="1" latitude="24.26694" longitude="120.65851" inDis="50" outDis="50" oid="309477455" /><Stop Id="5168" routeId="98" nameZh="三民神清路口" seqNo="9" pgp="0" terminal="0" districtId="1" GoBack="1" latitude="24.26414" longitude="120.65694" inDis="50" outDis="50" oid="310199034" /><Stop Id="4445" routeId="98" nameZh="中正中山路口" seqNo="10" pgp="0" terminal="0" districtId="1" GoBack="1" latitude="24.25842" longitude="120.65605" inDis="50" outDis="50" oid="13808" /><Stop Id="5644" routeId="98" nameZh="神岡圖書館" seqNo="11" pgp="0" terminal="0" districtId="1" GoBack="1" latitude="24.25898" longitude="120.66088" inDis="50" outDis="50" oid="317432116" /><Stop Id="3066" routeId="98" nameZh="庄頭" seqNo="12" pgp="0" terminal="0" districtId="1" GoBack="1" latitude="24.25812" longitude="120.66294" inDis="50" outDis="50" oid="6265" /><Stop Id="2837" routeId="98" nameZh="神岡區公所" seqNo="13" pgp="0" terminal="0" districtId="1" GoBack="1" latitude="24.25771" longitude="120.66141" inDis="50" outDis="50" oid="6141" /><Stop Id="2835" routeId="98" nameZh="神岡" seqNo="14" pgp="0" terminal="0" districtId="1" GoBack="1" latitude="24.25703" longitude="120.6593" inDis="50" outDis="50" oid="6139" /><Stop Id="3311" routeId="98" nameZh="集會所" seqNo="15" pgp="0" terminal="0" districtId="1" GoBack="1" latitude="24.25459" longitude="120.66047" inDis="50" outDis="50" oid="6383" /><Stop Id="4194" routeId="98" nameZh="庄前" seqNo="16" pgp="0" terminal="0" districtId="1" GoBack="1" latitude="24.25202" longitude="120.65828" inDis="50" outDis="50" oid="12269" /><Stop Id="5167" routeId="98" nameZh="神林大林路口" seqNo="17" pgp="0" terminal="0" districtId="1" GoBack="1" latitude="24.24951" longitude="120.65592" inDis="50" outDis="50" oid="310199033" /><Stop Id="2746" routeId="98" nameZh="員林里" seqNo="18" pgp="0" terminal="0" districtId="1" GoBack="1" latitude="24.24562" longitude="120.65756" inDis="50" outDis="50" oid="310394047" /><Stop Id="5533" routeId="98" nameZh="員林里二站" seqNo="19" pgp="0" terminal="0" districtId="1" GoBack="1" latitude="24.24066" longitude="120.65713" inDis="50" outDis="50" oid="316278449" /><Stop Id="5024" routeId="98" nameZh="綠點公司" seqNo="20" pgp="0" terminal="0" districtId="1" GoBack="1" latitude="24.23853" longitude="120.65583" inDis="50" outDis="50" oid="309477457" /><Stop Id="1173" routeId="98" nameZh="下員林" seqNo="21" pgp="0" terminal="0" districtId="1" GoBack="1" latitude="24.23237" longitude="120.6538" inDis="50" outDis="50" oid="5134" /><Stop Id="1058" routeId="98" nameZh="三叉路口" seqNo="22" pgp="0" terminal="0" districtId="1" GoBack="1" latitude="24.23019" longitude="120.654" inDis="50" outDis="50" oid="5066" /><Stop Id="4307" routeId="98" nameZh="雅環民生路口" seqNo="23" pgp="0" terminal="0" districtId="1" GoBack="1" latitude="24.22836" longitude="120.65154" inDis="50" outDis="50" oid="313332278" /><Stop Id="1351" routeId="98" nameZh="大雅區公所" seqNo="24" pgp="0" terminal="0" districtId="1" GoBack="1" latitude="24.22932" longitude="120.64856" inDis="50" outDis="50" oid="313332277" /><Stop Id="4652" routeId="98" nameZh="大明國小(雅環路)" seqNo="25" pgp="0" terminal="0" districtId="1" GoBack="1" latitude="24.22799" longitude="120.64376" inDis="50" outDis="50" oid="51754508" /><Stop Id="2253" routeId="98" nameZh="秀山里" seqNo="26" pgp="0" terminal="0" districtId="1" GoBack="1" latitude="24.2305" longitude="120.64088" inDis="50" outDis="50" oid="2BEF1238D3C34B9B9432A0D166A06B86" /><Stop Id="2798" routeId="98" nameZh="泰聯公司" seqNo="27" pgp="0" terminal="0" districtId="1" GoBack="1" latitude="24.2331" longitude="120.63847" inDis="50" outDis="50" oid="1FD6637206FE4B609239D89232100EA6" /><Stop Id="4688" routeId="98" nameZh="科雅中清路口" seqNo="28" pgp="0" terminal="0" districtId="1" GoBack="1" latitude="24.23434" longitude="120.63556" inDis="50" outDis="50" oid="305768954" /><Stop Id="5025" routeId="98" nameZh="科雅平和路口" seqNo="29" pgp="0" terminal="0" districtId="1" GoBack="1" latitude="24.22923" longitude="120.63126" inDis="50" outDis="50" oid="309477459" /><Stop Id="1682" routeId="98" nameZh="日僑學校" seqNo="30" pgp="0" terminal="0" districtId="1" GoBack="1" latitude="24.22655" longitude="120.6297" inDis="50" outDis="50" oid="0BEB5CD227DC4119AB28C7FD02853281" /><Stop Id="4687" routeId="98" nameZh="二期標準廠房" seqNo="31" pgp="0" terminal="0" districtId="1" GoBack="1" latitude="24.22445" longitude="120.62835" inDis="50" outDis="50" oid="305768951" /><Stop Id="4686" routeId="98" nameZh="科雅東科雅四路口" seqNo="32" pgp="0" terminal="0" districtId="1" GoBack="1" latitude="24.22182" longitude="120.62789" inDis="50" outDis="50" oid="305768949" /><Stop Id="4685" routeId="98" nameZh="科雅三科雅路口" seqNo="33" pgp="0" terminal="0" districtId="1" GoBack="1" latitude="24.21918" longitude="120.6243" inDis="50" outDis="50" oid="305768947" /><Stop Id="4684" routeId="98" nameZh="科雅西科雅七路口" seqNo="34" pgp="0" terminal="0" districtId="1" GoBack="1" latitude="24.21722" longitude="120.62036" inDis="50" outDis="50" oid="305768945" /><Stop Id="4054" routeId="98" nameZh="中科管理局" seqNo="35" pgp="0" terminal="0" districtId="1" GoBack="1" latitude="24.20871" longitude="120.61583" inDis="50" outDis="50" oid="305914756" /><Stop Id="4720" routeId="98" nameZh="格網中心" seqNo="36" pgp="0" terminal="0" districtId="1" GoBack="1" latitude="24.20384" longitude="120.61095" inDis="50" outDis="50" oid="306613476" /><Stop Id="1461" routeId="98" nameZh="中科站" seqNo="37" pgp="0" terminal="0" districtId="1" GoBack="1" latitude="24.20042" longitude="120.60963" inDis="50" outDis="80" oid="305768943" /><Stop Id="5130" routeId="98" nameZh="國安國宅" seqNo="38" pgp="0" terminal="0" districtId="1" GoBack="1" latitude="24.19322" longitude="120.60662" inDis="50" outDis="50" oid="10650" /><Stop Id="3609" routeId="98" nameZh="榮總北院" seqNo="39" pgp="0" terminal="0" districtId="1" GoBack="1" latitude="24.18933" longitude="120.60558" inDis="50" outDis="50" oid="F082EAAB61CD4AE8A214BBE9330D85D8" /><Stop Id="1544" routeId="98" nameZh="五龍公園" seqNo="40" pgp="0" terminal="0" districtId="1" GoBack="1" latitude="24.18794" longitude="120.60496" inDis="50" outDis="50" oid="314570243" /><Stop Id="0868" routeId="98" nameZh="瑞聯天地" seqNo="41" pgp="0" terminal="0" districtId="1" GoBack="1" latitude="24.18677" longitude="120.6042" inDis="50" outDis="50" oid="6A867A5202444249954C17D90A5C6AFD" /><Stop Id="0884" routeId="98" nameZh="臺中榮總(東大路)" seqNo="42" pgp="0" terminal="0" districtId="1" GoBack="1" latitude="24.18343" longitude="120.60253" inDis="50" outDis="50" oid="64A1A3591BC949B2A716F8BCDF6DA2B6" /><Stop Id="5386" routeId="98" nameZh="臺中榮總(臺灣大道)" seqNo="43" pgp="0" terminal="0" districtId="1" GoBack="1" latitude="24.18349" longitude="120.60491" inDis="50" outDis="50" oid="312513342" /><Stop Id="2378" routeId="98" nameZh="東大附中" seqNo="44" pgp="0" terminal="0" districtId="1" GoBack="1" latitude="24.18351" longitude="120.60643" inDis="50" outDis="50" oid="12828" /><Stop Id="0004" routeId="98" nameZh="普濟寺" seqNo="45" pgp="0" terminal="0" districtId="1" GoBack="1" latitude="24.18422" longitude="120.60821" inDis="50" outDis="50" oid="7474" /><Stop Id="0004" routeId="98" nameZh="普濟寺" seqNo="1" pgp="0" terminal="0" districtId="1" GoBack="2" latitude="24.18422" longitude="120.60821" inDis="50" outDis="50" oid="7474" /><Stop Id="2378" routeId="98" nameZh="東大附中" seqNo="2" pgp="0" terminal="0" districtId="1" GoBack="2" latitude="24.18351" longitude="120.60643" inDis="50" outDis="50" oid="12828" /><Stop Id="5386" routeId="98" nameZh="臺中榮總(臺灣大道)" seqNo="3" pgp="0" terminal="0" districtId="1" GoBack="2" latitude="24.18349" longitude="120.60491" inDis="50" outDis="50" oid="313588801" /><Stop Id="0884" routeId="98" nameZh="臺中榮總(東大路)" seqNo="4" pgp="0" terminal="0" districtId="1" GoBack="2" latitude="24.1834" longitude="120.60269" inDis="50" outDis="50" oid="A620EB6442CC46AE8DF6D17666DED57F" /><Stop Id="0868" routeId="98" nameZh="瑞聯天地" seqNo="5" pgp="0" terminal="0" districtId="1" GoBack="2" latitude="24.18676" longitude="120.60435" inDis="50" outDis="50" oid="01E91CD5B2604033A67B44FE1C51BF6B" /><Stop Id="1544" routeId="98" nameZh="五龍公園" seqNo="6" pgp="0" terminal="0" districtId="1" GoBack="2" latitude="24.18794" longitude="120.60496" inDis="50" outDis="50" oid="314570243" /><Stop Id="3609" routeId="98" nameZh="榮總北院" seqNo="7" pgp="0" terminal="0" districtId="1" GoBack="2" latitude="24.18939" longitude="120.60573" inDis="50" outDis="50" oid="48E2EE22E2BA4448ADA2027546C8EA6E" /><Stop Id="5130" routeId="98" nameZh="國安國宅" seqNo="8" pgp="0" terminal="0" districtId="1" GoBack="2" latitude="24.19326" longitude="120.60678" inDis="50" outDis="50" oid="10651" /><Stop Id="1461" routeId="98" nameZh="中科站" seqNo="9" pgp="0" terminal="0" districtId="1" GoBack="2" latitude="24.20042" longitude="120.60963" inDis="50" outDis="80" oid="305768943" /><Stop Id="4720" routeId="98" nameZh="格網中心" seqNo="10" pgp="0" terminal="0" districtId="1" GoBack="2" latitude="24.20384" longitude="120.61095" inDis="50" outDis="50" oid="306613476" /><Stop Id="4054" routeId="98" nameZh="中科管理局" seqNo="11" pgp="0" terminal="0" districtId="1" GoBack="2" latitude="24.20871" longitude="120.61583" inDis="50" outDis="50" oid="305914756" /><Stop Id="4684" routeId="98" nameZh="科雅西科雅七路口" seqNo="12" pgp="0" terminal="0" districtId="1" GoBack="2" latitude="24.21722" longitude="120.62036" inDis="50" outDis="50" oid="305768945" /><Stop Id="4685" routeId="98" nameZh="科雅三科雅路口" seqNo="13" pgp="0" terminal="0" districtId="1" GoBack="2" latitude="24.21918" longitude="120.6243" inDis="50" outDis="50" oid="305768947" /><Stop Id="4686" routeId="98" nameZh="科雅東科雅四路口" seqNo="14" pgp="0" terminal="0" districtId="1" GoBack="2" latitude="24.22182" longitude="120.62789" inDis="50" outDis="50" oid="305768949" /><Stop Id="4687" routeId="98" nameZh="二期標準廠房" seqNo="15" pgp="0" terminal="0" districtId="1" GoBack="2" latitude="24.22445" longitude="120.62835" inDis="50" outDis="50" oid="305768951" /><Stop Id="1682" routeId="98" nameZh="日僑學校" seqNo="16" pgp="0" terminal="0" districtId="1" GoBack="2" latitude="24.22643" longitude="120.62985" inDis="50" outDis="50" oid="B7AF7CE4AA8A4EB1A30B030E07E2F65C" /><Stop Id="5025" routeId="98" nameZh="科雅平和路口" seqNo="17" pgp="0" terminal="0" districtId="1" GoBack="2" latitude="24.22901" longitude="120.63135" inDis="50" outDis="50" oid="309477460" /><Stop Id="4688" routeId="98" nameZh="科雅中清路口" seqNo="18" pgp="0" terminal="0" districtId="1" GoBack="2" latitude="24.23434" longitude="120.63556" inDis="50" outDis="50" oid="305768953" /><Stop Id="2798" routeId="98" nameZh="泰聯公司" seqNo="19" pgp="0" terminal="0" districtId="1" GoBack="2" latitude="24.2331" longitude="120.63847" inDis="50" outDis="50" oid="27214FDE7184410ABF972E795AF52CDC" /><Stop Id="2253" routeId="98" nameZh="秀山里" seqNo="20" pgp="0" terminal="0" districtId="1" GoBack="2" latitude="24.23034" longitude="120.64131" inDis="50" outDis="50" oid="7CF5A582E68D4FC6A7DCEF938B35031F" /><Stop Id="4652" routeId="98" nameZh="大明國小(雅環路)" seqNo="21" pgp="0" terminal="0" districtId="1" GoBack="2" latitude="24.22799" longitude="120.64376" inDis="50" outDis="50" oid="51754535" /><Stop Id="1351" routeId="98" nameZh="大雅區公所" seqNo="22" pgp="0" terminal="0" districtId="1" GoBack="2" latitude="24.22924" longitude="120.6474" inDis="40" outDis="40" oid="3658" /><Stop Id="4307" routeId="98" nameZh="雅環民生路口" seqNo="23" pgp="0" terminal="0" districtId="1" GoBack="2" latitude="24.22792" longitude="120.65163" inDis="50" outDis="50" oid="51754510" /><Stop Id="1058" routeId="98" nameZh="三叉路口" seqNo="24" pgp="0" terminal="0" districtId="1" GoBack="2" latitude="24.23019" longitude="120.654" inDis="50" outDis="50" oid="5066" /><Stop Id="1173" routeId="98" nameZh="下員林" seqNo="25" pgp="0" terminal="0" districtId="1" GoBack="2" latitude="24.23521" longitude="120.65521" inDis="50" outDis="50" oid="310394449" /><Stop Id="5024" routeId="98" nameZh="綠點公司" seqNo="26" pgp="0" terminal="0" districtId="1" GoBack="2" latitude="24.23828" longitude="120.65574" inDis="50" outDis="50" oid="309477458" /><Stop Id="5533" routeId="98" nameZh="員林里二站" seqNo="27" pgp="0" terminal="0" districtId="1" GoBack="2" latitude="24.24066" longitude="120.65713" inDis="50" outDis="50" oid="316278449" /><Stop Id="2746" routeId="98" nameZh="員林里" seqNo="28" pgp="0" terminal="0" districtId="1" GoBack="2" latitude="24.24427" longitude="120.65785" inDis="50" outDis="50" oid="6088" /><Stop Id="5167" routeId="98" nameZh="神林大林路口" seqNo="29" pgp="0" terminal="0" districtId="1" GoBack="2" latitude="24.24816" longitude="120.65654" inDis="50" outDis="50" oid="310394450" /><Stop Id="4194" routeId="98" nameZh="庄前" seqNo="30" pgp="0" terminal="0" districtId="1" GoBack="2" latitude="24.25202" longitude="120.65828" inDis="50" outDis="50" oid="12269" /><Stop Id="3311" routeId="98" nameZh="集會所" seqNo="31" pgp="0" terminal="0" districtId="1" GoBack="2" latitude="24.25459" longitude="120.66047" inDis="50" outDis="50" oid="6383" /><Stop Id="2835" routeId="98" nameZh="神岡" seqNo="32" pgp="0" terminal="0" districtId="1" GoBack="2" latitude="24.25703" longitude="120.6593" inDis="50" outDis="50" oid="6139" /><Stop Id="2837" routeId="98" nameZh="神岡區公所" seqNo="33" pgp="0" terminal="0" districtId="1" GoBack="2" latitude="24.25771" longitude="120.66141" inDis="50" outDis="50" oid="6141" /><Stop Id="3066" routeId="98" nameZh="庄頭" seqNo="34" pgp="0" terminal="0" districtId="1" GoBack="2" latitude="24.25812" longitude="120.66294" inDis="50" outDis="50" oid="6265" /><Stop Id="5644" routeId="98" nameZh="神岡圖書館" seqNo="35" pgp="0" terminal="0" districtId="1" GoBack="2" latitude="24.25898" longitude="120.66088" inDis="50" outDis="50" oid="317432116" /><Stop Id="4445" routeId="98" nameZh="中正中山路口" seqNo="36" pgp="0" terminal="0" districtId="1" GoBack="2" latitude="24.25842" longitude="120.65605" inDis="50" outDis="50" oid="13808" /><Stop Id="5168" routeId="98" nameZh="三民神清路口" seqNo="37" pgp="0" terminal="0" districtId="1" GoBack="2" latitude="24.26443" longitude="120.65704" inDis="50" outDis="50" oid="310394451" /><Stop Id="5023" routeId="98" nameZh="圳前活動中心" seqNo="38" pgp="0" terminal="0" districtId="1" GoBack="2" latitude="24.26675" longitude="120.65824" inDis="50" outDis="50" oid="309477456" /><Stop Id="5022" routeId="98" nameZh="三民路口" seqNo="39" pgp="0" terminal="0" districtId="1" GoBack="2" latitude="24.27021" longitude="120.66058" inDis="50" outDis="50" oid="309414111" /><Stop Id="5378" routeId="98" nameZh="圳堵三民橋頭" seqNo="40" pgp="0" terminal="0" districtId="1" GoBack="2" latitude="24.27179" longitude="120.66033" inDis="50" outDis="50" oid="311929348" /><Stop Id="3121" routeId="98" nameZh="頂車站" seqNo="41" pgp="0" terminal="0" districtId="1" GoBack="2" latitude="24.27418" longitude="120.65903" inDis="50" outDis="50" oid="6295" /><Stop Id="3660" routeId="98" nameZh="福德祠" seqNo="42" pgp="0" terminal="0" districtId="1" GoBack="2" latitude="24.27887" longitude="120.6566" inDis="50" outDis="50" oid="6556" /><Stop Id="3415" routeId="98" nameZh="新庄" seqNo="43" pgp="0" terminal="0" districtId="1" GoBack="2" latitude="24.28071" longitude="120.65311" inDis="50" outDis="50" oid="12268" /><Stop Id="3418" routeId="98" nameZh="新庄車庫" seqNo="44" pgp="0" terminal="0" districtId="1" GoBack="2" latitude="24.28102" longitude="120.65244" inDis="50" outDis="50" oid="6446" /><Stop Id="3062" routeId="98" nameZh="庄尾" seqNo="45" pgp="0" terminal="0" districtId="1" GoBack="2" latitude="24.28459" longitude="120.64462" inDis="50" outDis="50" oid="6262" /></BusInfo></BusDynInfo>