<?xml version="1.0" encoding="UTF-8" standalone="yes"?>
<BusDynInfo><EssentialInfo><Location><name>TCBUS</name><CenterName>Maxwin</CenterName></Location><UpdateTime>2014-12-20 08:27:23</UpdateTime><CoordinateSystem/></EssentialInfo>
<BusInfo><Stop Id="2428" routeId="262" nameZh="東勢" seqNo="1" pgp="0" terminal="0" districtId="1" GoBack="1" latitude="24.25742" longitude="120.82862" inDis="50" outDis="50" oid="5900" /><Stop Id="4500" routeId="262" nameZh="東勢老人會館" seqNo="2" pgp="0" terminal="0" districtId="1" GoBack="1" latitude="24.26098" longitude="120.8272" inDis="50" outDis="80" oid="5745" /><Stop Id="2434" routeId="262" nameZh="東新國中" seqNo="3" pgp="0" terminal="0" districtId="1" GoBack="1" latitude="24.26256" longitude="120.82676" inDis="50" outDis="80" oid="5905" /><Stop Id="1200" routeId="262" nameZh="下新社區" seqNo="4" pgp="0" terminal="0" districtId="1" GoBack="1" latitude="24.26491" longitude="120.826" inDis="50" outDis="50" oid="5154" /><Stop Id="1197" routeId="262" nameZh="下新" seqNo="5" pgp="0" terminal="0" districtId="1" GoBack="1" latitude="24.26667" longitude="120.8248" inDis="50" outDis="50" oid="5150" /><Stop Id="2190" routeId="262" nameZh="東蘭西門巷口" seqNo="6" pgp="0" terminal="0" districtId="1" GoBack="1" latitude="24.26853" longitude="120.82331" inDis="50" outDis="50" oid="5762" /><Stop Id="1019" routeId="262" nameZh="八分" seqNo="7" pgp="0" terminal="0" districtId="1" GoBack="1" latitude="24.2716" longitude="120.82224" inDis="50" outDis="50" oid="5042" /><Stop Id="2044" routeId="262" nameZh="東蘭光明路口" seqNo="8" pgp="0" terminal="0" districtId="1" GoBack="1" latitude="24.27315" longitude="120.82082" inDis="50" outDis="50" oid="5683" /><Stop Id="1977" routeId="262" nameZh="田中央" seqNo="9" pgp="0" terminal="0" districtId="1" GoBack="1" latitude="24.27559" longitude="120.81871" inDis="50" outDis="50" oid="5635" /><Stop Id="3640" routeId="262" nameZh="福成橋" seqNo="10" pgp="0" terminal="0" districtId="1" GoBack="1" latitude="24.27817" longitude="120.81678" inDis="50" outDis="50" oid="6546" /><Stop Id="4653" routeId="262" nameZh="東蘭大明路口" seqNo="11" pgp="0" terminal="0" districtId="1" GoBack="1" latitude="24.28103" longitude="120.81301" inDis="50" outDis="50" oid="5234" /><Stop Id="2786" routeId="262" nameZh="校栗埔" seqNo="12" pgp="0" terminal="0" districtId="1" GoBack="1" latitude="24.2819" longitude="120.81048" inDis="50" outDis="50" oid="6107" /><Stop Id="1089" routeId="262" nameZh="三清宮" seqNo="13" pgp="0" terminal="0" districtId="1" GoBack="1" latitude="24.28331" longitude="120.80814" inDis="50" outDis="50" oid="5085" /><Stop Id="1175" routeId="262" nameZh="下校栗埔" seqNo="14" pgp="0" terminal="0" districtId="1" GoBack="1" latitude="24.28411" longitude="120.80343" inDis="50" outDis="50" oid="5136" /><Stop Id="1925" routeId="262" nameZh="民誠宮" seqNo="15" pgp="0" terminal="0" districtId="1" GoBack="1" latitude="24.28486" longitude="120.8014" inDis="50" outDis="50" oid="5609" /><Stop Id="2010" routeId="262" nameZh="石城橋頭" seqNo="16" pgp="0" terminal="0" districtId="1" GoBack="1" latitude="24.28518" longitude="120.79774" inDis="50" outDis="50" oid="5663" /><Stop Id="2009" routeId="262" nameZh="石城國小" seqNo="17" pgp="0" terminal="0" districtId="1" GoBack="1" latitude="24.28539" longitude="120.79187" inDis="50" outDis="50" oid="5662" /><Stop Id="2797" routeId="262" nameZh="泰興里" seqNo="18" pgp="0" terminal="0" districtId="1" GoBack="1" latitude="24.28522" longitude="120.78906" inDis="50" outDis="50" oid="6113" /><Stop Id="2531" routeId="262" nameZh="長庚橋" seqNo="19" pgp="0" terminal="0" districtId="1" GoBack="1" latitude="24.28612" longitude="120.78191" inDis="50" outDis="50" oid="5962" /><Stop Id="2096" routeId="262" nameZh="圳寮" seqNo="20" pgp="0" terminal="0" districtId="1" GoBack="1" latitude="24.2858" longitude="120.77932" inDis="50" outDis="50" oid="5709" /><Stop Id="3136" routeId="262" nameZh="頂埔" seqNo="22" pgp="0" terminal="0" districtId="1" GoBack="1" latitude="24.28488" longitude="120.77031" inDis="50" outDis="50" oid="6300" /><Stop Id="2007" routeId="262" nameZh="石岡壩" seqNo="23" pgp="0" terminal="0" districtId="1" GoBack="1" latitude="24.28409" longitude="120.76766" inDis="50" outDis="50" oid="5660" /><Stop Id="2948" routeId="262" nameZh="埤頭里" seqNo="24" pgp="0" terminal="0" districtId="1" GoBack="1" latitude="24.28455" longitude="120.76049" inDis="50" outDis="50" oid="6185" /><Stop Id="2948" routeId="262" nameZh="埤頭里" seqNo="1" pgp="0" terminal="0" districtId="1" GoBack="2" latitude="24.28455" longitude="120.76049" inDis="50" outDis="50" oid="6185" /><Stop Id="2007" routeId="262" nameZh="石岡壩" seqNo="2" pgp="0" terminal="0" districtId="1" GoBack="2" latitude="24.28409" longitude="120.76766" inDis="50" outDis="50" oid="5660" /><Stop Id="3136" routeId="262" nameZh="頂埔" seqNo="3" pgp="0" terminal="0" districtId="1" GoBack="2" latitude="24.28488" longitude="120.77031" inDis="50" outDis="50" oid="6300" /><Stop Id="2096" routeId="262" nameZh="圳寮" seqNo="5" pgp="0" terminal="0" districtId="1" GoBack="2" latitude="24.2858" longitude="120.77932" inDis="50" outDis="50" oid="5709" /><Stop Id="2531" routeId="262" nameZh="長庚橋" seqNo="6" pgp="0" terminal="0" districtId="1" GoBack="2" latitude="24.28612" longitude="120.78191" inDis="50" outDis="50" oid="5962" /><Stop Id="2797" routeId="262" nameZh="泰興里" seqNo="7" pgp="0" terminal="0" districtId="1" GoBack="2" latitude="24.28522" longitude="120.78906" inDis="50" outDis="50" oid="6113" /><Stop Id="2009" routeId="262" nameZh="石城國小" seqNo="8" pgp="0" terminal="0" districtId="1" GoBack="2" latitude="24.28539" longitude="120.79187" inDis="50" outDis="50" oid="5662" /><Stop Id="2010" routeId="262" nameZh="石城橋頭" seqNo="9" pgp="0" terminal="0" districtId="1" GoBack="2" latitude="24.28518" longitude="120.79774" inDis="50" outDis="50" oid="5663" /><Stop Id="1925" routeId="262" nameZh="民誠宮" seqNo="10" pgp="0" terminal="0" districtId="1" GoBack="2" latitude="24.28486" longitude="120.8014" inDis="50" outDis="50" oid="5609" /><Stop Id="1175" routeId="262" nameZh="下校栗埔" seqNo="11" pgp="0" terminal="0" districtId="1" GoBack="2" latitude="24.28411" longitude="120.80343" inDis="50" outDis="50" oid="5136" /><Stop Id="1089" routeId="262" nameZh="三清宮" seqNo="12" pgp="0" terminal="0" districtId="1" GoBack="2" latitude="24.28331" longitude="120.80814" inDis="50" outDis="50" oid="5085" /><Stop Id="2786" routeId="262" nameZh="校栗埔" seqNo="13" pgp="0" terminal="0" districtId="1" GoBack="2" latitude="24.2819" longitude="120.81048" inDis="50" outDis="50" oid="6107" /><Stop Id="4653" routeId="262" nameZh="東蘭大明路口" seqNo="14" pgp="0" terminal="0" districtId="1" GoBack="2" latitude="24.28103" longitude="120.81301" inDis="50" outDis="50" oid="5234" /><Stop Id="3640" routeId="262" nameZh="福成橋" seqNo="15" pgp="0" terminal="0" districtId="1" GoBack="2" latitude="24.27817" longitude="120.81678" inDis="50" outDis="50" oid="6546" /><Stop Id="1977" routeId="262" nameZh="田中央" seqNo="16" pgp="0" terminal="0" districtId="1" GoBack="2" latitude="24.27559" longitude="120.81871" inDis="50" outDis="50" oid="5635" /><Stop Id="2044" routeId="262" nameZh="東蘭光明路口" seqNo="17" pgp="0" terminal="0" districtId="1" GoBack="2" latitude="24.27315" longitude="120.82082" inDis="50" outDis="50" oid="5683" /><Stop Id="1019" routeId="262" nameZh="八分" seqNo="18" pgp="0" terminal="0" districtId="1" GoBack="2" latitude="24.2716" longitude="120.82224" inDis="50" outDis="50" oid="5042" /><Stop Id="2190" routeId="262" nameZh="東蘭西門巷口" seqNo="19" pgp="0" terminal="0" districtId="1" GoBack="2" latitude="24.26853" longitude="120.82331" inDis="50" outDis="50" oid="5762" /><Stop Id="1197" routeId="262" nameZh="下新" seqNo="20" pgp="0" terminal="0" districtId="1" GoBack="2" latitude="24.26667" longitude="120.8248" inDis="50" outDis="50" oid="5150" /><Stop Id="1200" routeId="262" nameZh="下新社區" seqNo="21" pgp="0" terminal="0" districtId="1" GoBack="2" latitude="24.26491" longitude="120.826" inDis="50" outDis="50" oid="5154" /><Stop Id="2434" routeId="262" nameZh="東新國中" seqNo="22" pgp="0" terminal="0" districtId="1" GoBack="2" latitude="24.26256" longitude="120.82676" inDis="50" outDis="80" oid="5905" /><Stop Id="4500" routeId="262" nameZh="東勢老人會館" seqNo="23" pgp="0" terminal="0" districtId="1" GoBack="2" latitude="24.26098" longitude="120.8272" inDis="50" outDis="80" oid="5745" /><Stop Id="2428" routeId="262" nameZh="東勢" seqNo="24" pgp="0" terminal="0" districtId="1" GoBack="2" latitude="24.25742" longitude="120.82862" inDis="50" outDis="50" oid="5900" /></BusInfo></BusDynInfo>