<?xml version="1.0" encoding="UTF-8" standalone="yes"?>
<BusDynInfo><EssentialInfo><Location><name>TCBUS</name><CenterName>Maxwin</CenterName></Location><UpdateTime>2014-12-20 08:04:06</UpdateTime><CoordinateSystem/></EssentialInfo>
<BusInfo><Stop Id="3017" routeId="165" nameZh="清水國中" seqNo="1" pgp="0" terminal="0" districtId="1" GoBack="1" latitude="24.26778" longitude="120.56252" inDis="50" outDis="50" oid="2030" /><Stop Id="4137" routeId="165" nameZh="嘉陽高中" seqNo="2" pgp="0" terminal="0" districtId="1" GoBack="1" latitude="24.2659" longitude="120.58249" inDis="50" outDis="50" oid="2031" /><Stop Id="4083" routeId="165" nameZh="公館國小" seqNo="3" pgp="0" terminal="0" districtId="1" GoBack="1" latitude="24.26088" longitude="120.59534" inDis="50" outDis="50" oid="2032" /><Stop Id="4101" routeId="165" nameZh="西勢里" seqNo="4" pgp="0" terminal="0" districtId="1" GoBack="1" latitude="24.25996" longitude="120.59853" inDis="50" outDis="50" oid="2033" /><Stop Id="4790" routeId="165" nameZh="友仁公司" seqNo="5" pgp="0" terminal="0" districtId="1" GoBack="1" latitude="24.25929" longitude="120.60197" inDis="50" outDis="50" oid="2034" /><Stop Id="3295" routeId="165" nameZh="澔明公司" seqNo="6" pgp="0" terminal="0" districtId="1" GoBack="1" latitude="24.26222" longitude="120.60407" inDis="50" outDis="50" oid="2035" /><Stop Id="2223" routeId="165" nameZh="吳厝里" seqNo="7" pgp="0" terminal="0" districtId="1" GoBack="1" latitude="24.2666" longitude="120.60642" inDis="50" outDis="50" oid="2036" /><Stop Id="4803" routeId="165" nameZh="永安宮" seqNo="8" pgp="0" terminal="0" districtId="1" GoBack="1" latitude="24.26827" longitude="120.59972" inDis="50" outDis="50" oid="2037" /><Stop Id="3434" routeId="165" nameZh="新興社區" seqNo="9" pgp="0" terminal="0" districtId="1" GoBack="1" latitude="24.2694" longitude="120.60777" inDis="50" outDis="50" oid="2038" /><Stop Id="3119" routeId="165" nameZh="頂吳厝里" seqNo="10" pgp="0" terminal="0" districtId="1" GoBack="1" latitude="24.27625" longitude="120.6111" inDis="50" outDis="50" oid="2039" /><Stop Id="3071" routeId="165" nameZh="許厝里" seqNo="11" pgp="0" terminal="0" districtId="1" GoBack="1" latitude="24.27944" longitude="120.61287" inDis="50" outDis="50" oid="2040" /><Stop Id="1203" routeId="165" nameZh="下楊厝里" seqNo="12" pgp="0" terminal="0" districtId="1" GoBack="1" latitude="24.28542" longitude="120.61334" inDis="50" outDis="50" oid="2041" /><Stop Id="3448" routeId="165" nameZh="楊厝里" seqNo="13" pgp="0" terminal="0" districtId="1" GoBack="1" latitude="24.28931" longitude="120.61558" inDis="50" outDis="50" oid="2042" /><Stop Id="2806" routeId="165" nameZh="海風路口" seqNo="14" pgp="0" terminal="0" districtId="1" GoBack="1" latitude="24.29252" longitude="120.61938" inDis="50" outDis="50" oid="2043" /><Stop Id="2271" routeId="165" nameZh="良逸公司" seqNo="15" pgp="0" terminal="0" districtId="1" GoBack="1" latitude="24.29238" longitude="120.62557" inDis="50" outDis="50" oid="2044" /><Stop Id="1215" routeId="165" nameZh="下舊庄" seqNo="16" pgp="0" terminal="0" districtId="1" GoBack="1" latitude="24.29263" longitude="120.63044" inDis="50" outDis="50" oid="2045" /><Stop Id="3918" routeId="165" nameZh="舊庄" seqNo="17" pgp="0" terminal="0" districtId="1" GoBack="1" latitude="24.2914" longitude="120.63264" inDis="50" outDis="50" oid="2046" /><Stop Id="3918" routeId="165" nameZh="舊庄" seqNo="1" pgp="0" terminal="0" districtId="1" GoBack="2" latitude="24.29181" longitude="120.63281" inDis="50" outDis="50" oid="2047" /><Stop Id="1215" routeId="165" nameZh="下舊庄" seqNo="2" pgp="0" terminal="0" districtId="1" GoBack="2" latitude="24.29262" longitude="120.63038" inDis="50" outDis="50" oid="2048" /><Stop Id="2271" routeId="165" nameZh="良逸公司" seqNo="3" pgp="0" terminal="0" districtId="1" GoBack="2" latitude="24.29263" longitude="120.62555" inDis="50" outDis="50" oid="2049" /><Stop Id="2806" routeId="165" nameZh="海風路口" seqNo="4" pgp="0" terminal="0" districtId="1" GoBack="2" latitude="24.29256" longitude="120.61952" inDis="50" outDis="50" oid="2050" /><Stop Id="3448" routeId="165" nameZh="楊厝里" seqNo="5" pgp="0" terminal="0" districtId="1" GoBack="2" latitude="24.28928" longitude="120.61588" inDis="50" outDis="50" oid="2051" /><Stop Id="1203" routeId="165" nameZh="下楊厝里" seqNo="6" pgp="0" terminal="0" districtId="1" GoBack="2" latitude="24.28537" longitude="120.61336" inDis="50" outDis="50" oid="2052" /><Stop Id="3071" routeId="165" nameZh="許厝里" seqNo="7" pgp="0" terminal="0" districtId="1" GoBack="2" latitude="24.27969" longitude="120.61307" inDis="50" outDis="50" oid="2053" /><Stop Id="3119" routeId="165" nameZh="頂吳厝里" seqNo="8" pgp="0" terminal="0" districtId="1" GoBack="2" latitude="24.27619" longitude="120.61122" inDis="50" outDis="50" oid="2054" /><Stop Id="3434" routeId="165" nameZh="新興社區" seqNo="9" pgp="0" terminal="0" districtId="1" GoBack="2" latitude="24.26899" longitude="120.60756" inDis="50" outDis="50" oid="2055" /><Stop Id="4803" routeId="165" nameZh="永安宮" seqNo="10" pgp="0" terminal="0" districtId="1" GoBack="2" latitude="24.26827" longitude="120.59972" inDis="50" outDis="50" oid="2056" /><Stop Id="2223" routeId="165" nameZh="吳厝里" seqNo="11" pgp="0" terminal="0" districtId="1" GoBack="2" latitude="24.2661" longitude="120.60613" inDis="50" outDis="50" oid="2057" /><Stop Id="3295" routeId="165" nameZh="澔明公司" seqNo="12" pgp="0" terminal="0" districtId="1" GoBack="2" latitude="24.26231" longitude="120.60411" inDis="50" outDis="50" oid="2058" /><Stop Id="4790" routeId="165" nameZh="友仁公司" seqNo="13" pgp="0" terminal="0" districtId="1" GoBack="2" latitude="24.25926" longitude="120.602" inDis="50" outDis="50" oid="2059" /><Stop Id="4101" routeId="165" nameZh="西勢里" seqNo="14" pgp="0" terminal="0" districtId="1" GoBack="2" latitude="24.25989" longitude="120.59843" inDis="50" outDis="50" oid="2060" /><Stop Id="4083" routeId="165" nameZh="公館國小" seqNo="15" pgp="0" terminal="0" districtId="1" GoBack="2" latitude="24.2609" longitude="120.59535" inDis="50" outDis="50" oid="2061" /><Stop Id="4137" routeId="165" nameZh="嘉陽高中" seqNo="16" pgp="0" terminal="0" districtId="1" GoBack="2" latitude="24.26616" longitude="120.58273" inDis="50" outDis="50" oid="2062" /><Stop Id="3017" routeId="165" nameZh="清水國中" seqNo="17" pgp="0" terminal="0" districtId="1" GoBack="2" latitude="24.26786" longitude="120.56293" inDis="50" outDis="50" oid="2063" /></BusInfo></BusDynInfo>