<?xml version="1.0" encoding="UTF-8" standalone="yes"?>
<BusDynInfo><EssentialInfo><Location><name>TCBUS</name><CenterName>Maxwin</CenterName></Location><UpdateTime>2014-12-20 07:30:19</UpdateTime><CoordinateSystem/></EssentialInfo>
<BusInfo><Stop Id="0181" routeId="35" nameZh="南區公所" seqNo="1" pgp="0" terminal="0" districtId="1" GoBack="1" latitude="24.117" longitude="120.66328" inDis="50" outDis="50" oid="5B45774D01D34D7898E3D37622F1C99A" /><Stop Id="5474" routeId="35" nameZh="臺中高工(工學六街)" seqNo="2" pgp="0" terminal="0" districtId="1" GoBack="1" latitude="24.11667" longitude="120.66048" inDis="50" outDis="50" oid="314316879" /><Stop Id="4537" routeId="35" nameZh="臺中高工(高工路)" seqNo="3" pgp="0" terminal="0" districtId="1" GoBack="1" latitude="24.11325" longitude="120.6624" inDis="50" outDis="50" oid="953AF883F50848ABB1816D63F01D5176" /><Stop Id="4258" routeId="35" nameZh="工學一街口" seqNo="4" pgp="0" terminal="0" districtId="1" GoBack="1" latitude="24.1139" longitude="120.66525" inDis="50" outDis="50" oid="304914050" /><Stop Id="4367" routeId="35" nameZh="僑泰中學(高工路)" seqNo="5" pgp="0" terminal="0" districtId="1" GoBack="1" latitude="24.11442" longitude="120.66796" inDis="50" outDis="50" oid="F31176F499D2426C84080D3B88E9B284" /><Stop Id="0243" routeId="35" nameZh="下橋仔" seqNo="6" pgp="0" terminal="0" districtId="1" GoBack="1" latitude="24.11534" longitude="120.67011" inDis="50" outDis="50" oid="D3C94FA9FD8B4EB8B49EC02311E05630" /><Stop Id="0034" routeId="35" nameZh="永和國宅" seqNo="7" pgp="0" terminal="0" districtId="1" GoBack="1" latitude="24.11686" longitude="120.66996" inDis="50" outDis="50" oid="40B8A5CF920249989B1E978E12FD956A" /><Stop Id="4539" routeId="35" nameZh="五權南忠明南路口" seqNo="8" pgp="0" terminal="0" districtId="1" GoBack="1" latitude="24.11844" longitude="120.66999" inDis="50" outDis="50" oid="80FFB8C7CDFF4D19BEC7F7634BAC9BA6" /><Stop Id="1902" routeId="35" nameZh="平和里" seqNo="9" pgp="0" terminal="0" districtId="1" GoBack="1" latitude="24.12011" longitude="120.66999" inDis="50" outDis="50" oid="311502857" /><Stop Id="0863" routeId="35" nameZh="信義國小(五權南路)" seqNo="10" pgp="0" terminal="0" districtId="1" GoBack="1" latitude="24.12152" longitude="120.67007" inDis="50" outDis="50" oid="EFB306FD185D44B7A9ABA04600267AD1" /><Stop Id="0246" routeId="35" nameZh="永和社區" seqNo="11" pgp="0" terminal="0" districtId="1" GoBack="1" latitude="24.12261" longitude="120.67006" inDis="50" outDis="50" oid="1B7D87EB73F24790871C0030D127A2EC" /><Stop Id="0247" routeId="35" nameZh="五權南永和街口" seqNo="12" pgp="0" terminal="0" districtId="1" GoBack="1" latitude="24.1244" longitude="120.67003" inDis="50" outDis="50" oid="498E291934954D2FAFE1BE9EF1819DF6" /><Stop Id="5394" routeId="35" nameZh="公共資訊圖書館(建成路)" seqNo="13" pgp="0" terminal="0" districtId="1" GoBack="1" latitude="24.12651" longitude="120.67218" inDis="50" outDis="50" oid="312954999" /><Stop Id="5075" routeId="35" nameZh="建成學府路口" seqNo="14" pgp="0" terminal="0" districtId="1" GoBack="1" latitude="24.12642" longitude="120.67406" inDis="50" outDis="50" oid="87F1E06DB5AB4C839B726D746AA03672" /><Stop Id="0037" routeId="35" nameZh="中興大學(興大路)" seqNo="15" pgp="0" terminal="0" districtId="1" GoBack="1" latitude="24.12411" longitude="120.67578" inDis="50" outDis="50" oid="ACC4069F44D3400792CA7549FE9D4C5B" /><Stop Id="5376" routeId="35" nameZh="興大郵局" seqNo="16" pgp="0" terminal="0" districtId="1" GoBack="1" latitude="24.1227" longitude="120.67946" inDis="50" outDis="50" oid="312432977" /><Stop Id="5598" routeId="35" nameZh="興大二村" seqNo="17" pgp="0" terminal="0" districtId="1" GoBack="1" latitude="24.12233" longitude="120.68154" inDis="50" outDis="50" oid="BEBFD3DE671C4EF6AA7CA408C4572F1E" /><Stop Id="5111" routeId="35" nameZh="明德高中(南門路)" seqNo="18" pgp="0" terminal="0" districtId="1" GoBack="1" latitude="24.12239" longitude="120.68374" inDis="50" outDis="50" oid="98471333AD524EAE9801EF0E854581C6" /><Stop Id="0255" routeId="35" nameZh="南門仔" seqNo="19" pgp="0" terminal="0" districtId="1" GoBack="1" latitude="24.12552" longitude="120.68421" inDis="50" outDis="50" oid="E8999FB141E14329AE7CAF5B096873C5" /><Stop Id="5607" routeId="35" nameZh="興大附農(臺中路)" seqNo="20" pgp="0" terminal="0" districtId="1" GoBack="1" latitude="24.12747" longitude="120.68452" inDis="50" outDis="50" oid="95879C963BCD4EAB8A376EF9655A419C" /><Stop Id="0257" routeId="35" nameZh="臺中國小" seqNo="21" pgp="0" terminal="0" districtId="1" GoBack="1" latitude="24.13033" longitude="120.68498" inDis="50" outDis="50" oid="970D4C795AC24829BCB16A49EA4C3FDF" /><Stop Id="0049" routeId="35" nameZh="第三市場(臺中家商)" seqNo="22" pgp="0" terminal="0" districtId="1" GoBack="1" latitude="24.13272" longitude="120.68382" inDis="50" outDis="50" oid="E2ED6160C8F44C3DA878B373AA468F17" /><Stop Id="1824" routeId="35" nameZh="臺中火車站" seqNo="23" pgp="0" terminal="0" districtId="1" GoBack="1" latitude="24.13735" longitude="120.68463" inDis="50" outDis="50" oid="B1F5CF53C2B0403583F37BDA01C2EF87" /><Stop Id="0402" routeId="35" nameZh="干城站" seqNo="24" pgp="0" terminal="0" districtId="1" GoBack="1" latitude="24.14099" longitude="120.68606" inDis="50" outDis="50" oid="AB9B03C77CC246A69330FDED1F32CC04" /><Stop Id="4561" routeId="35" nameZh="立體停車場(雙十路)" seqNo="25" pgp="0" terminal="0" districtId="1" GoBack="1" latitude="24.14248" longitude="120.68582" inDis="50" outDis="50" oid="4C0F8426770D41898B45F60F2EFB829E" /><Stop Id="4544" routeId="35" nameZh="臺中公園(雙十路)" seqNo="26" pgp="0" terminal="0" districtId="1" GoBack="1" latitude="24.14404" longitude="120.68611" inDis="50" outDis="50" oid="979C846EAC474D548E005575E60FCB45" /><Stop Id="1513" routeId="35" nameZh="中興堂" seqNo="27" pgp="0" terminal="0" districtId="1" GoBack="1" latitude="24.14626" longitude="120.68448" inDis="50" outDis="50" oid="15989" /><Stop Id="0045" routeId="35" nameZh="國立臺中科技大學" seqNo="29" pgp="0" terminal="0" districtId="1" GoBack="1" latitude="24.14967" longitude="120.68404" inDis="50" outDis="50" oid="AB3A19D0E6744C2093109FE725F85EF6" /><Stop Id="0046" routeId="35" nameZh="中友百貨" seqNo="30" pgp="0" terminal="0" districtId="1" GoBack="1" latitude="24.15243" longitude="120.68511" inDis="50" outDis="50" oid="E4EC44E5CFB54117AB1A830EB6AE77D8" /><Stop Id="3772" routeId="35" nameZh="五權學士路口" seqNo="31" pgp="0" terminal="0" districtId="1" GoBack="1" latitude="24.15377" longitude="120.68397" inDis="50" outDis="50" oid="3FE85EB93319467DBEB68AEB9B120344" /><Stop Id="0406" routeId="35" nameZh="中山堂" seqNo="32" pgp="0" terminal="0" districtId="1" GoBack="1" latitude="24.15515" longitude="120.68176" inDis="50" outDis="50" oid="12B9C7D9C96948E7B5E11BAD625DFBBD" /><Stop Id="0426" routeId="35" nameZh="中國醫藥大學" seqNo="33" pgp="0" terminal="0" districtId="1" GoBack="1" latitude="24.15646" longitude="120.68136" inDis="50" outDis="50" oid="49E324B0389E45C992EF6B286E0943D4" /><Stop Id="4597" routeId="35" nameZh="健行學士路口" seqNo="34" pgp="0" terminal="0" districtId="1" GoBack="1" latitude="24.15917" longitude="120.68035" inDis="50" outDis="50" oid="60DAA6DCC8DD4809AACD7051F09EFD78" /><Stop Id="2334" routeId="35" nameZh="健行尚德街口" seqNo="35" pgp="0" terminal="0" districtId="1" GoBack="1" latitude="24.15915" longitude="120.67815" inDis="50" outDis="50" oid="B9E4C2C2F40C4E75962B151E03F5EF7E" /><Stop Id="0091" routeId="35" nameZh="健行國小" seqNo="36" pgp="0" terminal="0" districtId="1" GoBack="1" latitude="24.1593" longitude="120.67336" inDis="50" outDis="50" oid="37FA8E54C75640D18691DBD58DDCD964" /><Stop Id="5428" routeId="35" nameZh="健行民權路口" seqNo="37" pgp="0" terminal="0" districtId="1" GoBack="1" latitude="24.15924" longitude="120.67066" inDis="50" outDis="50" oid="313288982" /><Stop Id="4679" routeId="35" nameZh="植物園(健行路)" seqNo="38" pgp="0" terminal="0" districtId="1" GoBack="1" latitude="24.1593" longitude="120.66765" inDis="50" outDis="50" oid="FEDD60126C9F40259364457E1AEBAA08" /><Stop Id="4574" routeId="35" nameZh="西屯健行路口" seqNo="39" pgp="0" terminal="0" districtId="1" GoBack="1" latitude="24.1597" longitude="120.6659" inDis="50" outDis="50" oid="1871F9F8F1DB489180F858750E04DA36" /><Stop Id="0265" routeId="35" nameZh="西屯忠明路口" seqNo="40" pgp="0" terminal="0" districtId="1" GoBack="1" latitude="24.16156" longitude="120.66451" inDis="50" outDis="50" oid="C00FC0E8561A4201911DE6719456D0A8" /><Stop Id="4341" routeId="35" nameZh="西屯太原路口" seqNo="41" pgp="0" terminal="0" districtId="1" GoBack="1" latitude="24.1635" longitude="120.66317" inDis="50" outDis="50" oid="C4C1C272525B4E34AE063BFC481DEE9B" /><Stop Id="4570" routeId="35" nameZh="頂何厝(西屯路)" seqNo="42" pgp="0" terminal="0" districtId="1" GoBack="1" latitude="24.16406" longitude="120.66118" inDis="50" outDis="50" oid="62AE622B00A8488FBFCCD51F0CBA9AF5" /><Stop Id="0836" routeId="35" nameZh="華港新城" seqNo="43" pgp="0" terminal="0" districtId="1" GoBack="1" latitude="24.16441" longitude="120.65961" inDis="50" outDis="50" oid="11902B307DE846F6B420A480BEFBA50A" /><Stop Id="4567" routeId="35" nameZh="何厝(西屯路)" seqNo="44" pgp="0" terminal="0" districtId="1" GoBack="1" latitude="24.16488" longitude="120.65839" inDis="50" outDis="50" oid="C77E45F7BE4D4DF686E8E122D0D328D2" /><Stop Id="0268" routeId="35" nameZh="勤美社區" seqNo="45" pgp="0" terminal="0" districtId="1" GoBack="1" latitude="24.16568" longitude="120.65565" inDis="50" outDis="50" oid="EA83BAECB4834CB0AD0447882F9DFDFF" /><Stop Id="0269" routeId="35" nameZh="西屯文心路口" seqNo="46" pgp="0" terminal="0" districtId="1" GoBack="1" latitude="24.16602" longitude="120.65433" inDis="50" outDis="50" oid="84C3C9C860294B1E83E08B6DFE825154" /><Stop Id="4621" routeId="35" nameZh="西屯洛陽路口" seqNo="47" pgp="0" terminal="0" districtId="1" GoBack="1" latitude="24.16698" longitude="120.65142" inDis="50" outDis="50" oid="487A9C52D824403AA94DC8BF5CBFEAFF" /><Stop Id="5749" routeId="35" nameZh="惠民公園" seqNo="48" pgp="0" terminal="0" districtId="1" GoBack="1" latitude="24.16791" longitude="120.64957" inDis="50" outDis="50" oid="5F27C71EE54F4CE5B3B9BC1B00971E8D" /><Stop Id="0272" routeId="35" nameZh="西屯惠中路口" seqNo="49" pgp="0" terminal="0" districtId="1" GoBack="1" latitude="24.1689" longitude="120.64861" inDis="50" outDis="50" oid="857DF7AE4B644BCAA1EB23D64EF0E46E" /><Stop Id="0273" routeId="35" nameZh="上石里" seqNo="50" pgp="0" terminal="0" districtId="1" GoBack="1" latitude="24.17054" longitude="120.64724" inDis="50" outDis="50" oid="DE5D1923C3C0414FB1425A87350B2A85" /><Stop Id="0274" routeId="35" nameZh="西屯上石路口" seqNo="51" pgp="0" terminal="0" districtId="1" GoBack="1" latitude="24.17164" longitude="120.64635" inDis="50" outDis="50" oid="A5246B9373F242AFB9035F525B4D9E3B" /><Stop Id="4600" routeId="35" nameZh="西屯河南路口" seqNo="52" pgp="0" terminal="0" districtId="1" GoBack="1" latitude="24.17325" longitude="120.64477" inDis="50" outDis="50" oid="123DDE46A71646DEA2322793C740BF60" /><Stop Id="0803" routeId="35" nameZh="頂湳仔" seqNo="53" pgp="0" terminal="0" districtId="1" GoBack="1" latitude="24.17419" longitude="120.64447" inDis="50" outDis="50" oid="5D7FC66D0C1749B5B7E2119A4E3CF7E8" /><Stop Id="0337" routeId="35" nameZh="下湳仔" seqNo="54" pgp="0" terminal="0" districtId="1" GoBack="1" latitude="24.17642" longitude="120.6436" inDis="50" outDis="50" oid="C75555CC8C354EEEB2138AA7E353C331" /><Stop Id="0361" routeId="35" nameZh="大漁池" seqNo="55" pgp="0" terminal="0" districtId="1" GoBack="1" latitude="24.17754" longitude="120.64257" inDis="50" outDis="50" oid="2A707B07FA464695A831336BB2CBC8C2" /><Stop Id="4586" routeId="35" nameZh="逢甲大學(福星路)" seqNo="56" pgp="0" terminal="0" districtId="1" GoBack="1" latitude="24.17941" longitude="120.64506" inDis="50" outDis="50" oid="F5FD13B420234C028D282560F53F29F3" /><Stop Id="4334" routeId="35" nameZh="福星西安街口" seqNo="57" pgp="0" terminal="0" districtId="1" GoBack="1" latitude="24.18151" longitude="120.64487" inDis="50" outDis="50" oid="B0C7C728270149F4BD2FB6366EBC8CBB" /><Stop Id="5658" routeId="35" nameZh="漢翔公司(星享道)" seqNo="58" pgp="0" terminal="0" districtId="1" GoBack="1" latitude="24.18421" longitude="120.64472" inDis="50" outDis="50" oid="313222695" /><Stop Id="4327" routeId="35" nameZh="僑光科技大學" seqNo="59" pgp="0" terminal="1" districtId="1" GoBack="1" latitude="24.18654" longitude="120.64433" inDis="50" outDis="50" oid="DEE0959669374E3699BC81155C0B6D98" /><Stop Id="2192" routeId="35" nameZh="西苑高中" seqNo="60" pgp="0" terminal="0" districtId="1" GoBack="1" latitude="24.1862" longitude="120.64026" inDis="50" outDis="50" oid="9421A4EF611E4C21BA50E55E5D3CF1B2" /><Stop Id="5409" routeId="35" nameZh="文修停車場" seqNo="61" pgp="0" terminal="0" districtId="1" GoBack="1" latitude="24.18505" longitude="120.64166" inDis="50" outDis="50" oid="313222698" /><Stop Id="5409" routeId="35" nameZh="文修停車場" seqNo="1" pgp="0" terminal="0" districtId="1" GoBack="2" latitude="24.18505" longitude="120.64166" inDis="50" outDis="50" oid="313222698" /><Stop Id="2192" routeId="35" nameZh="西苑高中" seqNo="2" pgp="0" terminal="0" districtId="1" GoBack="2" latitude="24.18621" longitude="120.6403" inDis="50" outDis="50" oid="C64B649F9E384121A6AED87F781EDEC7" /><Stop Id="4327" routeId="35" nameZh="僑光科技大學" seqNo="3" pgp="0" terminal="0" districtId="1" GoBack="2" latitude="24.18662" longitude="120.64441" inDis="50" outDis="50" oid="9215979667EC4F3B9F00A51978053720" /><Stop Id="5658" routeId="35" nameZh="漢翔公司(星享道)" seqNo="4" pgp="0" terminal="0" districtId="1" GoBack="2" latitude="24.18421" longitude="120.64472" inDis="50" outDis="50" oid="313222695" /><Stop Id="4334" routeId="35" nameZh="福星西安街口" seqNo="5" pgp="0" terminal="0" districtId="1" GoBack="2" latitude="24.18144" longitude="120.64498" inDis="50" outDis="50" oid="5B704488A07D4BCBAE2860BB4B31698C" /><Stop Id="4586" routeId="35" nameZh="逢甲大學(福星路)" seqNo="6" pgp="0" terminal="0" districtId="1" GoBack="2" latitude="24.17938" longitude="120.64508" inDis="50" outDis="50" oid="DBBD4456885E4E32B7A849F7709F81B9" /><Stop Id="0361" routeId="35" nameZh="大漁池" seqNo="7" pgp="0" terminal="0" districtId="1" GoBack="2" latitude="24.17743" longitude="120.64263" inDis="50" outDis="50" oid="258478A8E1EB4A94A7A088187716A558" /><Stop Id="0337" routeId="35" nameZh="下湳仔" seqNo="8" pgp="0" terminal="0" districtId="1" GoBack="2" latitude="24.17661" longitude="120.64336" inDis="50" outDis="50" oid="24E71A616E0A4C989E3579C1B5BDF5C9" /><Stop Id="0803" routeId="35" nameZh="頂湳仔" seqNo="9" pgp="0" terminal="0" districtId="1" GoBack="2" latitude="24.17439" longitude="120.64446" inDis="50" outDis="50" oid="57A72E1D3AA74ECDBFD5EDC5442F1625" /><Stop Id="4600" routeId="35" nameZh="西屯河南路口" seqNo="10" pgp="0" terminal="0" districtId="1" GoBack="2" latitude="24.17322" longitude="120.64482" inDis="50" outDis="50" oid="1E1B9AB2D55E4CA593BA9AC0EAF25A21" /><Stop Id="0274" routeId="35" nameZh="西屯上石路口" seqNo="11" pgp="0" terminal="0" districtId="1" GoBack="2" latitude="24.17152" longitude="120.64635" inDis="50" outDis="50" oid="143869ADE8654CB29EDBD2307FDE66EC" /><Stop Id="0273" routeId="35" nameZh="上石里" seqNo="12" pgp="0" terminal="0" districtId="1" GoBack="2" latitude="24.17067" longitude="120.6472" inDis="50" outDis="50" oid="20C901C994A849E7A847DB722C10E08A" /><Stop Id="0272" routeId="35" nameZh="西屯惠中路口" seqNo="13" pgp="0" terminal="0" districtId="1" GoBack="2" latitude="24.16888" longitude="120.64869" inDis="50" outDis="50" oid="68F82E04A64D4383858C69EE0B9C01C5" /><Stop Id="4022" routeId="35" nameZh="臺中學苑" seqNo="14" pgp="0" terminal="0" districtId="1" GoBack="2" latitude="24.16794" longitude="120.64952" inDis="50" outDis="50" oid="272A30A126794B90BAE9B7B176ECD791" /><Stop Id="4621" routeId="35" nameZh="西屯洛陽路口" seqNo="15" pgp="0" terminal="0" districtId="1" GoBack="2" latitude="24.16678" longitude="120.65175" inDis="50" outDis="50" oid="FC43A5CFB7414CB9864D1FF82E288B07" /><Stop Id="0269" routeId="35" nameZh="西屯文心路口" seqNo="16" pgp="0" terminal="0" districtId="1" GoBack="2" latitude="24.16608" longitude="120.65435" inDis="50" outDis="50" oid="3A662E24D06145F6893253CD8D295593" /><Stop Id="0268" routeId="35" nameZh="勤美社區" seqNo="17" pgp="0" terminal="0" districtId="1" GoBack="2" latitude="24.16569" longitude="120.6557" inDis="50" outDis="50" oid="85012CD2F8ED41F188E3C9479C84D171" /><Stop Id="4567" routeId="35" nameZh="何厝(西屯路)" seqNo="18" pgp="0" terminal="0" districtId="1" GoBack="2" latitude="24.16463" longitude="120.65883" inDis="50" outDis="50" oid="0976585F1D6842DDB4569C9552B4CC08" /><Stop Id="0836" routeId="35" nameZh="華港新城" seqNo="19" pgp="0" terminal="0" districtId="1" GoBack="2" latitude="24.16441" longitude="120.65961" inDis="50" outDis="50" oid="11902B307DE846F6B420A480BEFBA50A" /><Stop Id="4570" routeId="35" nameZh="頂何厝(西屯路)" seqNo="20" pgp="0" terminal="0" districtId="1" GoBack="2" latitude="24.16413" longitude="120.66088" inDis="50" outDis="50" oid="49537CBB9870425FB28104010DF5CB6D" /><Stop Id="4341" routeId="35" nameZh="西屯太原路口" seqNo="21" pgp="0" terminal="0" districtId="1" GoBack="2" latitude="24.16352" longitude="120.66282" inDis="50" outDis="50" oid="283985F8E1E144C8A2852DD87669E10E" /><Stop Id="0265" routeId="35" nameZh="西屯忠明路口" seqNo="22" pgp="0" terminal="0" districtId="1" GoBack="2" latitude="24.1617" longitude="120.66444" inDis="50" outDis="50" oid="75FA4C96BD714444B0F696845589FEB0" /><Stop Id="4574" routeId="35" nameZh="西屯健行路口" seqNo="23" pgp="0" terminal="0" districtId="1" GoBack="2" latitude="24.15999" longitude="120.66563" inDis="50" outDis="50" oid="D9ACFACAD5B84166A6F4754800CE1D13" /><Stop Id="4679" routeId="35" nameZh="植物園(健行路)" seqNo="24" pgp="0" terminal="0" districtId="1" GoBack="2" latitude="24.15919" longitude="120.66752" inDis="50" outDis="50" oid="2C84A75C67C84183A1B5DA6610CA7C3E" /><Stop Id="5428" routeId="35" nameZh="健行民權路口" seqNo="25" pgp="0" terminal="0" districtId="1" GoBack="2" latitude="24.15924" longitude="120.67066" inDis="50" outDis="50" oid="313288982" /><Stop Id="0091" routeId="35" nameZh="健行國小" seqNo="26" pgp="0" terminal="0" districtId="1" GoBack="2" latitude="24.15919" longitude="120.67337" inDis="50" outDis="50" oid="F6A036AC4E894E96A85686936C7EA582" /><Stop Id="2334" routeId="35" nameZh="健行尚德街口" seqNo="27" pgp="0" terminal="0" districtId="1" GoBack="2" latitude="24.15916" longitude="120.67724" inDis="50" outDis="50" oid="BA38BD6CFAF24A2BB3AA2BAD09E2327C" /><Stop Id="4597" routeId="35" nameZh="健行學士路口" seqNo="28" pgp="0" terminal="0" districtId="1" GoBack="2" latitude="24.15917" longitude="120.68019" inDis="50" outDis="50" oid="A3127DF20C0C4646A061102BA42D47D6" /><Stop Id="0426" routeId="35" nameZh="中國醫藥大學" seqNo="29" pgp="0" terminal="0" districtId="1" GoBack="2" latitude="24.15675" longitude="120.68124" inDis="50" outDis="50" oid="A60A6DD3C9AB45CD96B6BAF89AFEBE38" /><Stop Id="0406" routeId="35" nameZh="中山堂" seqNo="30" pgp="0" terminal="0" districtId="1" GoBack="2" latitude="24.15512" longitude="120.68172" inDis="50" outDis="50" oid="2C589CF19C0D431E939845B77B27B218" /><Stop Id="3772" routeId="35" nameZh="五權學士路口" seqNo="31" pgp="0" terminal="0" districtId="1" GoBack="2" latitude="24.15373" longitude="120.6839" inDis="50" outDis="50" oid="1B2922F4F7F642588635DF4746BB8602" /><Stop Id="0047" routeId="35" nameZh="一心市場" seqNo="32" pgp="0" terminal="0" districtId="1" GoBack="2" latitude="24.15369" longitude="120.68563" inDis="50" outDis="50" oid="156231535" /><Stop Id="0046" routeId="35" nameZh="中友百貨" seqNo="33" pgp="0" terminal="0" districtId="1" GoBack="2" latitude="24.15176" longitude="120.68485" inDis="50" outDis="50" oid="13679470990B4FA4A51946BAF04CC993" /><Stop Id="0045" routeId="35" nameZh="國立臺中科技大學" seqNo="34" pgp="0" terminal="0" districtId="1" GoBack="2" latitude="24.14968" longitude="120.68399" inDis="50" outDis="50" oid="2C024684356643989C7E2DE11D9CB000" /><Stop Id="1513" routeId="35" nameZh="中興堂" seqNo="36" pgp="0" terminal="0" districtId="1" GoBack="2" latitude="24.14621" longitude="120.68463" inDis="50" outDis="50" oid="16096" /><Stop Id="4544" routeId="35" nameZh="臺中公園(雙十路)" seqNo="37" pgp="0" terminal="0" districtId="1" GoBack="2" latitude="24.14422" longitude="120.68587" inDis="50" outDis="50" oid="9FB2D747C13F414EAAA7A9B8B7D609EF" /><Stop Id="0402" routeId="35" nameZh="干城站" seqNo="38" pgp="0" terminal="0" districtId="1" GoBack="2" latitude="24.14096" longitude="120.68593" inDis="50" outDis="50" oid="C91E7575F07B4EA796F8AE7BD908C4DD" /><Stop Id="1824" routeId="35" nameZh="臺中火車站" seqNo="39" pgp="0" terminal="0" districtId="1" GoBack="2" latitude="24.13753" longitude="120.68442" inDis="50" outDis="50" oid="AD805F2B8F9D4CF098F7320F4A45475A" /><Stop Id="0049" routeId="35" nameZh="第三市場(臺中家商)" seqNo="40" pgp="0" terminal="0" districtId="1" GoBack="2" latitude="24.13286" longitude="120.68366" inDis="50" outDis="50" oid="A92CAF471ECF410595E6D430FDAAC90A" /><Stop Id="0257" routeId="35" nameZh="臺中國小" seqNo="41" pgp="0" terminal="0" districtId="1" GoBack="2" latitude="24.13041" longitude="120.68493" inDis="50" outDis="50" oid="027E6C241CC94320A0294AAF7C201AC5" /><Stop Id="5607" routeId="35" nameZh="興大附農(臺中路)" seqNo="42" pgp="0" terminal="0" districtId="1" GoBack="2" latitude="24.12745" longitude="120.68439" inDis="50" outDis="50" oid="AC6F733D363246249C5854898AE506B8" /><Stop Id="0255" routeId="35" nameZh="南門仔" seqNo="43" pgp="0" terminal="0" districtId="1" GoBack="2" latitude="24.12455" longitude="120.68366" inDis="50" outDis="50" oid="6FABFA9ABA344E7AA9CC2F458E2995EB" /><Stop Id="5112" routeId="35" nameZh="明德高中(臺中路)" seqNo="44" pgp="0" terminal="0" districtId="1" GoBack="2" latitude="24.1228" longitude="120.68407" inDis="50" outDis="50" oid="44E1581B6B204E55B29CE1D3BC32ECAE" /><Stop Id="5598" routeId="35" nameZh="興大二村" seqNo="45" pgp="0" terminal="0" districtId="1" GoBack="2" latitude="24.12243" longitude="120.68149" inDis="50" outDis="50" oid="089C66E2B5584620814112E6B4BE6209" /><Stop Id="5376" routeId="35" nameZh="興大郵局" seqNo="47" pgp="0" terminal="0" districtId="1" GoBack="2" latitude="24.1227" longitude="120.67946" inDis="50" outDis="50" oid="312432977" /><Stop Id="0037" routeId="35" nameZh="中興大學(興大路)" seqNo="48" pgp="0" terminal="0" districtId="1" GoBack="2" latitude="24.12425" longitude="120.67584" inDis="50" outDis="50" oid="3D38F2BD612C4D0B9648DEE42484CD3E" /><Stop Id="5075" routeId="35" nameZh="建成學府路口" seqNo="49" pgp="0" terminal="0" districtId="1" GoBack="2" latitude="24.12657" longitude="120.6744" inDis="50" outDis="50" oid="36CFB6F7374D416F98288FEF3547EADE" /><Stop Id="5394" routeId="35" nameZh="公共資訊圖書館(建成路)" seqNo="50" pgp="0" terminal="0" districtId="1" GoBack="2" latitude="24.12651" longitude="120.67218" inDis="50" outDis="50" oid="312954999" /><Stop Id="0247" routeId="35" nameZh="五權南永和街口" seqNo="51" pgp="0" terminal="0" districtId="1" GoBack="2" latitude="24.12512" longitude="120.6701" inDis="50" outDis="50" oid="5766AA34F7A442B7A045291F5E3BC0D5" /><Stop Id="0246" routeId="35" nameZh="永和社區" seqNo="52" pgp="0" terminal="0" districtId="1" GoBack="2" latitude="24.12222" longitude="120.66994" inDis="50" outDis="50" oid="C3BCB1FC8CBC48DC8EAD2200D838ACE7" /><Stop Id="0863" routeId="35" nameZh="信義國小(五權南路)" seqNo="53" pgp="0" terminal="0" districtId="1" GoBack="2" latitude="24.12141" longitude="120.66995" inDis="50" outDis="50" oid="C308BBB8A5B5439990E07237A9CFDAD1" /><Stop Id="1902" routeId="35" nameZh="平和里" seqNo="54" pgp="0" terminal="0" districtId="1" GoBack="2" latitude="24.12011" longitude="120.66999" inDis="50" outDis="50" oid="311502857" /><Stop Id="4539" routeId="35" nameZh="五權南忠明南路口" seqNo="55" pgp="0" terminal="0" districtId="1" GoBack="2" latitude="24.11853" longitude="120.66999" inDis="50" outDis="50" oid="050CDB866B4B45D88003EA570D55BA32" /><Stop Id="0034" routeId="35" nameZh="永和國宅" seqNo="56" pgp="0" terminal="0" districtId="1" GoBack="2" latitude="24.11701" longitude="120.66998" inDis="50" outDis="50" oid="23E5C6E22D03451DB06C4D814AA03B40" /><Stop Id="0243" routeId="35" nameZh="下橋仔" seqNo="57" pgp="0" terminal="0" districtId="1" GoBack="2" latitude="24.11543" longitude="120.67004" inDis="50" outDis="50" oid="3345AE03D65F4A8E9579C3D14645E386" /><Stop Id="4367" routeId="35" nameZh="僑泰中學(高工路)" seqNo="58" pgp="0" terminal="0" districtId="1" GoBack="2" latitude="24.11442" longitude="120.66796" inDis="50" outDis="50" oid="84C89EA44AC44AB38ED55A1C63DF4201" /><Stop Id="4258" routeId="35" nameZh="工學一街口" seqNo="59" pgp="0" terminal="0" districtId="1" GoBack="2" latitude="24.11401" longitude="120.66582" inDis="50" outDis="50" oid="304914051" /><Stop Id="4537" routeId="35" nameZh="臺中高工(高工路)" seqNo="60" pgp="0" terminal="0" districtId="1" GoBack="2" latitude="24.11318" longitude="120.66213" inDis="50" outDis="50" oid="54285B539A3240379BB547ECBF84520B" /><Stop Id="5474" routeId="35" nameZh="臺中高工(工學六街)" seqNo="61" pgp="0" terminal="0" districtId="1" GoBack="2" latitude="24.11667" longitude="120.66048" inDis="50" outDis="50" oid="314316879" /><Stop Id="0181" routeId="35" nameZh="南區公所" seqNo="62" pgp="0" terminal="0" districtId="1" GoBack="2" latitude="24.11704" longitude="120.66348" inDis="50" outDis="50" oid="F861E73478194801A0C67A1A0437224D" /></BusInfo></BusDynInfo>