[
  {
    "type": "Feature",
    "geometry": {
      "type": "Point",
      "coordinates": [
        120.66997,
        24.13925
      ]
    },
    "properties": {
      "id": "5857",
      "name": "忠信國小(柳川西路)",
      "seq": 1
    }
  },
  {
    "type": "Feature",
    "geometry": {
      "type": "Point",
      "coordinates": [
        120.6727,
        24.14082
      ]
    },
    "properties": {
      "id": "5708",
      "name": "柳川西民生路口",
      "seq": 2
    }
  },
  {
    "type": "Feature",
    "geometry": {
      "type": "Point",
      "coordinates": [
        120.6765,
        24.14097
      ]
    },
    "properties": {
      "id": "0208",
      "name": "臺中醫院",
      "seq": 3
    }
  },
  {
    "type": "Feature",
    "geometry": {
      "type": "Point",
      "coordinates": [
        120.67842,
        24.13896
      ]
    },
    "properties": {
      "id": "4416",
      "name": "臺中州廳",
      "seq": 4
    }
  },
  {
    "type": "Feature",
    "geometry": {
      "type": "Point",
      "coordinates": [
        120.68095,
        24.13706
      ]
    },
    "properties": {
      "id": "4284",
      "name": "民權繼光街口",
      "seq": 5
    }
  },
  {
    "type": "Feature",
    "geometry": {
      "type": "Point",
      "coordinates": [
        120.68466,
        24.1374
      ]
    },
    "properties": {
      "id": "1824",
      "name": "臺中火車站",
      "seq": 6
    }
  },
  {
    "type": "Feature",
    "geometry": {
      "type": "Point",
      "coordinates": [
        120.68606,
        24.14099
      ]
    },
    "properties": {
      "id": "0402",
      "name": "干城站",
      "seq": 7
    }
  },
  {
    "type": "Feature",
    "geometry": {
      "type": "Point",
      "coordinates": [
        120.68604,
        24.14261
      ]
    },
    "properties": {
      "id": "4561",
      "name": "立體停車場(雙十路)",
      "seq": 8
    }
  },
  {
    "type": "Feature",
    "geometry": {
      "type": "Point",
      "coordinates": [
        120.68611,
        24.14404
      ]
    },
    "properties": {
      "id": "4544",
      "name": "臺中公園(雙十路)",
      "seq": 9
    }
  },
  {
    "type": "Feature",
    "geometry": {
      "type": "Point",
      "coordinates": [
        120.68448,
        24.14626
      ]
    },
    "properties": {
      "id": "1513",
      "name": "中興堂",
      "seq": 10
    }
  },
  {
    "type": "Feature",
    "geometry": {
      "type": "Point",
      "coordinates": [
        120.68399,
        24.14952
      ]
    },
    "properties": {
      "id": "0045",
      "name": "國立臺中科技大學",
      "seq": 11
    }
  },
  {
    "type": "Feature",
    "geometry": {
      "type": "Point",
      "coordinates": [
        120.68507,
        24.15252
      ]
    },
    "properties": {
      "id": "0046",
      "name": "中友百貨",
      "seq": 12
    }
  },
  {
    "type": "Feature",
    "geometry": {
      "type": "Point",
      "coordinates": [
        120.68376,
        24.15384
      ]
    },
    "properties": {
      "id": "3772",
      "name": "五權學士路口",
      "seq": 14
    }
  },
  {
    "type": "Feature",
    "geometry": {
      "type": "Point",
      "coordinates": [
        120.6818,
        24.15526
      ]
    },
    "properties": {
      "id": "0406",
      "name": "中山堂",
      "seq": 15
    }
  },
  {
    "type": "Feature",
    "geometry": {
      "type": "Point",
      "coordinates": [
        120.68141,
        24.15652
      ]
    },
    "properties": {
      "id": "0426",
      "name": "中國醫藥大學",
      "seq": 16
    }
  },
  {
    "type": "Feature",
    "geometry": {
      "type": "Point",
      "coordinates": [
        120.68087,
        24.15938
      ]
    },
    "properties": {
      "id": "4575",
      "name": "學士健行路口",
      "seq": 17
    }
  },
  {
    "type": "Feature",
    "geometry": {
      "type": "Point",
      "coordinates": [
        120.68088,
        24.1615
      ]
    },
    "properties": {
      "id": "4577",
      "name": "學士德化街口",
      "seq": 18
    }
  },
  {
    "type": "Feature",
    "geometry": {
      "type": "Point",
      "coordinates": [
        120.68023,
        24.16319
      ]
    },
    "properties": {
      "id": "0920",
      "name": "衛道新世界",
      "seq": 19
    }
  },
  {
    "type": "Feature",
    "geometry": {
      "type": "Point",
      "coordinates": [
        120.67598,
        24.16328
      ]
    },
    "properties": {
      "id": "4625",
      "name": "大道公廟(進化北路)",
      "seq": 20
    }
  },
  {
    "type": "Feature",
    "geometry": {
      "type": "Point",
      "coordinates": [
        120.6723,
        24.16301
      ]
    },
    "properties": {
      "id": "5513",
      "name": "八0三醫院中清分院",
      "seq": 21
    }
  },
  {
    "type": "Feature",
    "geometry": {
      "type": "Point",
      "coordinates": [
        120.66766,
        24.16295
      ]
    },
    "properties": {
      "id": "2343",
      "name": "忠明忠太東路口",
      "seq": 22
    }
  },
  {
    "type": "Feature",
    "geometry": {
      "type": "Point",
      "coordinates": [
        120.66453,
        24.16242
      ]
    },
    "properties": {
      "id": "4633",
      "name": "忠明西屯路口",
      "seq": 23
    }
  },
  {
    "type": "Feature",
    "geometry": {
      "type": "Point",
      "coordinates": [
        120.66317,
        24.1635
      ]
    },
    "properties": {
      "id": "4341",
      "name": "西屯太原路口",
      "seq": 24
    }
  },
  {
    "type": "Feature",
    "geometry": {
      "type": "Point",
      "coordinates": [
        120.66111,
        24.16398
      ]
    },
    "properties": {
      "id": "4570",
      "name": "頂何厝(西屯路)",
      "seq": 25
    }
  },
  {
    "type": "Feature",
    "geometry": {
      "type": "Point",
      "coordinates": [
        120.65952,
        24.16445
      ]
    },
    "properties": {
      "id": "0836",
      "name": "華港新城",
      "seq": 26
    }
  },
  {
    "type": "Feature",
    "geometry": {
      "type": "Point",
      "coordinates": [
        120.65762,
        24.165
      ]
    },
    "properties": {
      "id": "4567",
      "name": "何厝(西屯路)",
      "seq": 27
    }
  },
  {
    "type": "Feature",
    "geometry": {
      "type": "Point",
      "coordinates": [
        120.6556,
        24.16568
      ]
    },
    "properties": {
      "id": "0268",
      "name": "勤美社區",
      "seq": 28
    }
  },
  {
    "type": "Feature",
    "geometry": {
      "type": "Point",
      "coordinates": [
        120.65419,
        24.16609
      ]
    },
    "properties": {
      "id": "0269",
      "name": "西屯文心路口",
      "seq": 29
    }
  },
  {
    "type": "Feature",
    "geometry": {
      "type": "Point",
      "coordinates": [
        120.65176,
        24.16674
      ]
    },
    "properties": {
      "id": "4621",
      "name": "西屯洛陽路口",
      "seq": 30
    }
  },
  {
    "type": "Feature",
    "geometry": {
      "type": "Point",
      "coordinates": [
        120.64959,
        24.16792
      ]
    },
    "properties": {
      "id": "5749",
      "name": "惠民公園",
      "seq": 31
    }
  },
  {
    "type": "Feature",
    "geometry": {
      "type": "Point",
      "coordinates": [
        120.64815,
        24.16939
      ]
    },
    "properties": {
      "id": "0272",
      "name": "西屯惠中路口",
      "seq": 32
    }
  },
  {
    "type": "Feature",
    "geometry": {
      "type": "Point",
      "coordinates": [
        120.64718,
        24.17066
      ]
    },
    "properties": {
      "id": "0273",
      "name": "上石里",
      "seq": 33
    }
  },
  {
    "type": "Feature",
    "geometry": {
      "type": "Point",
      "coordinates": [
        120.64634,
        24.1716
      ]
    },
    "properties": {
      "id": "0274",
      "name": "西屯上石路口",
      "seq": 34
    }
  },
  {
    "type": "Feature",
    "geometry": {
      "type": "Point",
      "coordinates": [
        120.6448,
        24.17317
      ]
    },
    "properties": {
      "id": "4600",
      "name": "西屯河南路口",
      "seq": 35
    }
  },
  {
    "type": "Feature",
    "geometry": {
      "type": "Point",
      "coordinates": [
        120.64447,
        24.17419
      ]
    },
    "properties": {
      "id": "0803",
      "name": "頂湳仔",
      "seq": 36
    }
  },
  {
    "type": "Feature",
    "geometry": {
      "type": "Point",
      "coordinates": [
        120.64361,
        24.1764
      ]
    },
    "properties": {
      "id": "0337",
      "name": "下湳仔",
      "seq": 37
    }
  },
  {
    "type": "Feature",
    "geometry": {
      "type": "Point",
      "coordinates": [
        120.64275,
        24.17738
      ]
    },
    "properties": {
      "id": "0361",
      "name": "大漁池",
      "seq": 38
    }
  },
  {
    "type": "Feature",
    "geometry": {
      "type": "Point",
      "coordinates": [
        120.64415,
        24.1787
      ]
    },
    "properties": {
      "id": "4585",
      "name": "逢甲大學(逢甲路)",
      "seq": 39
    }
  },
  {
    "type": "Feature",
    "geometry": {
      "type": "Point",
      "coordinates": [
        120.64506,
        24.17941
      ]
    },
    "properties": {
      "id": "4586",
      "name": "逢甲大學(福星路)",
      "seq": 40
    }
  },
  {
    "type": "Feature",
    "geometry": {
      "type": "Point",
      "coordinates": [
        120.64482,
        24.18151
      ]
    },
    "properties": {
      "id": "4334",
      "name": "福星西安街口",
      "seq": 41
    }
  },
  {
    "type": "Feature",
    "geometry": {
      "type": "Point",
      "coordinates": [
        120.64473,
        24.18387
      ]
    },
    "properties": {
      "id": "5658",
      "name": "漢翔公司(星享道)",
      "seq": 42
    }
  },
  {
    "type": "Feature",
    "geometry": {
      "type": "Point",
      "coordinates": [
        120.64435,
        24.18685
      ]
    },
    "properties": {
      "id": "4327",
      "name": "僑光科技大學",
      "seq": 43
    }
  },
  {
    "type": "Feature",
    "geometry": {
      "type": "Point",
      "coordinates": [
        120.64196,
        24.18731
      ]
    },
    "properties": {
      "id": "5954",
      "name": "福星北西苑路口",
      "seq": 44
    }
  },
  {
    "type": "Feature",
    "geometry": {
      "type": "Point",
      "coordinates": [
        120.6403,
        24.18621
      ]
    },
    "properties": {
      "id": "2192",
      "name": "西苑高中",
      "seq": 45
    }
  },
  {
    "type": "Feature",
    "geometry": {
      "type": "Point",
      "coordinates": [
        120.64166,
        24.18505
      ]
    },
    "properties": {
      "id": "5409",
      "name": "文修停車場",
      "seq": 46
    }
  },
  {
    "type": "Feature",
    "geometry": {
      "type": "Point",
      "coordinates": [
        120.64166,
        24.18505
      ]
    },
    "properties": {
      "id": "5409",
      "name": "文修停車場",
      "seq": 1
    }
  },
  {
    "type": "Feature",
    "geometry": {
      "type": "Point",
      "coordinates": [
        120.6403,
        24.18621
      ]
    },
    "properties": {
      "id": "2192",
      "name": "西苑高中",
      "seq": 2
    }
  },
  {
    "type": "Feature",
    "geometry": {
      "type": "Point",
      "coordinates": [
        120.64188,
        24.18722
      ]
    },
    "properties": {
      "id": "5954",
      "name": "福星北西苑路口",
      "seq": 3
    }
  },
  {
    "type": "Feature",
    "geometry": {
      "type": "Point",
      "coordinates": [
        120.64442,
        24.1865
      ]
    },
    "properties": {
      "id": "4327",
      "name": "僑光科技大學",
      "seq": 4
    }
  },
  {
    "type": "Feature",
    "geometry": {
      "type": "Point",
      "coordinates": [
        120.64473,
        24.18387
      ]
    },
    "properties": {
      "id": "5658",
      "name": "漢翔公司(星享道)",
      "seq": 5
    }
  },
  {
    "type": "Feature",
    "geometry": {
      "type": "Point",
      "coordinates": [
        120.64502,
        24.18151
      ]
    },
    "properties": {
      "id": "4334",
      "name": "福星西安街口",
      "seq": 6
    }
  },
  {
    "type": "Feature",
    "geometry": {
      "type": "Point",
      "coordinates": [
        120.64508,
        24.17938
      ]
    },
    "properties": {
      "id": "4586",
      "name": "逢甲大學(福星路)",
      "seq": 7
    }
  },
  {
    "type": "Feature",
    "geometry": {
      "type": "Point",
      "coordinates": [
        120.64427,
        24.17879
      ]
    },
    "properties": {
      "id": "4585",
      "name": "逢甲大學(逢甲路)",
      "seq": 8
    }
  },
  {
    "type": "Feature",
    "geometry": {
      "type": "Point",
      "coordinates": [
        120.64263,
        24.1774
      ]
    },
    "properties": {
      "id": "0361",
      "name": "大漁池",
      "seq": 9
    }
  },
  {
    "type": "Feature",
    "geometry": {
      "type": "Point",
      "coordinates": [
        120.64359,
        24.17644
      ]
    },
    "properties": {
      "id": "0337",
      "name": "下湳仔",
      "seq": 10
    }
  },
  {
    "type": "Feature",
    "geometry": {
      "type": "Point",
      "coordinates": [
        120.64446,
        24.17439
      ]
    },
    "properties": {
      "id": "0803",
      "name": "頂湳仔",
      "seq": 11
    }
  },
  {
    "type": "Feature",
    "geometry": {
      "type": "Point",
      "coordinates": [
        120.64494,
        24.17317
      ]
    },
    "properties": {
      "id": "4600",
      "name": "西屯河南路口",
      "seq": 12
    }
  },
  {
    "type": "Feature",
    "geometry": {
      "type": "Point",
      "coordinates": [
        120.64638,
        24.17143
      ]
    },
    "properties": {
      "id": "0274",
      "name": "西屯上石路口",
      "seq": 13
    }
  },
  {
    "type": "Feature",
    "geometry": {
      "type": "Point",
      "coordinates": [
        120.64716,
        24.17064
      ]
    },
    "properties": {
      "id": "0273",
      "name": "上石里",
      "seq": 14
    }
  },
  {
    "type": "Feature",
    "geometry": {
      "type": "Point",
      "coordinates": [
        120.64867,
        24.16895
      ]
    },
    "properties": {
      "id": "0272",
      "name": "西屯惠中路口",
      "seq": 15
    }
  },
  {
    "type": "Feature",
    "geometry": {
      "type": "Point",
      "coordinates": [
        120.64952,
        24.16792
      ]
    },
    "properties": {
      "id": "5749",
      "name": "惠民公園",
      "seq": 16
    }
  },
  {
    "type": "Feature",
    "geometry": {
      "type": "Point",
      "coordinates": [
        120.65186,
        24.16678
      ]
    },
    "properties": {
      "id": "4621",
      "name": "西屯洛陽路口",
      "seq": 17
    }
  },
  {
    "type": "Feature",
    "geometry": {
      "type": "Point",
      "coordinates": [
        120.65441,
        24.16601
      ]
    },
    "properties": {
      "id": "0269",
      "name": "西屯文心路口",
      "seq": 18
    }
  },
  {
    "type": "Feature",
    "geometry": {
      "type": "Point",
      "coordinates": [
        120.65581,
        24.16569
      ]
    },
    "properties": {
      "id": "0268",
      "name": "勤美社區",
      "seq": 19
    }
  },
  {
    "type": "Feature",
    "geometry": {
      "type": "Point",
      "coordinates": [
        120.6575,
        24.16495
      ]
    },
    "properties": {
      "id": "4567",
      "name": "何厝(西屯路)",
      "seq": 20
    }
  },
  {
    "type": "Feature",
    "geometry": {
      "type": "Point",
      "coordinates": [
        120.65945,
        24.16446
      ]
    },
    "properties": {
      "id": "0836",
      "name": "華港新城",
      "seq": 21
    }
  },
  {
    "type": "Feature",
    "geometry": {
      "type": "Point",
      "coordinates": [
        120.66109,
        24.16411
      ]
    },
    "properties": {
      "id": "4570",
      "name": "頂何厝(西屯路)",
      "seq": 22
    }
  },
  {
    "type": "Feature",
    "geometry": {
      "type": "Point",
      "coordinates": [
        120.66288,
        24.16347
      ]
    },
    "properties": {
      "id": "4341",
      "name": "西屯太原路口",
      "seq": 23
    }
  },
  {
    "type": "Feature",
    "geometry": {
      "type": "Point",
      "coordinates": [
        120.66471,
        24.16233
      ]
    },
    "properties": {
      "id": "4633",
      "name": "忠明西屯路口",
      "seq": 24
    }
  },
  {
    "type": "Feature",
    "geometry": {
      "type": "Point",
      "coordinates": [
        120.6676,
        24.16286
      ]
    },
    "properties": {
      "id": "2343",
      "name": "忠明忠太東路口",
      "seq": 25
    }
  },
  {
    "type": "Feature",
    "geometry": {
      "type": "Point",
      "coordinates": [
        120.67212,
        24.16284
      ]
    },
    "properties": {
      "id": "5513",
      "name": "八0三醫院中清分院",
      "seq": 26
    }
  },
  {
    "type": "Feature",
    "geometry": {
      "type": "Point",
      "coordinates": [
        120.6762,
        24.16314
      ]
    },
    "properties": {
      "id": "4625",
      "name": "大道公廟(進化北路)",
      "seq": 27
    }
  },
  {
    "type": "Feature",
    "geometry": {
      "type": "Point",
      "coordinates": [
        120.68027,
        24.16311
      ]
    },
    "properties": {
      "id": "0920",
      "name": "衛道新世界",
      "seq": 28
    }
  },
  {
    "type": "Feature",
    "geometry": {
      "type": "Point",
      "coordinates": [
        120.68091,
        24.16144
      ]
    },
    "properties": {
      "id": "4577",
      "name": "學士德化街口",
      "seq": 29
    }
  },
  {
    "type": "Feature",
    "geometry": {
      "type": "Point",
      "coordinates": [
        120.68093,
        24.15946
      ]
    },
    "properties": {
      "id": "4575",
      "name": "學士健行路口",
      "seq": 30
    }
  },
  {
    "type": "Feature",
    "geometry": {
      "type": "Point",
      "coordinates": [
        120.68125,
        24.15674
      ]
    },
    "properties": {
      "id": "0426",
      "name": "中國醫藥大學",
      "seq": 31
    }
  },
  {
    "type": "Feature",
    "geometry": {
      "type": "Point",
      "coordinates": [
        120.68175,
        24.15518
      ]
    },
    "properties": {
      "id": "0406",
      "name": "中山堂",
      "seq": 32
    }
  },
  {
    "type": "Feature",
    "geometry": {
      "type": "Point",
      "coordinates": [
        120.68396,
        24.15362
      ]
    },
    "properties": {
      "id": "3772",
      "name": "五權學士路口",
      "seq": 33
    }
  },
  {
    "type": "Feature",
    "geometry": {
      "type": "Point",
      "coordinates": [
        120.68569,
        24.15387
      ]
    },
    "properties": {
      "id": "0047",
      "name": "一心市場",
      "seq": 34
    }
  },
  {
    "type": "Feature",
    "geometry": {
      "type": "Point",
      "coordinates": [
        120.68484,
        24.15177
      ]
    },
    "properties": {
      "id": "0046",
      "name": "中友百貨",
      "seq": 35
    }
  },
  {
    "type": "Feature",
    "geometry": {
      "type": "Point",
      "coordinates": [
        120.68377,
        24.14926
      ]
    },
    "properties": {
      "id": "0045",
      "name": "國立臺中科技大學",
      "seq": 36
    }
  },
  {
    "type": "Feature",
    "geometry": {
      "type": "Point",
      "coordinates": [
        120.68463,
        24.14621
      ]
    },
    "properties": {
      "id": "1513",
      "name": "中興堂",
      "seq": 37
    }
  },
  {
    "type": "Feature",
    "geometry": {
      "type": "Point",
      "coordinates": [
        120.68587,
        24.14422
      ]
    },
    "properties": {
      "id": "4544",
      "name": "臺中公園(雙十路)",
      "seq": 38
    }
  },
  {
    "type": "Feature",
    "geometry": {
      "type": "Point",
      "coordinates": [
        120.68593,
        24.14096
      ]
    },
    "properties": {
      "id": "0402",
      "name": "干城站",
      "seq": 39
    }
  },
  {
    "type": "Feature",
    "geometry": {
      "type": "Point",
      "coordinates": [
        120.6855,
        24.13818
      ]
    },
    "properties": {
      "id": "1824",
      "name": "臺中火車站",
      "seq": 40
    }
  },
  {
    "type": "Feature",
    "geometry": {
      "type": "Point",
      "coordinates": [
        120.68095,
        24.13706
      ]
    },
    "properties": {
      "id": "4284",
      "name": "民權繼光街口",
      "seq": 41
    }
  },
  {
    "type": "Feature",
    "geometry": {
      "type": "Point",
      "coordinates": [
        120.67847,
        24.13918
      ]
    },
    "properties": {
      "id": "4416",
      "name": "臺中州廳",
      "seq": 42
    }
  },
  {
    "type": "Feature",
    "geometry": {
      "type": "Point",
      "coordinates": [
        120.6765,
        24.14097
      ]
    },
    "properties": {
      "id": "0208",
      "name": "臺中醫院",
      "seq": 43
    }
  },
  {
    "type": "Feature",
    "geometry": {
      "type": "Point",
      "coordinates": [
        120.6727,
        24.14082
      ]
    },
    "properties": {
      "id": "5708",
      "name": "柳川西民生路口",
      "seq": 44
    }
  },
  {
    "type": "Feature",
    "geometry": {
      "type": "Point",
      "coordinates": [
        120.67043,
        24.13898
      ]
    },
    "properties": {
      "id": "5857",
      "name": "忠信國小(柳川西路)",
      "seq": 45
    }
  }
]
