<?xml version="1.0" encoding="UTF-8" standalone="yes"?>
<BusDynInfo><EssentialInfo><Location><name>TCBUS</name><CenterName>Maxwin</CenterName></Location><UpdateTime>2014-12-20 08:01:24</UpdateTime><CoordinateSystem/></EssentialInfo>
<BusInfo><Stop Id="0170" routeId="157" nameZh="向上惠文路口" seqNo="1" pgp="0" terminal="0" districtId="1" GoBack="1" latitude="24.14683" longitude="120.64344" inDis="50" outDis="50" oid="7558F57B40844F41875C7F1DE25A5F60" /><Stop Id="4268" routeId="157" nameZh="文心公益路口" seqNo="2" pgp="0" terminal="0" districtId="1" GoBack="1" latitude="24.15032" longitude="120.64664" inDis="50" outDis="50" oid="318982183" /><Stop Id="4270" routeId="157" nameZh="文心市政路口" seqNo="3" pgp="0" terminal="0" districtId="1" GoBack="1" latitude="24.15431" longitude="120.64675" inDis="50" outDis="50" oid="318982181" /><Stop Id="1433" routeId="157" nameZh="中央健保局(文心路)" seqNo="4" pgp="0" terminal="0" districtId="1" GoBack="1" latitude="24.15746" longitude="120.64668" inDis="50" outDis="50" oid="318982179" /><Stop Id="0019" routeId="157" nameZh="市警局" seqNo="5" pgp="0" terminal="0" districtId="1" GoBack="1" latitude="24.15979" longitude="120.6475" inDis="50" outDis="50" oid="318982177" /><Stop Id="4266" routeId="157" nameZh="文心臺灣大道口" seqNo="6" pgp="0" terminal="0" districtId="1" GoBack="1" latitude="24.16142" longitude="120.64862" inDis="50" outDis="50" oid="318982175" /><Stop Id="0017" routeId="157" nameZh="臺中市政府" seqNo="7" pgp="0" terminal="0" districtId="1" GoBack="1" latitude="24.16332" longitude="120.648" inDis="50" outDis="50" oid="318982173" /><Stop Id="0016" routeId="157" nameZh="新光三越" seqNo="8" pgp="0" terminal="0" districtId="1" GoBack="1" latitude="24.16569" longitude="120.64422" inDis="50" outDis="50" oid="318982171" /><Stop Id="0015" routeId="157" nameZh="教師新村" seqNo="9" pgp="0" terminal="0" districtId="1" GoBack="1" latitude="24.16701" longitude="120.64159" inDis="50" outDis="50" oid="318982169" /><Stop Id="4530" routeId="157" nameZh="河南臺灣大道口" seqNo="10" pgp="0" terminal="0" districtId="1" GoBack="1" latitude="24.16844" longitude="120.64149" inDis="50" outDis="50" oid="319144597" /><Stop Id="4428" routeId="157" nameZh="青海上仁街口" seqNo="11" pgp="0" terminal="0" districtId="1" GoBack="1" latitude="24.17206" longitude="120.64326" inDis="50" outDis="50" oid="318982163" /><Stop Id="4614" routeId="157" nameZh="至善國中(青海路)" seqNo="12" pgp="0" terminal="0" districtId="1" GoBack="1" latitude="24.17385" longitude="120.64082" inDis="50" outDis="50" oid="318982161" /><Stop Id="5657" routeId="157" nameZh="至善國中(逢甲路)" seqNo="13" pgp="0" terminal="0" districtId="1" GoBack="1" latitude="24.17563" longitude="120.64033" inDis="50" outDis="50" oid="318989076" /><Stop Id="4585" routeId="157" nameZh="逢甲大學(逢甲路)" seqNo="14" pgp="0" terminal="0" districtId="1" GoBack="1" latitude="24.17822" longitude="120.64325" inDis="50" outDis="50" oid="318989078" /><Stop Id="4586" routeId="157" nameZh="逢甲大學(福星路)" seqNo="15" pgp="0" terminal="0" districtId="1" GoBack="1" latitude="24.17941" longitude="120.64506" inDis="50" outDis="50" oid="318989080" /><Stop Id="4334" routeId="157" nameZh="福星西安街口" seqNo="16" pgp="0" terminal="0" districtId="1" GoBack="1" latitude="24.18155" longitude="120.64505" inDis="50" outDis="50" oid="318989082" /><Stop Id="5658" routeId="157" nameZh="漢翔公司(星享道)" seqNo="17" pgp="0" terminal="0" districtId="1" GoBack="1" latitude="24.18421" longitude="120.64472" inDis="50" outDis="50" oid="318989084" /><Stop Id="4327" routeId="157" nameZh="僑光科技大學" seqNo="18" pgp="0" terminal="0" districtId="1" GoBack="1" latitude="24.18661" longitude="120.64441" inDis="50" outDis="50" oid="AFB98D0729204A6CBF7FABD859BEE4EF" /><Stop Id="1475" routeId="157" nameZh="中清環中路口" seqNo="19" pgp="0" terminal="0" districtId="1" GoBack="1" latitude="24.19826" longitude="120.65636" inDis="40" outDis="40" oid="3573" /><Stop Id="1278" routeId="157" nameZh="大甲東新城" seqNo="31" pgp="0" terminal="0" districtId="1" GoBack="1" latitude="24.34202" longitude="120.63847" inDis="50" outDis="50" oid="5218" /><Stop Id="2417" routeId="157" nameZh="東泰新城" seqNo="32" pgp="0" terminal="0" districtId="1" GoBack="1" latitude="24.34323" longitude="120.63656" inDis="50" outDis="50" oid="5893" /><Stop Id="5339" routeId="157" nameZh="甲工入口" seqNo="33" pgp="0" terminal="0" districtId="1" GoBack="1" latitude="24.34568" longitude="120.63244" inDis="50" outDis="50" oid="311364974" /><Stop Id="0509" routeId="157" nameZh="東陽國小" seqNo="34" pgp="0" terminal="0" districtId="1" GoBack="1" latitude="24.3412" longitude="120.6298" inDis="50" outDis="50" oid="319530978" /><Stop Id="4899" routeId="157" nameZh="致用高中" seqNo="35" pgp="0" terminal="0" districtId="1" GoBack="1" latitude="24.34018" longitude="120.63027" inDis="50" outDis="50" oid="4098" /><Stop Id="0275" routeId="157" nameZh="幸福公園" seqNo="36" pgp="0" terminal="0" districtId="1" GoBack="1" latitude="24.34089" longitude="120.63367" inDis="50" outDis="50" oid="4045" /><Stop Id="0270" routeId="157" nameZh="甲東路36巷口" seqNo="37" pgp="0" terminal="0" districtId="1" GoBack="1" latitude="24.34153" longitude="120.6367" inDis="50" outDis="50" oid="4044" /><Stop Id="0510" routeId="157" nameZh="外埔國中" seqNo="38" pgp="0" terminal="0" districtId="1" GoBack="1" latitude="24.33272" longitude="120.64934" inDis="50" outDis="50" oid="319530977" /><Stop Id="1865" routeId="157" nameZh="外埔" seqNo="39" pgp="0" terminal="0" districtId="1" GoBack="1" latitude="24.3326" longitude="120.65249" inDis="50" outDis="50" oid="4041" /><Stop Id="1867" routeId="157" nameZh="外埔郵局" seqNo="40" pgp="0" terminal="0" districtId="1" GoBack="1" latitude="24.32949" longitude="120.65574" inDis="50" outDis="50" oid="5589" /><Stop Id="3548" routeId="157" nameZh="外埔區公所" seqNo="41" pgp="0" terminal="0" districtId="1" GoBack="1" latitude="24.33195" longitude="120.65452" inDis="50" outDis="50" oid="4040" /><Stop Id="3548" routeId="157" nameZh="外埔區公所" seqNo="1" pgp="0" terminal="0" districtId="1" GoBack="2" latitude="24.33211" longitude="120.65461" inDis="50" outDis="50" oid="4092" /><Stop Id="1867" routeId="157" nameZh="外埔郵局" seqNo="2" pgp="0" terminal="0" districtId="1" GoBack="2" latitude="24.32949" longitude="120.65574" inDis="50" outDis="50" oid="5589" /><Stop Id="1865" routeId="157" nameZh="外埔" seqNo="3" pgp="0" terminal="0" districtId="1" GoBack="2" latitude="24.33149" longitude="120.65369" inDis="50" outDis="50" oid="4093" /><Stop Id="0510" routeId="157" nameZh="外埔國中" seqNo="4" pgp="0" terminal="0" districtId="1" GoBack="2" latitude="24.33283" longitude="120.64927" inDis="50" outDis="50" oid="319540987" /><Stop Id="0270" routeId="157" nameZh="甲東路36巷口" seqNo="5" pgp="0" terminal="0" districtId="1" GoBack="2" latitude="24.34153" longitude="120.6367" inDis="50" outDis="50" oid="4096" /><Stop Id="0275" routeId="157" nameZh="幸福公園" seqNo="6" pgp="0" terminal="0" districtId="1" GoBack="2" latitude="24.34089" longitude="120.63367" inDis="50" outDis="50" oid="4097" /><Stop Id="0509" routeId="157" nameZh="東陽國小" seqNo="7" pgp="0" terminal="0" districtId="1" GoBack="2" latitude="24.34119" longitude="120.62985" inDis="50" outDis="50" oid="319540988" /><Stop Id="5339" routeId="157" nameZh="甲工入口" seqNo="8" pgp="0" terminal="0" districtId="1" GoBack="2" latitude="24.34568" longitude="120.63244" inDis="50" outDis="50" oid="311364974" /><Stop Id="2417" routeId="157" nameZh="東泰新城" seqNo="9" pgp="0" terminal="0" districtId="1" GoBack="2" latitude="24.34323" longitude="120.63656" inDis="50" outDis="50" oid="5893" /><Stop Id="1278" routeId="157" nameZh="大甲東新城" seqNo="10" pgp="0" terminal="0" districtId="1" GoBack="2" latitude="24.34202" longitude="120.63847" inDis="50" outDis="50" oid="5218" /><Stop Id="1475" routeId="157" nameZh="中清環中路口" seqNo="22" pgp="0" terminal="0" districtId="1" GoBack="2" latitude="24.19826" longitude="120.65636" inDis="40" outDis="40" oid="3573" /><Stop Id="4327" routeId="157" nameZh="僑光科技大學" seqNo="23" pgp="0" terminal="0" districtId="1" GoBack="2" latitude="24.18661" longitude="120.64441" inDis="50" outDis="50" oid="AFB98D0729204A6CBF7FABD859BEE4EF" /><Stop Id="5658" routeId="157" nameZh="漢翔公司(星享道)" seqNo="24" pgp="0" terminal="0" districtId="1" GoBack="2" latitude="24.18421" longitude="120.64472" inDis="50" outDis="50" oid="318989098" /><Stop Id="4334" routeId="157" nameZh="福星西安街口" seqNo="25" pgp="0" terminal="0" districtId="1" GoBack="2" latitude="24.18154" longitude="120.64495" inDis="50" outDis="50" oid="318989100" /><Stop Id="4586" routeId="157" nameZh="逢甲大學(福星路)" seqNo="26" pgp="0" terminal="0" districtId="1" GoBack="2" latitude="24.17938" longitude="120.64508" inDis="50" outDis="50" oid="318989102" /><Stop Id="4585" routeId="157" nameZh="逢甲大學(逢甲路)" seqNo="27" pgp="0" terminal="0" districtId="1" GoBack="2" latitude="24.17879" longitude="120.64417" inDis="50" outDis="50" oid="318989104" /><Stop Id="5657" routeId="157" nameZh="至善國中(逢甲路)" seqNo="28" pgp="0" terminal="0" districtId="1" GoBack="2" latitude="24.17554" longitude="120.64011" inDis="50" outDis="50" oid="318989106" /><Stop Id="4614" routeId="157" nameZh="至善國中(青海路)" seqNo="29" pgp="0" terminal="0" districtId="1" GoBack="2" latitude="24.17385" longitude="120.64082" inDis="50" outDis="50" oid="318982161" /><Stop Id="4428" routeId="157" nameZh="青海上仁街口" seqNo="30" pgp="0" terminal="0" districtId="1" GoBack="2" latitude="24.17206" longitude="120.64326" inDis="50" outDis="50" oid="318982209" /><Stop Id="4615" routeId="157" nameZh="河南青海路口" seqNo="31" pgp="0" terminal="0" districtId="1" GoBack="2" latitude="24.17064" longitude="120.64348" inDis="50" outDis="50" oid="319144596" /><Stop Id="4530" routeId="157" nameZh="河南臺灣大道口" seqNo="32" pgp="0" terminal="0" districtId="1" GoBack="2" latitude="24.16844" longitude="120.64149" inDis="50" outDis="50" oid="319144597" /><Stop Id="0015" routeId="157" nameZh="教師新村" seqNo="33" pgp="0" terminal="0" districtId="1" GoBack="2" latitude="24.16727" longitude="120.64202" inDis="50" outDis="50" oid="318982203" /><Stop Id="0016" routeId="157" nameZh="新光三越" seqNo="34" pgp="0" terminal="0" districtId="1" GoBack="2" latitude="24.16589" longitude="120.64426" inDis="50" outDis="50" oid="318982201" /><Stop Id="0017" routeId="157" nameZh="臺中市政府" seqNo="35" pgp="0" terminal="0" districtId="1" GoBack="2" latitude="24.16438" longitude="120.64705" inDis="50" outDis="50" oid="318982199" /><Stop Id="4266" routeId="157" nameZh="文心臺灣大道口" seqNo="36" pgp="0" terminal="0" districtId="1" GoBack="2" latitude="24.16064" longitude="120.64839" inDis="50" outDis="50" oid="318982197" /><Stop Id="0019" routeId="157" nameZh="市警局" seqNo="37" pgp="0" terminal="0" districtId="1" GoBack="2" latitude="24.15935" longitude="120.64759" inDis="50" outDis="50" oid="318982195" /><Stop Id="1433" routeId="157" nameZh="中央健保局(文心路)" seqNo="38" pgp="0" terminal="0" districtId="1" GoBack="2" latitude="24.15654" longitude="120.64696" inDis="50" outDis="50" oid="318982193" /><Stop Id="4270" routeId="157" nameZh="文心市政路口" seqNo="39" pgp="0" terminal="0" districtId="1" GoBack="2" latitude="24.15468" longitude="120.64694" inDis="50" outDis="50" oid="318982191" /><Stop Id="4268" routeId="157" nameZh="文心公益路口" seqNo="40" pgp="0" terminal="0" districtId="1" GoBack="2" latitude="24.15047" longitude="120.64684" inDis="50" outDis="50" oid="318982189" /><Stop Id="4356" routeId="157" nameZh="文心森林公園" seqNo="41" pgp="0" terminal="0" districtId="1" GoBack="2" latitude="24.14631" longitude="120.6465" inDis="50" outDis="50" oid="318982187" /><Stop Id="5477" routeId="157" nameZh="文心大墩七街口" seqNo="42" pgp="0" terminal="0" districtId="1" GoBack="2" latitude="24.14419" longitude="120.6466" inDis="50" outDis="50" oid="13279" /><Stop Id="0170" routeId="157" nameZh="向上惠文路口" seqNo="43" pgp="0" terminal="0" districtId="1" GoBack="2" latitude="24.1469" longitude="120.64342" inDis="50" outDis="50" oid="E01F52D06C3B46F8A644B5F41C8849B6" /></BusInfo></BusDynInfo>