<?xml version="1.0" encoding="UTF-8" standalone="yes"?>
<BusDynInfo><EssentialInfo><Location><name>TCBUS</name><CenterName>Maxwin</CenterName></Location><UpdateTime>2014-12-20 08:10:30</UpdateTime><CoordinateSystem/></EssentialInfo>
<BusInfo><Stop Id="2248" routeId="180" nameZh="沙鹿站" seqNo="1" pgp="0" terminal="0" districtId="1" GoBack="1" latitude="24.23783" longitude="120.56103" inDis="50" outDis="50" oid="7094" /><Stop Id="4681" routeId="180" nameZh="沙鹿市場" seqNo="2" pgp="0" terminal="0" districtId="1" GoBack="1" latitude="24.23731" longitude="120.55967" inDis="50" outDis="50" oid="313348322" /><Stop Id="4815" routeId="180" nameZh="沙鹿火車站" seqNo="3" pgp="0" terminal="0" districtId="1" GoBack="1" latitude="24.23612" longitude="120.55923" inDis="50" outDis="50" oid="313348309" /><Stop Id="4816" routeId="180" nameZh="沙鹿光田醫院" seqNo="4" pgp="0" terminal="0" districtId="1" GoBack="1" latitude="24.23492" longitude="120.55882" inDis="50" outDis="50" oid="313222697" /><Stop Id="3809" routeId="180" nameZh="興仁里" seqNo="5" pgp="0" terminal="0" districtId="1" GoBack="1" latitude="24.23027" longitude="120.5588" inDis="50" outDis="50" oid="14654" /><Stop Id="1664" routeId="180" nameZh="文光國小" seqNo="6" pgp="0" terminal="0" districtId="1" GoBack="1" latitude="24.2242" longitude="120.55734" inDis="50" outDis="50" oid="313575203" /><Stop Id="4458" routeId="180" nameZh="沙田天仁街口" seqNo="7" pgp="0" terminal="0" districtId="1" GoBack="1" latitude="24.22316" longitude="120.55692" inDis="50" outDis="50" oid="311330176" /><Stop Id="2613" routeId="180" nameZh="南勢里" seqNo="8" pgp="0" terminal="0" districtId="1" GoBack="1" latitude="24.22126" longitude="120.55613" inDis="50" outDis="50" oid="14656" /><Stop Id="4459" routeId="180" nameZh="沙田太平路口" seqNo="9" pgp="0" terminal="0" districtId="1" GoBack="1" latitude="24.21671" longitude="120.55287" inDis="50" outDis="50" oid="14657" /><Stop Id="5159" routeId="180" nameZh="龍山國小(山腳里)" seqNo="10" pgp="0" terminal="0" districtId="1" GoBack="1" latitude="24.21345" longitude="120.55164" inDis="50" outDis="50" oid="313575192" /><Stop Id="2559" routeId="180" nameZh="南山腳" seqNo="11" pgp="0" terminal="0" districtId="1" GoBack="1" latitude="24.21022" longitude="120.55056" inDis="50" outDis="50" oid="14659" /><Stop Id="4010" routeId="180" nameZh="鷺山" seqNo="12" pgp="0" terminal="0" districtId="1" GoBack="1" latitude="24.20743" longitude="120.54923" inDis="50" outDis="50" oid="14660" /><Stop Id="3850" routeId="180" nameZh="龍目井" seqNo="13" pgp="0" terminal="0" districtId="1" GoBack="1" latitude="24.20249" longitude="120.54798" inDis="50" outDis="50" oid="14661" /><Stop Id="3855" routeId="180" nameZh="龍泉" seqNo="14" pgp="0" terminal="0" districtId="1" GoBack="1" latitude="24.19936" longitude="120.54693" inDis="50" outDis="50" oid="14662" /><Stop Id="3846" routeId="180" nameZh="龍井火車站" seqNo="15" pgp="0" terminal="0" districtId="1" GoBack="1" latitude="24.19687" longitude="120.54659" inDis="50" outDis="50" oid="14663" /><Stop Id="5160" routeId="180" nameZh="龍井區公所" seqNo="16" pgp="0" terminal="0" districtId="1" GoBack="1" latitude="24.19246" longitude="120.54608" inDis="50" outDis="50" oid="14664" /><Stop Id="3847" routeId="180" nameZh="龍井加油站" seqNo="17" pgp="0" terminal="0" districtId="1" GoBack="1" latitude="24.18898" longitude="120.54574" inDis="50" outDis="50" oid="14665" /><Stop Id="3853" routeId="180" nameZh="龍崗" seqNo="18" pgp="0" terminal="0" districtId="1" GoBack="1" latitude="24.18642" longitude="120.54549" inDis="50" outDis="50" oid="14666" /><Stop Id="3031" routeId="180" nameZh="深水" seqNo="19" pgp="0" terminal="0" districtId="1" GoBack="1" latitude="24.18257" longitude="120.54554" inDis="50" outDis="50" oid="14667" /><Stop Id="2242" routeId="180" nameZh="村內入口" seqNo="20" pgp="0" terminal="0" districtId="1" GoBack="1" latitude="24.179" longitude="120.54457" inDis="50" outDis="50" oid="129902015" /><Stop Id="2144" routeId="180" nameZh="竹坑口" seqNo="21" pgp="0" terminal="0" districtId="1" GoBack="1" latitude="24.17549" longitude="120.54379" inDis="50" outDis="50" oid="14669" /><Stop Id="5482" routeId="180" nameZh="沙田中華路口" seqNo="22" pgp="0" terminal="0" districtId="1" GoBack="1" latitude="24.17399" longitude="120.54343" inDis="50" outDis="50" oid="314570080" /><Stop Id="5746" routeId="180" nameZh="山陽一站" seqNo="23" pgp="0" terminal="0" districtId="1" GoBack="1" latitude="24.1689" longitude="120.54238" inDis="50" outDis="50" oid="14671" /><Stop Id="1395" routeId="180" nameZh="山陽" seqNo="24" pgp="0" terminal="0" districtId="1" GoBack="1" latitude="24.16408" longitude="120.54283" inDis="50" outDis="50" oid="14672" /><Stop Id="4450" routeId="180" nameZh="北頂街" seqNo="25" pgp="0" terminal="0" districtId="1" GoBack="1" latitude="24.15977" longitude="120.54356" inDis="50" outDis="50" oid="14673" /><Stop Id="3157" routeId="180" nameZh="頂街" seqNo="26" pgp="0" terminal="0" districtId="1" GoBack="1" latitude="24.15796" longitude="120.54388" inDis="50" outDis="50" oid="14674" /><Stop Id="1303" routeId="180" nameZh="大肚火車站" seqNo="27" pgp="0" terminal="0" districtId="1" GoBack="1" latitude="24.15449" longitude="120.54422" inDis="50" outDis="50" oid="14675" /><Stop Id="4786" routeId="180" nameZh="大肚區公所" seqNo="28" pgp="0" terminal="0" districtId="1" GoBack="1" latitude="24.1512" longitude="120.54536" inDis="50" outDis="50" oid="14676" /><Stop Id="1302" routeId="180" nameZh="大肚" seqNo="29" pgp="0" terminal="0" districtId="1" GoBack="1" latitude="24.1498" longitude="120.54574" inDis="50" outDis="50" oid="313575198" /><Stop Id="1359" routeId="180" nameZh="大道國中" seqNo="30" pgp="0" terminal="0" districtId="1" GoBack="1" latitude="24.14613" longitude="120.54673" inDis="50" outDis="50" oid="14677" /><Stop Id="4460" routeId="180" nameZh="沙田自由路口" seqNo="31" pgp="0" terminal="0" districtId="1" GoBack="1" latitude="24.14309" longitude="120.54794" inDis="50" outDis="50" oid="14018" /><Stop Id="4491" routeId="180" nameZh="新興里" seqNo="32" pgp="0" terminal="0" districtId="1" GoBack="1" latitude="24.14073" longitude="120.54919" inDis="50" outDis="50" oid="14678" /><Stop Id="4038" routeId="180" nameZh="崁仔腳" seqNo="33" pgp="0" terminal="0" districtId="1" GoBack="1" latitude="24.13717" longitude="120.5518" inDis="50" outDis="50" oid="14679" /><Stop Id="2443" routeId="180" nameZh="東興紡織" seqNo="34" pgp="0" terminal="0" districtId="1" GoBack="1" latitude="24.13472" longitude="120.55358" inDis="50" outDis="50" oid="14680" /><Stop Id="2494" routeId="180" nameZh="社腳" seqNo="35" pgp="0" terminal="0" districtId="1" GoBack="1" latitude="24.133" longitude="120.55383" inDis="50" outDis="50" oid="14681" /><Stop Id="4869" routeId="180" nameZh="營埔" seqNo="36" pgp="0" terminal="0" districtId="1" GoBack="1" latitude="24.12759" longitude="120.55759" inDis="50" outDis="50" oid="14682" /><Stop Id="4511" routeId="180" nameZh="興國公司" seqNo="37" pgp="0" terminal="0" districtId="1" GoBack="1" latitude="24.12584" longitude="120.56034" inDis="50" outDis="50" oid="14683" /><Stop Id="2886" routeId="180" nameZh="追分郵局" seqNo="38" pgp="0" terminal="0" districtId="1" GoBack="1" latitude="24.12482" longitude="120.56207" inDis="50" outDis="50" oid="14684" /><Stop Id="1390" routeId="180" nameZh="山仔頂" seqNo="39" pgp="0" terminal="0" districtId="1" GoBack="1" latitude="24.12339" longitude="120.5645" inDis="50" outDis="50" oid="14685" /><Stop Id="4858" routeId="180" nameZh="福山" seqNo="40" pgp="0" terminal="0" districtId="1" GoBack="1" latitude="24.12271" longitude="120.56594" inDis="50" outDis="50" oid="14686" /><Stop Id="2885" routeId="180" nameZh="追分國小" seqNo="41" pgp="0" terminal="0" districtId="1" GoBack="1" latitude="24.12203" longitude="120.56812" inDis="50" outDis="50" oid="14687" /><Stop Id="2884" routeId="180" nameZh="追分" seqNo="42" pgp="0" terminal="0" districtId="1" GoBack="1" latitude="24.12114" longitude="120.57048" inDis="50" outDis="50" oid="14688" /><Stop Id="2597" routeId="180" nameZh="南追分" seqNo="43" pgp="0" terminal="0" districtId="1" GoBack="1" latitude="24.11887" longitude="120.57649" inDis="50" outDis="50" oid="14689" /><Stop Id="2941" routeId="180" nameZh="國聖井" seqNo="44" pgp="0" terminal="0" districtId="1" GoBack="1" latitude="24.0977" longitude="120.57256" inDis="50" outDis="50" oid="14711" /><Stop Id="2942" routeId="180" nameZh="國聖國小" seqNo="45" pgp="0" terminal="0" districtId="1" GoBack="1" latitude="24.09282" longitude="120.568" inDis="50" outDis="50" oid="14692" /><Stop Id="4787" routeId="180" nameZh="中庄子" seqNo="46" pgp="0" terminal="0" districtId="1" GoBack="1" latitude="24.08992" longitude="120.56621" inDis="50" outDis="50" oid="14693" /><Stop Id="5036" routeId="180" nameZh="原民館" seqNo="47" pgp="0" terminal="0" districtId="1" GoBack="1" latitude="24.0867" longitude="120.56019" inDis="50" outDis="50" oid="14694" /><Stop Id="2320" routeId="180" nameZh="和調里" seqNo="48" pgp="0" terminal="0" districtId="1" GoBack="1" latitude="24.08496" longitude="120.55521" inDis="50" outDis="50" oid="14695" /><Stop Id="4800" routeId="180" nameZh="市子尾" seqNo="49" pgp="0" terminal="0" districtId="1" GoBack="1" latitude="24.08435" longitude="120.55097" inDis="50" outDis="50" oid="14696" /><Stop Id="2534" routeId="180" nameZh="長順街口" seqNo="50" pgp="0" terminal="0" districtId="1" GoBack="1" latitude="24.08417" longitude="120.54985" inDis="50" outDis="50" oid="14697" /><Stop Id="2284" routeId="180" nameZh="車路口" seqNo="51" pgp="0" terminal="0" districtId="1" GoBack="1" latitude="24.08352" longitude="120.54639" inDis="50" outDis="50" oid="14698" /><Stop Id="0557" routeId="180" nameZh="民生路口" seqNo="52" pgp="0" terminal="0" districtId="1" GoBack="1" latitude="24.08262" longitude="120.54283" inDis="50" outDis="50" oid="14699" /><Stop Id="4856" routeId="180" nameZh="彰化站" seqNo="53" pgp="0" terminal="0" districtId="1" GoBack="1" latitude="24.08212" longitude="120.54094" inDis="50" outDis="50" oid="14700" /><Stop Id="4856" routeId="180" nameZh="彰化站" seqNo="1" pgp="0" terminal="0" districtId="1" GoBack="2" latitude="24.08212" longitude="120.54094" inDis="50" outDis="50" oid="14701" /><Stop Id="0557" routeId="180" nameZh="民生路口" seqNo="2" pgp="0" terminal="0" districtId="1" GoBack="2" latitude="24.08262" longitude="120.54283" inDis="50" outDis="50" oid="14703" /><Stop Id="2284" routeId="180" nameZh="車路口" seqNo="3" pgp="0" terminal="0" districtId="1" GoBack="2" latitude="24.08352" longitude="120.54639" inDis="50" outDis="50" oid="14704" /><Stop Id="2534" routeId="180" nameZh="長順街口" seqNo="4" pgp="0" terminal="0" districtId="1" GoBack="2" latitude="24.08417" longitude="120.54985" inDis="50" outDis="50" oid="14705" /><Stop Id="4800" routeId="180" nameZh="市子尾" seqNo="5" pgp="0" terminal="0" districtId="1" GoBack="2" latitude="24.08426" longitude="120.55101" inDis="50" outDis="50" oid="14706" /><Stop Id="2320" routeId="180" nameZh="和調里" seqNo="6" pgp="0" terminal="0" districtId="1" GoBack="2" latitude="24.08496" longitude="120.55521" inDis="50" outDis="50" oid="14707" /><Stop Id="5036" routeId="180" nameZh="原民館" seqNo="7" pgp="0" terminal="0" districtId="1" GoBack="2" latitude="24.0867" longitude="120.56019" inDis="50" outDis="50" oid="14708" /><Stop Id="4787" routeId="180" nameZh="中庄子" seqNo="8" pgp="0" terminal="0" districtId="1" GoBack="2" latitude="24.08992" longitude="120.56621" inDis="50" outDis="50" oid="14709" /><Stop Id="2942" routeId="180" nameZh="國聖國小" seqNo="9" pgp="0" terminal="0" districtId="1" GoBack="2" latitude="24.09282" longitude="120.568" inDis="50" outDis="50" oid="14710" /><Stop Id="2941" routeId="180" nameZh="國聖井" seqNo="10" pgp="0" terminal="0" districtId="1" GoBack="2" latitude="24.09741" longitude="120.57266" inDis="50" outDis="50" oid="8191" /><Stop Id="2597" routeId="180" nameZh="南追分" seqNo="11" pgp="0" terminal="0" districtId="1" GoBack="2" latitude="24.11887" longitude="120.57649" inDis="50" outDis="50" oid="14713" /><Stop Id="2884" routeId="180" nameZh="追分" seqNo="12" pgp="0" terminal="0" districtId="1" GoBack="2" latitude="24.12114" longitude="120.57048" inDis="50" outDis="50" oid="14714" /><Stop Id="2885" routeId="180" nameZh="追分國小" seqNo="13" pgp="0" terminal="0" districtId="1" GoBack="2" latitude="24.12203" longitude="120.56812" inDis="50" outDis="50" oid="14715" /><Stop Id="4858" routeId="180" nameZh="福山" seqNo="14" pgp="0" terminal="0" districtId="1" GoBack="2" latitude="24.12259" longitude="120.56624" inDis="50" outDis="50" oid="14716" /><Stop Id="1390" routeId="180" nameZh="山仔頂" seqNo="15" pgp="0" terminal="0" districtId="1" GoBack="2" latitude="24.12339" longitude="120.5645" inDis="50" outDis="50" oid="14717" /><Stop Id="2886" routeId="180" nameZh="追分郵局" seqNo="16" pgp="0" terminal="0" districtId="1" GoBack="2" latitude="24.12482" longitude="120.56207" inDis="50" outDis="50" oid="14718" /><Stop Id="4511" routeId="180" nameZh="興國公司" seqNo="17" pgp="0" terminal="0" districtId="1" GoBack="2" latitude="24.12584" longitude="120.56034" inDis="50" outDis="50" oid="14719" /><Stop Id="4869" routeId="180" nameZh="營埔" seqNo="18" pgp="0" terminal="0" districtId="1" GoBack="2" latitude="24.12759" longitude="120.55759" inDis="50" outDis="50" oid="14720" /><Stop Id="2494" routeId="180" nameZh="社腳" seqNo="19" pgp="0" terminal="0" districtId="1" GoBack="2" latitude="24.133" longitude="120.55383" inDis="50" outDis="50" oid="14721" /><Stop Id="2443" routeId="180" nameZh="東興紡織" seqNo="20" pgp="0" terminal="0" districtId="1" GoBack="2" latitude="24.13472" longitude="120.55358" inDis="50" outDis="50" oid="14722" /><Stop Id="4038" routeId="180" nameZh="崁仔腳" seqNo="21" pgp="0" terminal="0" districtId="1" GoBack="2" latitude="24.13717" longitude="120.5518" inDis="50" outDis="50" oid="14723" /><Stop Id="4491" routeId="180" nameZh="新興里" seqNo="22" pgp="0" terminal="0" districtId="1" GoBack="2" latitude="24.141" longitude="120.54916" inDis="50" outDis="50" oid="14724" /><Stop Id="4460" routeId="180" nameZh="沙田自由路口" seqNo="23" pgp="0" terminal="0" districtId="1" GoBack="2" latitude="24.14309" longitude="120.54794" inDis="50" outDis="50" oid="14018" /><Stop Id="1359" routeId="180" nameZh="大道國中" seqNo="24" pgp="0" terminal="0" districtId="1" GoBack="2" latitude="24.14613" longitude="120.54673" inDis="50" outDis="50" oid="14725" /><Stop Id="1302" routeId="180" nameZh="大肚" seqNo="25" pgp="0" terminal="0" districtId="1" GoBack="2" latitude="24.1498" longitude="120.54574" inDis="50" outDis="50" oid="313575198" /><Stop Id="4786" routeId="180" nameZh="大肚區公所" seqNo="26" pgp="0" terminal="0" districtId="1" GoBack="2" latitude="24.1512" longitude="120.54536" inDis="50" outDis="50" oid="14726" /><Stop Id="1303" routeId="180" nameZh="大肚火車站" seqNo="27" pgp="0" terminal="0" districtId="1" GoBack="2" latitude="24.15432" longitude="120.54421" inDis="50" outDis="50" oid="14727" /><Stop Id="3157" routeId="180" nameZh="頂街" seqNo="28" pgp="0" terminal="0" districtId="1" GoBack="2" latitude="24.15806" longitude="120.54393" inDis="50" outDis="50" oid="14728" /><Stop Id="4450" routeId="180" nameZh="北頂街" seqNo="29" pgp="0" terminal="0" districtId="1" GoBack="2" latitude="24.15977" longitude="120.54356" inDis="50" outDis="50" oid="14729" /><Stop Id="1395" routeId="180" nameZh="山陽" seqNo="30" pgp="0" terminal="0" districtId="1" GoBack="2" latitude="24.16408" longitude="120.54283" inDis="50" outDis="50" oid="14730" /><Stop Id="5746" routeId="180" nameZh="山陽一站" seqNo="31" pgp="0" terminal="0" districtId="1" GoBack="2" latitude="24.1689" longitude="120.54238" inDis="50" outDis="50" oid="14671" /><Stop Id="5482" routeId="180" nameZh="沙田中華路口" seqNo="32" pgp="0" terminal="0" districtId="1" GoBack="2" latitude="24.17399" longitude="120.54331" inDis="50" outDis="50" oid="314570081" /><Stop Id="2144" routeId="180" nameZh="竹坑口" seqNo="33" pgp="0" terminal="0" districtId="1" GoBack="2" latitude="24.17549" longitude="120.54379" inDis="50" outDis="50" oid="14733" /><Stop Id="2242" routeId="180" nameZh="村內入口" seqNo="34" pgp="0" terminal="0" districtId="1" GoBack="2" latitude="24.179" longitude="120.54457" inDis="50" outDis="50" oid="129902015" /><Stop Id="3031" routeId="180" nameZh="深水" seqNo="35" pgp="0" terminal="0" districtId="1" GoBack="2" latitude="24.18257" longitude="120.54554" inDis="50" outDis="50" oid="14735" /><Stop Id="3853" routeId="180" nameZh="龍崗" seqNo="36" pgp="0" terminal="0" districtId="1" GoBack="2" latitude="24.18642" longitude="120.54549" inDis="50" outDis="50" oid="14736" /><Stop Id="3847" routeId="180" nameZh="龍井加油站" seqNo="37" pgp="0" terminal="0" districtId="1" GoBack="2" latitude="24.18898" longitude="120.54574" inDis="50" outDis="50" oid="14737" /><Stop Id="5160" routeId="180" nameZh="龍井區公所" seqNo="38" pgp="0" terminal="0" districtId="1" GoBack="2" latitude="24.19246" longitude="120.54608" inDis="50" outDis="50" oid="14738" /><Stop Id="3846" routeId="180" nameZh="龍井火車站" seqNo="39" pgp="0" terminal="0" districtId="1" GoBack="2" latitude="24.19687" longitude="120.54659" inDis="50" outDis="50" oid="14739" /><Stop Id="3855" routeId="180" nameZh="龍泉" seqNo="40" pgp="0" terminal="0" districtId="1" GoBack="2" latitude="24.19936" longitude="120.54692" inDis="50" outDis="50" oid="14740" /><Stop Id="3850" routeId="180" nameZh="龍目井" seqNo="41" pgp="0" terminal="0" districtId="1" GoBack="2" latitude="24.20249" longitude="120.54798" inDis="50" outDis="50" oid="14741" /><Stop Id="4010" routeId="180" nameZh="鷺山" seqNo="42" pgp="0" terminal="0" districtId="1" GoBack="2" latitude="24.20743" longitude="120.54923" inDis="50" outDis="50" oid="14742" /><Stop Id="2559" routeId="180" nameZh="南山腳" seqNo="43" pgp="0" terminal="0" districtId="1" GoBack="2" latitude="24.21022" longitude="120.55056" inDis="50" outDis="50" oid="14743" /><Stop Id="5159" routeId="180" nameZh="龍山國小(山腳里)" seqNo="44" pgp="0" terminal="0" districtId="1" GoBack="2" latitude="24.21378" longitude="120.55183" inDis="50" outDis="50" oid="313575193" /><Stop Id="4459" routeId="180" nameZh="沙田太平路口" seqNo="45" pgp="0" terminal="0" districtId="1" GoBack="2" latitude="24.21671" longitude="120.55287" inDis="50" outDis="50" oid="14745" /><Stop Id="2613" routeId="180" nameZh="南勢里" seqNo="46" pgp="0" terminal="0" districtId="1" GoBack="2" latitude="24.22126" longitude="120.55613" inDis="50" outDis="50" oid="14746" /><Stop Id="4458" routeId="180" nameZh="沙田天仁街口" seqNo="47" pgp="0" terminal="0" districtId="1" GoBack="2" latitude="24.22287" longitude="120.55692" inDis="50" outDis="50" oid="313575201" /><Stop Id="1664" routeId="180" nameZh="文光國小" seqNo="48" pgp="0" terminal="0" districtId="1" GoBack="2" latitude="24.22451" longitude="120.55759" inDis="50" outDis="50" oid="313575204" /><Stop Id="3809" routeId="180" nameZh="興仁里" seqNo="49" pgp="0" terminal="0" districtId="1" GoBack="2" latitude="24.23027" longitude="120.5588" inDis="50" outDis="50" oid="14748" /><Stop Id="4816" routeId="180" nameZh="沙鹿光田醫院" seqNo="50" pgp="0" terminal="0" districtId="1" GoBack="2" latitude="24.235" longitude="120.55897" inDis="50" outDis="50" oid="313348300" /><Stop Id="4815" routeId="180" nameZh="沙鹿火車站" seqNo="51" pgp="0" terminal="0" districtId="1" GoBack="2" latitude="24.23612" longitude="120.55923" inDis="50" outDis="50" oid="313348309" /><Stop Id="4681" routeId="180" nameZh="沙鹿市場" seqNo="52" pgp="0" terminal="0" districtId="1" GoBack="2" latitude="24.23731" longitude="120.55967" inDis="50" outDis="50" oid="313348322" /><Stop Id="2248" routeId="180" nameZh="沙鹿站" seqNo="53" pgp="0" terminal="0" districtId="1" GoBack="2" latitude="24.23783" longitude="120.56106" inDis="50" outDis="50" oid="10784" /></BusInfo></BusDynInfo>