<?xml version="1.0" encoding="UTF-8" standalone="yes"?>
<BusDynInfo><EssentialInfo><Location><name>TCBUS</name><CenterName>Maxwin</CenterName></Location><UpdateTime>2014-12-20 07:19:50</UpdateTime><CoordinateSystem/></EssentialInfo>
<BusInfo><Stop Id="3531" routeId="藍12" nameZh="正英臺灣大道口" seqNo="1" pgp="0" terminal="0" districtId="1" GoBack="1" latitude="24.20961" longitude="120.58033" inDis="50" outDis="50" oid="318982352" /><Stop Id="4124" routeId="藍12" nameZh="頂六路" seqNo="2" pgp="0" terminal="0" districtId="1" GoBack="1" latitude="24.21314" longitude="120.58096" inDis="50" outDis="50" oid="318982354" /><Stop Id="4386" routeId="藍12" nameZh="弘光科技大學" seqNo="3" pgp="0" terminal="0" districtId="1" GoBack="1" latitude="24.21758" longitude="120.58048" inDis="50" outDis="50" oid="318974085" /><Stop Id="4111" routeId="藍12" nameZh="晉江里" seqNo="4" pgp="0" terminal="0" districtId="1" GoBack="1" latitude="24.22133" longitude="120.5796" inDis="50" outDis="50" oid="318974087" /><Stop Id="4062" routeId="藍12" nameZh="下晉江" seqNo="5" pgp="0" terminal="0" districtId="1" GoBack="1" latitude="24.22331" longitude="120.57834" inDis="50" outDis="50" oid="318974089" /><Stop Id="4147" routeId="藍12" nameZh="靜宜大學" seqNo="6" pgp="0" terminal="0" districtId="1" GoBack="1" latitude="24.22602" longitude="120.57667" inDis="50" outDis="50" oid="318974091" /><Stop Id="4086" routeId="藍12" nameZh="臺灣大道北勢路口" seqNo="7" pgp="0" terminal="0" districtId="1" GoBack="1" latitude="24.2301" longitude="120.57408" inDis="50" outDis="50" oid="318974093" /><Stop Id="4392" routeId="藍12" nameZh="紅竹巷" seqNo="8" pgp="0" terminal="0" districtId="1" GoBack="1" latitude="24.23331" longitude="120.57197" inDis="50" outDis="50" oid="318974095" /><Stop Id="4389" routeId="藍12" nameZh="竹林里" seqNo="9" pgp="0" terminal="0" districtId="1" GoBack="1" latitude="24.23617" longitude="120.57012" inDis="50" outDis="50" oid="318974097" /><Stop Id="2147" routeId="藍12" nameZh="竹林國小" seqNo="10" pgp="0" terminal="0" districtId="1" GoBack="1" latitude="24.23844" longitude="120.56769" inDis="50" outDis="50" oid="318974099" /><Stop Id="0005" routeId="藍12" nameZh="沙鹿高工(臺灣大道)" seqNo="11" pgp="0" terminal="0" districtId="1" GoBack="1" latitude="24.23926" longitude="120.56535" inDis="50" outDis="50" oid="318974101" /><Stop Id="0409" routeId="藍12" nameZh="光華成功東街口" seqNo="12" pgp="0" terminal="0" districtId="1" GoBack="1" latitude="24.2414" longitude="120.565" inDis="50" outDis="50" oid="318862819" /><Stop Id="5730" routeId="藍12" nameZh="鹿寮國中(光大路)" seqNo="13" pgp="0" terminal="0" districtId="1" GoBack="1" latitude="24.24395" longitude="120.56517" inDis="50" outDis="50" oid="318974103" /><Stop Id="4110" routeId="藍12" nameZh="家扶中心" seqNo="14" pgp="0" terminal="0" districtId="1" GoBack="1" latitude="24.2468" longitude="120.56281" inDis="50" outDis="50" oid="318974107" /><Stop Id="5138" routeId="藍12" nameZh="鹿寮成衣商圈" seqNo="15" pgp="0" terminal="0" districtId="1" GoBack="1" latitude="24.2489" longitude="120.56484" inDis="50" outDis="50" oid="318974109" /><Stop Id="4044" routeId="藍12" nameZh="鹿寮" seqNo="16" pgp="0" terminal="0" districtId="1" GoBack="1" latitude="24.25177" longitude="120.56679" inDis="50" outDis="50" oid="318974111" /><Stop Id="5392" routeId="藍12" nameZh="中山長春路口" seqNo="17" pgp="0" terminal="0" districtId="1" GoBack="1" latitude="24.2537" longitude="120.56786" inDis="50" outDis="50" oid="318974113" /><Stop Id="4045" routeId="藍12" nameZh="中峰" seqNo="18" pgp="0" terminal="0" districtId="1" GoBack="1" latitude="24.25542" longitude="120.56885" inDis="50" outDis="50" oid="318974115" /><Stop Id="4471" routeId="藍12" nameZh="勞工育樂中心" seqNo="19" pgp="0" terminal="0" districtId="1" GoBack="1" latitude="24.25775" longitude="120.57021" inDis="50" outDis="50" oid="318974117" /><Stop Id="4129" routeId="藍12" nameZh="鹿峰里" seqNo="20" pgp="0" terminal="0" districtId="1" GoBack="1" latitude="24.25885" longitude="120.57075" inDis="50" outDis="50" oid="318974119" /><Stop Id="4441" routeId="藍12" nameZh="中山星河路口" seqNo="21" pgp="0" terminal="0" districtId="1" GoBack="1" latitude="24.25997" longitude="120.5714" inDis="50" outDis="50" oid="318974121" /><Stop Id="4121" routeId="藍12" nameZh="清水電信局" seqNo="22" pgp="0" terminal="0" districtId="1" GoBack="1" latitude="24.26214" longitude="120.57262" inDis="50" outDis="50" oid="318978241" /><Stop Id="4119" routeId="藍12" nameZh="清水高中" seqNo="23" pgp="0" terminal="0" districtId="1" GoBack="1" latitude="24.2658" longitude="120.5742" inDis="50" outDis="50" oid="318978243" /><Stop Id="5141" routeId="藍12" nameZh="華南銀行(清水分行)" seqNo="24" pgp="0" terminal="0" districtId="1" GoBack="1" latitude="24.2683" longitude="120.57515" inDis="50" outDis="50" oid="318978245" /><Stop Id="1615" routeId="藍12" nameZh="分局前" seqNo="25" pgp="0" terminal="0" districtId="1" GoBack="1" latitude="24.26919" longitude="120.57531" inDis="50" outDis="50" oid="318978247" /><Stop Id="5655" routeId="藍12" nameZh="鰲峰西社路口" seqNo="26" pgp="0" terminal="0" districtId="1" GoBack="1" latitude="24.26923" longitude="120.57004" inDis="50" outDis="50" oid="318978249" /><Stop Id="2486" routeId="藍12" nameZh="社口" seqNo="27" pgp="0" terminal="0" districtId="1" GoBack="1" latitude="24.26845" longitude="120.56825" inDis="50" outDis="50" oid="318978251" /><Stop Id="3700" routeId="藍12" nameZh="銀聯二村" seqNo="28" pgp="0" terminal="0" districtId="1" GoBack="1" latitude="24.26832" longitude="120.5648" inDis="50" outDis="50" oid="318978253" /><Stop Id="3017" routeId="藍12" nameZh="清水國中" seqNo="29" pgp="0" terminal="0" districtId="1" GoBack="1" latitude="24.26778" longitude="120.56271" inDis="50" outDis="50" oid="318978255" /><Stop Id="5723" routeId="藍12" nameZh="清水區公所" seqNo="30" pgp="0" terminal="0" districtId="1" GoBack="1" latitude="24.26859" longitude="120.56006" inDis="50" outDis="50" oid="320235334" /><Stop Id="4904" routeId="藍12" nameZh="港區藝術中心" seqNo="31" pgp="0" terminal="0" districtId="1" GoBack="1" latitude="24.26935" longitude="120.55755" inDis="50" outDis="50" oid="319122067" /><Stop Id="4904" routeId="藍12" nameZh="港區藝術中心" seqNo="1" pgp="0" terminal="0" districtId="1" GoBack="2" latitude="24.26935" longitude="120.55755" inDis="50" outDis="50" oid="319122067" /><Stop Id="5723" routeId="藍12" nameZh="清水區公所" seqNo="2" pgp="0" terminal="0" districtId="1" GoBack="2" latitude="24.26859" longitude="120.56006" inDis="50" outDis="50" oid="320235334" /><Stop Id="3017" routeId="藍12" nameZh="清水國中" seqNo="3" pgp="0" terminal="0" districtId="1" GoBack="2" latitude="24.26778" longitude="120.56271" inDis="50" outDis="50" oid="318978261" /><Stop Id="3700" routeId="藍12" nameZh="銀聯二村" seqNo="4" pgp="0" terminal="0" districtId="1" GoBack="2" latitude="24.26832" longitude="120.5648" inDis="50" outDis="50" oid="318978263" /><Stop Id="2486" routeId="藍12" nameZh="社口" seqNo="5" pgp="0" terminal="0" districtId="1" GoBack="2" latitude="24.26845" longitude="120.56825" inDis="50" outDis="50" oid="318978265" /><Stop Id="5655" routeId="藍12" nameZh="鰲峰西社路口" seqNo="6" pgp="0" terminal="0" districtId="1" GoBack="2" latitude="24.26923" longitude="120.57004" inDis="50" outDis="50" oid="318978267" /><Stop Id="1615" routeId="藍12" nameZh="分局前" seqNo="7" pgp="0" terminal="0" districtId="1" GoBack="2" latitude="24.26919" longitude="120.57531" inDis="50" outDis="50" oid="318978269" /><Stop Id="5141" routeId="藍12" nameZh="華南銀行(清水分行)" seqNo="8" pgp="0" terminal="0" districtId="1" GoBack="2" latitude="24.2683" longitude="120.57515" inDis="50" outDis="50" oid="318978271" /><Stop Id="4119" routeId="藍12" nameZh="清水高中" seqNo="9" pgp="0" terminal="0" districtId="1" GoBack="2" latitude="24.26615" longitude="120.57421" inDis="50" outDis="50" oid="318978273" /><Stop Id="4121" routeId="藍12" nameZh="清水電信局" seqNo="10" pgp="0" terminal="0" districtId="1" GoBack="2" latitude="24.26214" longitude="120.57262" inDis="50" outDis="50" oid="318978275" /><Stop Id="4441" routeId="藍12" nameZh="中山星河路口" seqNo="11" pgp="0" terminal="0" districtId="1" GoBack="2" latitude="24.25997" longitude="120.5714" inDis="50" outDis="50" oid="318978277" /><Stop Id="4129" routeId="藍12" nameZh="鹿峰里" seqNo="12" pgp="0" terminal="0" districtId="1" GoBack="2" latitude="24.25885" longitude="120.57075" inDis="50" outDis="50" oid="318978279" /><Stop Id="4471" routeId="藍12" nameZh="勞工育樂中心" seqNo="13" pgp="0" terminal="0" districtId="1" GoBack="2" latitude="24.25755" longitude="120.56993" inDis="50" outDis="50" oid="318978281" /><Stop Id="4045" routeId="藍12" nameZh="中峰" seqNo="14" pgp="0" terminal="0" districtId="1" GoBack="2" latitude="24.25538" longitude="120.56873" inDis="50" outDis="50" oid="318978283" /><Stop Id="5392" routeId="藍12" nameZh="中山長春路口" seqNo="15" pgp="0" terminal="0" districtId="1" GoBack="2" latitude="24.2537" longitude="120.56786" inDis="50" outDis="50" oid="318978285" /><Stop Id="4044" routeId="藍12" nameZh="鹿寮" seqNo="16" pgp="0" terminal="0" districtId="1" GoBack="2" latitude="24.2515" longitude="120.56664" inDis="50" outDis="50" oid="318978287" /><Stop Id="5138" routeId="藍12" nameZh="鹿寮成衣商圈" seqNo="17" pgp="0" terminal="0" districtId="1" GoBack="2" latitude="24.2489" longitude="120.56484" inDis="50" outDis="50" oid="318978289" /><Stop Id="4110" routeId="藍12" nameZh="家扶中心" seqNo="18" pgp="0" terminal="0" districtId="1" GoBack="2" latitude="24.24659" longitude="120.56257" inDis="50" outDis="50" oid="318978291" /><Stop Id="5730" routeId="藍12" nameZh="鹿寮國中(光大路)" seqNo="19" pgp="0" terminal="0" districtId="1" GoBack="2" latitude="24.24395" longitude="120.56517" inDis="50" outDis="50" oid="318978295" /><Stop Id="0409" routeId="藍12" nameZh="光華成功東街口" seqNo="20" pgp="0" terminal="0" districtId="1" GoBack="2" latitude="24.2414" longitude="120.565" inDis="50" outDis="50" oid="318862819" /><Stop Id="0005" routeId="藍12" nameZh="沙鹿高工(臺灣大道)" seqNo="21" pgp="0" terminal="0" districtId="1" GoBack="2" latitude="24.23926" longitude="120.56535" inDis="50" outDis="50" oid="318978297" /><Stop Id="2147" routeId="藍12" nameZh="竹林國小" seqNo="22" pgp="0" terminal="0" districtId="1" GoBack="2" latitude="24.23839" longitude="120.56786" inDis="50" outDis="50" oid="318978299" /><Stop Id="4389" routeId="藍12" nameZh="竹林里" seqNo="23" pgp="0" terminal="0" districtId="1" GoBack="2" latitude="24.23639" longitude="120.56995" inDis="50" outDis="50" oid="318978301" /><Stop Id="4392" routeId="藍12" nameZh="紅竹巷" seqNo="24" pgp="0" terminal="0" districtId="1" GoBack="2" latitude="24.23331" longitude="120.57193" inDis="50" outDis="50" oid="318978303" /><Stop Id="4086" routeId="藍12" nameZh="臺灣大道北勢路口" seqNo="25" pgp="0" terminal="0" districtId="1" GoBack="2" latitude="24.23011" longitude="120.57396" inDis="50" outDis="50" oid="318978305" /><Stop Id="4147" routeId="藍12" nameZh="靜宜大學" seqNo="26" pgp="0" terminal="0" districtId="1" GoBack="2" latitude="24.22576" longitude="120.57674" inDis="50" outDis="50" oid="318978307" /><Stop Id="4062" routeId="藍12" nameZh="下晉江" seqNo="27" pgp="0" terminal="0" districtId="1" GoBack="2" latitude="24.22346" longitude="120.57823" inDis="50" outDis="50" oid="318978309" /><Stop Id="4111" routeId="藍12" nameZh="晉江里" seqNo="28" pgp="0" terminal="0" districtId="1" GoBack="2" latitude="24.22111" longitude="120.57965" inDis="50" outDis="50" oid="318978311" /><Stop Id="4386" routeId="藍12" nameZh="弘光科技大學" seqNo="29" pgp="0" terminal="0" districtId="1" GoBack="2" latitude="24.21735" longitude="120.58041" inDis="50" outDis="50" oid="318978313" /><Stop Id="4124" routeId="藍12" nameZh="頂六路" seqNo="30" pgp="0" terminal="0" districtId="1" GoBack="2" latitude="24.21314" longitude="120.58096" inDis="50" outDis="50" oid="318982354" /><Stop Id="3531" routeId="藍12" nameZh="正英臺灣大道口" seqNo="31" pgp="0" terminal="0" districtId="1" GoBack="2" latitude="24.20961" longitude="120.58033" inDis="50" outDis="50" oid="318982352" /></BusInfo></BusDynInfo>