<?xml version="1.0" encoding="UTF-8" standalone="yes"?>
<BusDynInfo><EssentialInfo><Location><name>TCBUS</name><CenterName>Maxwin</CenterName></Location><UpdateTime>2014-12-20 08:10:50</UpdateTime><CoordinateSystem/></EssentialInfo>
<BusInfo><Stop Id="5183" routeId="181" nameZh="苑裡站" seqNo="1" pgp="0" terminal="0" districtId="1" GoBack="1" latitude="24.44282" longitude="120.65148" inDis="50" outDis="50" oid="310725012" /><Stop Id="4827" routeId="181" nameZh="客庄" seqNo="2" pgp="0" terminal="0" districtId="1" GoBack="1" latitude="24.4396" longitude="120.6499" inDis="50" outDis="50" oid="14204" /><Stop Id="4820" routeId="181" nameZh="房裡" seqNo="3" pgp="0" terminal="0" districtId="1" GoBack="1" latitude="24.4345" longitude="120.6478" inDis="50" outDis="50" oid="14205" /><Stop Id="4148" routeId="181" nameZh="龍德家商" seqNo="4" pgp="0" terminal="0" districtId="1" GoBack="1" latitude="24.4289" longitude="120.6443" inDis="50" outDis="50" oid="14206" /><Stop Id="5184" routeId="181" nameZh="南房裡" seqNo="5" pgp="0" terminal="0" districtId="1" GoBack="1" latitude="24.42872" longitude="120.64015" inDis="50" outDis="50" oid="310725013" /><Stop Id="5185" routeId="181" nameZh="福德港" seqNo="6" pgp="0" terminal="0" districtId="1" GoBack="1" latitude="24.42985" longitude="120.63317" inDis="50" outDis="50" oid="310725014" /><Stop Id="5186" routeId="181" nameZh="後壁寮" seqNo="7" pgp="0" terminal="0" districtId="1" GoBack="1" latitude="24.43023" longitude="120.62938" inDis="50" outDis="50" oid="310725015" /><Stop Id="5187" routeId="181" nameZh="船頭埔" seqNo="8" pgp="0" terminal="0" districtId="1" GoBack="1" latitude="24.42995" longitude="120.62607" inDis="50" outDis="50" oid="310725016" /><Stop Id="3082" routeId="181" nameZh="陳厝" seqNo="9" pgp="0" terminal="0" districtId="1" GoBack="1" latitude="24.42542" longitude="120.6264" inDis="50" outDis="50" oid="310725017" /><Stop Id="5188" routeId="181" nameZh="羅厝前" seqNo="10" pgp="0" terminal="0" districtId="1" GoBack="1" latitude="24.42288" longitude="120.62667" inDis="50" outDis="50" oid="310725018" /><Stop Id="5189" routeId="181" nameZh="西岐" seqNo="11" pgp="0" terminal="0" districtId="1" GoBack="1" latitude="24.4198" longitude="120.6279" inDis="50" outDis="50" oid="310725019" /><Stop Id="5190" routeId="181" nameZh="南西岐" seqNo="12" pgp="0" terminal="0" districtId="1" GoBack="1" latitude="24.4175" longitude="120.62212" inDis="50" outDis="50" oid="310725020" /><Stop Id="2718" routeId="181" nameZh="苗圃" seqNo="13" pgp="0" terminal="0" districtId="1" GoBack="1" latitude="24.41618" longitude="120.61923" inDis="50" outDis="50" oid="310725021" /><Stop Id="5191" routeId="181" nameZh="建興" seqNo="14" pgp="0" terminal="0" districtId="1" GoBack="1" latitude="24.4128" longitude="120.61463" inDis="50" outDis="50" oid="310725022" /><Stop Id="5192" routeId="181" nameZh="李厝前" seqNo="15" pgp="0" terminal="0" districtId="1" GoBack="1" latitude="24.4105" longitude="120.61608" inDis="50" outDis="50" oid="310725023" /><Stop Id="5193" routeId="181" nameZh="十甲" seqNo="16" pgp="0" terminal="0" districtId="1" GoBack="1" latitude="24.4084" longitude="120.619" inDis="50" outDis="50" oid="310725024" /><Stop Id="5194" routeId="181" nameZh="育樂路" seqNo="17" pgp="0" terminal="0" districtId="1" GoBack="1" latitude="24.4057" longitude="120.62273" inDis="50" outDis="50" oid="310725025" /><Stop Id="5303" routeId="181" nameZh="頭張" seqNo="18" pgp="0" terminal="0" districtId="1" GoBack="1" latitude="24.4042" longitude="120.6248" inDis="50" outDis="50" oid="310725026" /><Stop Id="2021" routeId="181" nameZh="石頭厝" seqNo="19" pgp="0" terminal="0" districtId="1" GoBack="1" latitude="24.40237" longitude="120.62733" inDis="50" outDis="50" oid="310725027" /><Stop Id="5196" routeId="181" nameZh="鄭厝" seqNo="20" pgp="0" terminal="0" districtId="1" GoBack="1" latitude="24.40045" longitude="120.62998" inDis="50" outDis="50" oid="310725028" /><Stop Id="5197" routeId="181" nameZh="四塊寮" seqNo="21" pgp="0" terminal="0" districtId="1" GoBack="1" latitude="24.39375" longitude="120.63518" inDis="50" outDis="50" oid="310725029" /><Stop Id="3790" routeId="181" nameZh="樹仔腳" seqNo="22" pgp="0" terminal="0" districtId="1" GoBack="1" latitude="24.38907" longitude="120.64025" inDis="50" outDis="50" oid="310725030" /><Stop Id="5198" routeId="181" nameZh="孟春" seqNo="23" pgp="0" terminal="0" districtId="1" GoBack="1" latitude="24.38517" longitude="120.64465" inDis="50" outDis="50" oid="310725031" /><Stop Id="5199" routeId="181" nameZh="建興入口" seqNo="24" pgp="0" terminal="0" districtId="1" GoBack="1" latitude="24.38158" longitude="120.65068" inDis="50" outDis="50" oid="310725032" /><Stop Id="5466" routeId="181" nameZh="日南火車站" seqNo="25" pgp="0" terminal="0" districtId="1" GoBack="1" latitude="24.37823" longitude="120.65412" inDis="100" outDis="100" oid="314169235" /><Stop Id="1290" routeId="181" nameZh="大安溪" seqNo="26" pgp="0" terminal="0" districtId="1" GoBack="1" latitude="24.3661" longitude="120.64162" inDis="50" outDis="50" oid="14079" /><Stop Id="4002" routeId="181" nameZh="鐵砧山" seqNo="27" pgp="0" terminal="0" districtId="1" GoBack="1" latitude="24.3611" longitude="120.6378" inDis="50" outDis="50" oid="14217" /><Stop Id="4125" routeId="181" nameZh="頂店" seqNo="28" pgp="0" terminal="0" districtId="1" GoBack="1" latitude="24.35608" longitude="120.63308" inDis="50" outDis="50" oid="310725033" /><Stop Id="4073" routeId="181" nameZh="大同醫院" seqNo="29" pgp="0" terminal="0" districtId="1" GoBack="1" latitude="24.35173" longitude="120.62807" inDis="50" outDis="50" oid="310725034" /><Stop Id="4070" routeId="181" nameZh="大甲郵局" seqNo="30" pgp="0" terminal="0" districtId="1" GoBack="1" latitude="24.34723" longitude="120.62775" inDis="50" outDis="50" oid="10706" /><Stop Id="4432" routeId="181" nameZh="大甲火車站" seqNo="31" pgp="0" terminal="0" districtId="1" GoBack="1" latitude="24.34507" longitude="120.62685" inDis="50" outDis="50" oid="310725035" /><Stop Id="5084" routeId="181" nameZh="大甲" seqNo="32" pgp="0" terminal="0" districtId="1" GoBack="1" latitude="24.34316" longitude="120.62555" inDis="50" outDis="50" oid="319713428" /><Stop Id="5639" routeId="181" nameZh="南陽里(中山路)" seqNo="33" pgp="0" terminal="0" districtId="1" GoBack="1" latitude="24.34256" longitude="120.62422" inDis="50" outDis="50" oid="319713429" /><Stop Id="5048" routeId="181" nameZh="大甲高中(中山路)" seqNo="34" pgp="0" terminal="0" districtId="1" GoBack="1" latitude="24.342" longitude="120.62135" inDis="50" outDis="50" oid="319713430" /><Stop Id="5688" routeId="181" nameZh="義和里" seqNo="35" pgp="0" terminal="0" districtId="1" GoBack="1" latitude="24.34077" longitude="120.61886" inDis="50" outDis="50" oid="319713431" /><Stop Id="5689" routeId="181" nameZh="順天國小" seqNo="36" pgp="0" terminal="0" districtId="1" GoBack="1" latitude="24.34325" longitude="120.61743" inDis="50" outDis="50" oid="319713432" /><Stop Id="5690" routeId="181" nameZh="光田醫院(大甲院區)" seqNo="37" pgp="0" terminal="0" districtId="1" GoBack="1" latitude="24.3473" longitude="120.6172" inDis="50" outDis="50" oid="319713433" /><Stop Id="5691" routeId="181" nameZh="大甲體育場" seqNo="38" pgp="0" terminal="0" districtId="1" GoBack="1" latitude="24.35018" longitude="120.61737" inDis="50" outDis="50" oid="319713434" /><Stop Id="5692" routeId="181" nameZh="李綜合醫院" seqNo="39" pgp="0" terminal="0" districtId="1" GoBack="1" latitude="24.35163" longitude="120.61854" inDis="50" outDis="50" oid="319713435" /><Stop Id="5437" routeId="181" nameZh="大甲區公所" seqNo="40" pgp="0" terminal="0" districtId="1" GoBack="1" latitude="24.34963" longitude="120.62239" inDis="50" outDis="50" oid="319713452" /><Stop Id="5437" routeId="181" nameZh="大甲區公所" seqNo="1" pgp="0" terminal="0" districtId="1" GoBack="2" latitude="24.34963" longitude="120.62239" inDis="50" outDis="50" oid="319713452" /><Stop Id="5692" routeId="181" nameZh="李綜合醫院" seqNo="2" pgp="0" terminal="0" districtId="1" GoBack="2" latitude="24.35135" longitude="120.61838" inDis="50" outDis="50" oid="319722011" /><Stop Id="5691" routeId="181" nameZh="大甲體育場" seqNo="3" pgp="0" terminal="0" districtId="1" GoBack="2" latitude="24.35018" longitude="120.61737" inDis="50" outDis="50" oid="319713434" /><Stop Id="5690" routeId="181" nameZh="光田醫院(大甲院區)" seqNo="4" pgp="0" terminal="0" districtId="1" GoBack="2" latitude="24.3473" longitude="120.6172" inDis="50" outDis="50" oid="319713433" /><Stop Id="5689" routeId="181" nameZh="順天國小" seqNo="5" pgp="0" terminal="0" districtId="1" GoBack="2" latitude="24.34325" longitude="120.61743" inDis="50" outDis="50" oid="319713432" /><Stop Id="5688" routeId="181" nameZh="義和里" seqNo="6" pgp="0" terminal="0" districtId="1" GoBack="2" latitude="24.34077" longitude="120.61886" inDis="50" outDis="50" oid="319713431" /><Stop Id="5048" routeId="181" nameZh="大甲高中(中山路)" seqNo="7" pgp="0" terminal="0" districtId="1" GoBack="2" latitude="24.342" longitude="120.62135" inDis="50" outDis="50" oid="319713430" /><Stop Id="5639" routeId="181" nameZh="南陽里(中山路)" seqNo="8" pgp="0" terminal="0" districtId="1" GoBack="2" latitude="24.34256" longitude="120.62422" inDis="50" outDis="50" oid="319713429" /><Stop Id="5084" routeId="181" nameZh="大甲" seqNo="9" pgp="0" terminal="0" districtId="1" GoBack="2" latitude="24.34316" longitude="120.62555" inDis="50" outDis="50" oid="319713428" /><Stop Id="4432" routeId="181" nameZh="大甲火車站" seqNo="10" pgp="0" terminal="0" districtId="1" GoBack="2" latitude="24.34465" longitude="120.62672" inDis="50" outDis="50" oid="310725036" /><Stop Id="4070" routeId="181" nameZh="大甲郵局" seqNo="11" pgp="0" terminal="0" districtId="1" GoBack="2" latitude="24.34755" longitude="120.62765" inDis="50" outDis="50" oid="14220" /><Stop Id="4073" routeId="181" nameZh="大同醫院" seqNo="12" pgp="0" terminal="0" districtId="1" GoBack="2" latitude="24.3517" longitude="120.62813" inDis="50" outDis="50" oid="310725037" /><Stop Id="4125" routeId="181" nameZh="頂店" seqNo="13" pgp="0" terminal="0" districtId="1" GoBack="2" latitude="24.35608" longitude="120.63308" inDis="50" outDis="50" oid="310725033" /><Stop Id="4002" routeId="181" nameZh="鐵砧山" seqNo="14" pgp="0" terminal="0" districtId="1" GoBack="2" latitude="24.3611" longitude="120.6378" inDis="50" outDis="50" oid="14385" /><Stop Id="1290" routeId="181" nameZh="大安溪" seqNo="15" pgp="0" terminal="0" districtId="1" GoBack="2" latitude="24.3661" longitude="120.64162" inDis="50" outDis="50" oid="14079" /><Stop Id="5466" routeId="181" nameZh="日南火車站" seqNo="16" pgp="0" terminal="0" districtId="1" GoBack="2" latitude="24.37823" longitude="120.65412" inDis="100" outDis="100" oid="314169235" /><Stop Id="5199" routeId="181" nameZh="建興入口" seqNo="17" pgp="0" terminal="0" districtId="1" GoBack="2" latitude="24.3817" longitude="120.65047" inDis="50" outDis="50" oid="310725039" /><Stop Id="5198" routeId="181" nameZh="孟春" seqNo="18" pgp="0" terminal="0" districtId="1" GoBack="2" latitude="24.38513" longitude="120.64482" inDis="50" outDis="50" oid="310725040" /><Stop Id="3790" routeId="181" nameZh="樹仔腳" seqNo="19" pgp="0" terminal="0" districtId="1" GoBack="2" latitude="24.38907" longitude="120.64025" inDis="50" outDis="50" oid="310725041" /><Stop Id="5197" routeId="181" nameZh="四塊寮" seqNo="20" pgp="0" terminal="0" districtId="1" GoBack="2" latitude="24.39375" longitude="120.63518" inDis="50" outDis="50" oid="310725042" /><Stop Id="5196" routeId="181" nameZh="鄭厝" seqNo="21" pgp="0" terminal="0" districtId="1" GoBack="2" latitude="24.40045" longitude="120.62998" inDis="50" outDis="50" oid="310725043" /><Stop Id="2021" routeId="181" nameZh="石頭厝" seqNo="22" pgp="0" terminal="0" districtId="1" GoBack="2" latitude="24.4024" longitude="120.62732" inDis="50" outDis="50" oid="310725044" /><Stop Id="5303" routeId="181" nameZh="頭張" seqNo="23" pgp="0" terminal="0" districtId="1" GoBack="2" latitude="24.4042" longitude="120.6248" inDis="50" outDis="50" oid="310725045" /><Stop Id="5194" routeId="181" nameZh="育樂路" seqNo="24" pgp="0" terminal="0" districtId="1" GoBack="2" latitude="24.4057" longitude="120.62273" inDis="50" outDis="50" oid="310725046" /><Stop Id="5193" routeId="181" nameZh="十甲" seqNo="25" pgp="0" terminal="0" districtId="1" GoBack="2" latitude="24.4084" longitude="120.619" inDis="50" outDis="50" oid="310725047" /><Stop Id="5192" routeId="181" nameZh="李厝前" seqNo="26" pgp="0" terminal="0" districtId="1" GoBack="2" latitude="24.4105" longitude="120.61608" inDis="50" outDis="50" oid="310725048" /><Stop Id="5191" routeId="181" nameZh="建興" seqNo="27" pgp="0" terminal="0" districtId="1" GoBack="2" latitude="24.41268" longitude="120.61458" inDis="50" outDis="50" oid="310725049" /><Stop Id="2718" routeId="181" nameZh="苗圃" seqNo="28" pgp="0" terminal="0" districtId="1" GoBack="2" latitude="24.41618" longitude="120.61923" inDis="50" outDis="50" oid="310725050" /><Stop Id="5190" routeId="181" nameZh="南西岐" seqNo="29" pgp="0" terminal="0" districtId="1" GoBack="2" latitude="24.4175" longitude="120.62212" inDis="50" outDis="50" oid="310725052" /><Stop Id="5189" routeId="181" nameZh="西岐" seqNo="30" pgp="0" terminal="0" districtId="1" GoBack="2" latitude="24.42015" longitude="120.6283" inDis="50" outDis="50" oid="310725053" /><Stop Id="5188" routeId="181" nameZh="羅厝前" seqNo="31" pgp="0" terminal="0" districtId="1" GoBack="2" latitude="24.42275" longitude="120.62672" inDis="50" outDis="50" oid="310725054" /><Stop Id="3082" routeId="181" nameZh="陳厝" seqNo="32" pgp="0" terminal="0" districtId="1" GoBack="2" latitude="24.42542" longitude="120.6264" inDis="50" outDis="50" oid="310725055" /><Stop Id="5187" routeId="181" nameZh="船頭埔" seqNo="33" pgp="0" terminal="0" districtId="1" GoBack="2" latitude="24.42995" longitude="120.62607" inDis="50" outDis="50" oid="310725056" /><Stop Id="5186" routeId="181" nameZh="後壁寮" seqNo="34" pgp="0" terminal="0" districtId="1" GoBack="2" latitude="24.4303" longitude="120.62928" inDis="50" outDis="50" oid="310725057" /><Stop Id="5185" routeId="181" nameZh="福德港" seqNo="35" pgp="0" terminal="0" districtId="1" GoBack="2" latitude="24.42985" longitude="120.63317" inDis="50" outDis="50" oid="310725058" /><Stop Id="5184" routeId="181" nameZh="南房裡" seqNo="36" pgp="0" terminal="0" districtId="1" GoBack="2" latitude="24.42872" longitude="120.64015" inDis="50" outDis="50" oid="310725059" /><Stop Id="4148" routeId="181" nameZh="龍德家商" seqNo="37" pgp="0" terminal="0" districtId="1" GoBack="2" latitude="24.4289" longitude="120.6443" inDis="50" outDis="50" oid="14396" /><Stop Id="4820" routeId="181" nameZh="房裡" seqNo="38" pgp="0" terminal="0" districtId="1" GoBack="2" latitude="24.4345" longitude="120.6478" inDis="50" outDis="50" oid="14397" /><Stop Id="4827" routeId="181" nameZh="客庄" seqNo="39" pgp="0" terminal="0" districtId="1" GoBack="2" latitude="24.4396" longitude="120.6499" inDis="50" outDis="50" oid="14204" /><Stop Id="5183" routeId="181" nameZh="苑裡站" seqNo="40" pgp="0" terminal="0" districtId="1" GoBack="2" latitude="24.4429" longitude="120.65162" inDis="50" outDis="50" oid="310725060" /></BusInfo></BusDynInfo>