<?xml version="1.0" encoding="UTF-8" standalone="yes"?>
<BusDynInfo><EssentialInfo><Location><name>TCBUS</name><CenterName>Maxwin</CenterName></Location><UpdateTime>2014-12-20 07:19:10</UpdateTime><CoordinateSystem/></EssentialInfo>
<BusInfo><Stop Id="4032" routeId="藍10" nameZh="大慶火車站" seqNo="1" pgp="0" terminal="0" districtId="1" GoBack="1" latitude="24.11912" longitude="120.64786" inDis="50" outDis="50" oid="318989265" /><Stop Id="4034" routeId="藍10" nameZh="中山醫學大學" seqNo="2" pgp="0" terminal="0" districtId="1" GoBack="1" latitude="24.12297" longitude="120.64848" inDis="50" outDis="50" oid="318989267" /><Stop Id="0027" routeId="藍10" nameZh="文心南三民西路口" seqNo="3" pgp="0" terminal="0" districtId="1" GoBack="1" latitude="24.12611" longitude="120.64655" inDis="50" outDis="50" oid="318989269" /><Stop Id="0026" routeId="藍10" nameZh="豐樂公園" seqNo="4" pgp="0" terminal="0" districtId="1" GoBack="1" latitude="24.13032" longitude="120.64634" inDis="50" outDis="50" oid="318989271" /><Stop Id="4030" routeId="藍10" nameZh="好市多" seqNo="5" pgp="0" terminal="0" districtId="1" GoBack="1" latitude="24.13201" longitude="120.64853" inDis="50" outDis="50" oid="318989273" /><Stop Id="4970" routeId="藍10" nameZh="文心南五路260巷口" seqNo="6" pgp="0" terminal="0" districtId="1" GoBack="1" latitude="24.13208" longitude="120.6511" inDis="50" outDis="50" oid="318989275" /><Stop Id="4029" routeId="藍10" nameZh="愛心家園" seqNo="7" pgp="0" terminal="0" districtId="1" GoBack="1" latitude="24.13231" longitude="120.65312" inDis="50" outDis="50" oid="318989277" /><Stop Id="0664" routeId="藍10" nameZh="東興南屯路口" seqNo="8" pgp="0" terminal="0" districtId="1" GoBack="1" latitude="24.13627" longitude="120.65317" inDis="50" outDis="50" oid="318989279" /><Stop Id="1367" routeId="藍10" nameZh="東興大墩二街口" seqNo="9" pgp="0" terminal="0" districtId="1" GoBack="1" latitude="24.1388" longitude="120.65303" inDis="50" outDis="50" oid="318989281" /><Stop Id="1368" routeId="藍10" nameZh="東興大墩五街口" seqNo="10" pgp="0" terminal="0" districtId="1" GoBack="1" latitude="24.14245" longitude="120.65306" inDis="50" outDis="50" oid="318989283" /><Stop Id="0870" routeId="藍10" nameZh="萬壽棒球場(東興路)" seqNo="11" pgp="0" terminal="0" districtId="1" GoBack="1" latitude="24.14526" longitude="120.65307" inDis="50" outDis="50" oid="318989285" /><Stop Id="4554" routeId="藍10" nameZh="向上東興路口" seqNo="12" pgp="0" terminal="0" districtId="1" GoBack="1" latitude="24.14679" longitude="120.65268" inDis="50" outDis="50" oid="318989287" /><Stop Id="0139" routeId="藍10" nameZh="向上大墩路口" seqNo="13" pgp="0" terminal="0" districtId="1" GoBack="1" latitude="24.14674" longitude="120.64937" inDis="50" outDis="50" oid="318989289" /><Stop Id="5654" routeId="藍10" nameZh="文心森林公園(向上路)" seqNo="14" pgp="0" terminal="0" districtId="1" GoBack="1" latitude="24.14679" longitude="120.64744" inDis="50" outDis="50" oid="318989291" /><Stop Id="0170" routeId="藍10" nameZh="向上惠文路口" seqNo="15" pgp="0" terminal="0" districtId="1" GoBack="1" latitude="24.1469" longitude="120.64342" inDis="50" outDis="50" oid="318989293" /><Stop Id="4601" routeId="藍10" nameZh="林新醫院(向上路)" seqNo="16" pgp="0" terminal="0" districtId="1" GoBack="1" latitude="24.14689" longitude="120.64115" inDis="50" outDis="50" oid="318989295" /><Stop Id="0168" routeId="藍10" nameZh="向上河南路口" seqNo="17" pgp="0" terminal="0" districtId="1" GoBack="1" latitude="24.14714" longitude="120.63792" inDis="50" outDis="50" oid="318989297" /><Stop Id="0060" routeId="藍10" nameZh="三厝里" seqNo="18" pgp="0" terminal="0" districtId="1" GoBack="1" latitude="24.14812" longitude="120.63579" inDis="50" outDis="50" oid="318989299" /><Stop Id="0059" routeId="藍10" nameZh="黎明公益路口" seqNo="19" pgp="0" terminal="0" districtId="1" GoBack="1" latitude="24.15102" longitude="120.63534" inDis="50" outDis="50" oid="318989301" /><Stop Id="4160" routeId="藍10" nameZh="黎明大業路口" seqNo="20" pgp="0" terminal="0" districtId="1" GoBack="1" latitude="24.15317" longitude="120.63498" inDis="50" outDis="50" oid="318989303" /><Stop Id="3892" routeId="藍10" nameZh="黎明新村(黎明路)" seqNo="21" pgp="0" terminal="0" districtId="1" GoBack="1" latitude="24.15465" longitude="120.6347" inDis="50" outDis="50" oid="318989305" /><Stop Id="0056" routeId="藍10" nameZh="黎明國小" seqNo="22" pgp="0" terminal="0" districtId="1" GoBack="1" latitude="24.15809" longitude="120.63422" inDis="50" outDis="50" oid="318989307" /><Stop Id="5155" routeId="藍10" nameZh="黎明市政路口" seqNo="23" pgp="0" terminal="0" districtId="1" GoBack="1" latitude="24.16073" longitude="120.63372" inDis="50" outDis="50" oid="318989309" /><Stop Id="5748" routeId="藍10" nameZh="黎明龍門路口" seqNo="24" pgp="0" terminal="0" districtId="1" GoBack="1" latitude="24.16294" longitude="120.63392" inDis="50" outDis="50" oid="320349543" /><Stop Id="4645" routeId="藍10" nameZh="西屯區公所" seqNo="25" pgp="0" terminal="0" districtId="1" GoBack="1" latitude="24.16386" longitude="120.63418" inDis="50" outDis="50" oid="318989311" /><Stop Id="5158" routeId="藍10" nameZh="黎明環河路口" seqNo="26" pgp="0" terminal="0" districtId="1" GoBack="1" latitude="24.1667" longitude="120.63526" inDis="50" outDis="50" oid="318989313" /><Stop Id="4642" routeId="藍10" nameZh="朝馬黎明路口" seqNo="27" pgp="0" terminal="0" districtId="1" GoBack="1" latitude="24.16952" longitude="120.6353" inDis="50" outDis="50" oid="318989315" /><Stop Id="4648" routeId="藍10" nameZh="朝馬環中路口" seqNo="28" pgp="0" terminal="0" districtId="1" GoBack="1" latitude="24.17008" longitude="120.63312" inDis="50" outDis="50" oid="318989317" /><Stop Id="5106" routeId="藍10" nameZh="安和朝馬路口" seqNo="29" pgp="0" terminal="0" districtId="1" GoBack="1" latitude="24.17466" longitude="120.62252" inDis="50" outDis="50" oid="318989319" /><Stop Id="0285" routeId="藍10" nameZh="安和福玄路口" seqNo="30" pgp="0" terminal="0" districtId="1" GoBack="1" latitude="24.1767" longitude="120.62353" inDis="50" outDis="50" oid="319311016" /><Stop Id="3060" routeId="藍10" nameZh="統聯轉運站" seqNo="31" pgp="0" terminal="0" districtId="1" GoBack="1" latitude="24.18" longitude="120.62115" inDis="50" outDis="50" oid="318989323" /><Stop Id="0008" routeId="藍10" nameZh="中港新城" seqNo="32" pgp="0" terminal="0" districtId="1" GoBack="1" latitude="24.18097" longitude="120.61982" inDis="50" outDis="50" oid="318989325" /><Stop Id="0430" routeId="藍10" nameZh="中港澄清醫院" seqNo="33" pgp="0" terminal="0" districtId="1" GoBack="1" latitude="24.18292" longitude="120.616" inDis="50" outDis="50" oid="318989327" /><Stop Id="0006" routeId="藍10" nameZh="臺中捐血中心" seqNo="34" pgp="0" terminal="0" districtId="1" GoBack="1" latitude="24.1844" longitude="120.61287" inDis="50" outDis="50" oid="318989329" /><Stop Id="4335" routeId="藍10" nameZh="臺灣大道玉門路口" seqNo="35" pgp="0" terminal="0" districtId="1" GoBack="1" latitude="24.18471" longitude="120.6106" inDis="50" outDis="50" oid="318989331" /><Stop Id="0004" routeId="藍10" nameZh="普濟寺" seqNo="36" pgp="0" terminal="0" districtId="1" GoBack="1" latitude="24.1843" longitude="120.60837" inDis="50" outDis="50" oid="318989333" /><Stop Id="2378" routeId="藍10" nameZh="東大附中" seqNo="37" pgp="0" terminal="0" districtId="1" GoBack="1" latitude="24.18385" longitude="120.60646" inDis="50" outDis="50" oid="318989335" /><Stop Id="5386" routeId="藍10" nameZh="臺中榮總(臺灣大道)" seqNo="38" pgp="0" terminal="0" districtId="1" GoBack="1" latitude="24.18349" longitude="120.60491" inDis="50" outDis="50" oid="318989337" /><Stop Id="0526" routeId="藍10" nameZh="台中精機" seqNo="39" pgp="0" terminal="0" districtId="1" GoBack="1" latitude="24.18214" longitude="120.59743" inDis="50" outDis="50" oid="318989339" /><Stop Id="0240" routeId="藍10" nameZh="東海別墅" seqNo="40" pgp="0" terminal="0" districtId="1" GoBack="1" latitude="24.18294" longitude="120.59365" inDis="50" outDis="50" oid="318989341" /><Stop Id="0757" routeId="藍10" nameZh="國際藝術街口" seqNo="41" pgp="0" terminal="0" districtId="1" GoBack="1" latitude="24.18713" longitude="120.59555" inDis="50" outDis="50" oid="318989343" /><Stop Id="0756" routeId="藍10" nameZh="國際遠東街口" seqNo="42" pgp="0" terminal="0" districtId="1" GoBack="1" latitude="24.18842" longitude="120.5964" inDis="50" outDis="50" oid="318989345" /><Stop Id="0908" routeId="藍10" nameZh="遠東街165巷口" seqNo="43" pgp="0" terminal="0" districtId="1" GoBack="1" latitude="24.18952" longitude="120.59436" inDis="50" outDis="50" oid="318989347" /><Stop Id="0909" routeId="藍10" nameZh="遠東街" seqNo="44" pgp="0" terminal="0" districtId="1" GoBack="1" latitude="24.19082" longitude="120.58879" inDis="50" outDis="50" oid="318989349" /><Stop Id="5630" routeId="藍10" nameZh="東海一站" seqNo="45" pgp="0" terminal="0" districtId="1" GoBack="1" latitude="24.19136" longitude="120.59018" inDis="50" outDis="50" oid="318989351" /><Stop Id="5631" routeId="藍10" nameZh="東海里" seqNo="46" pgp="0" terminal="0" districtId="1" GoBack="1" latitude="24.19084" longitude="120.59293" inDis="50" outDis="50" oid="318989353" /><Stop Id="5326" routeId="藍10" nameZh="都會園西屯路口" seqNo="47" pgp="0" terminal="0" districtId="1" GoBack="1" latitude="24.19259" longitude="120.59454" inDis="50" outDis="50" oid="318989355" /><Stop Id="5759" routeId="藍10" nameZh="牛頂頭" seqNo="48" pgp="0" terminal="0" districtId="1" GoBack="1" latitude="24.19717" longitude="120.59523" inDis="50" outDis="50" oid="320297743" /><Stop Id="5526" routeId="藍10" nameZh="臺中都會公園一站" seqNo="49" pgp="0" terminal="0" districtId="1" GoBack="1" latitude="24.20395" longitude="120.59807" inDis="50" outDis="50" oid="318989357" /><Stop Id="0522" routeId="藍10" nameZh="臺中都會公園" seqNo="50" pgp="0" terminal="0" districtId="1" GoBack="1" latitude="24.20621" longitude="120.59911" inDis="50" outDis="50" oid="318989359" /><Stop Id="0522" routeId="藍10" nameZh="臺中都會公園" seqNo="1" pgp="0" terminal="0" districtId="1" GoBack="2" latitude="24.20621" longitude="120.59911" inDis="50" outDis="50" oid="318989171" /><Stop Id="5526" routeId="藍10" nameZh="臺中都會公園一站" seqNo="2" pgp="0" terminal="0" districtId="1" GoBack="2" latitude="24.20395" longitude="120.59807" inDis="50" outDis="50" oid="318989173" /><Stop Id="5759" routeId="藍10" nameZh="牛頂頭" seqNo="3" pgp="0" terminal="0" districtId="1" GoBack="2" latitude="24.19726" longitude="120.59504" inDis="50" outDis="50" oid="320297744" /><Stop Id="5326" routeId="藍10" nameZh="都會園西屯路口" seqNo="4" pgp="0" terminal="0" districtId="1" GoBack="2" latitude="24.19259" longitude="120.59454" inDis="50" outDis="50" oid="318989175" /><Stop Id="5631" routeId="藍10" nameZh="東海里" seqNo="5" pgp="0" terminal="0" districtId="1" GoBack="2" latitude="24.19093" longitude="120.59284" inDis="50" outDis="50" oid="318989177" /><Stop Id="5630" routeId="藍10" nameZh="東海一站" seqNo="6" pgp="0" terminal="0" districtId="1" GoBack="2" latitude="24.19141" longitude="120.5902" inDis="50" outDis="50" oid="318989179" /><Stop Id="0909" routeId="藍10" nameZh="遠東街" seqNo="7" pgp="0" terminal="0" districtId="1" GoBack="2" latitude="24.19097" longitude="120.58828" inDis="50" outDis="50" oid="318989181" /><Stop Id="0908" routeId="藍10" nameZh="遠東街165巷口" seqNo="8" pgp="0" terminal="0" districtId="1" GoBack="2" latitude="24.18957" longitude="120.59448" inDis="50" outDis="50" oid="318989183" /><Stop Id="0756" routeId="藍10" nameZh="國際遠東街口" seqNo="9" pgp="0" terminal="0" districtId="1" GoBack="2" latitude="24.18857" longitude="120.59649" inDis="50" outDis="50" oid="318989185" /><Stop Id="0757" routeId="藍10" nameZh="國際藝術街口" seqNo="10" pgp="0" terminal="0" districtId="1" GoBack="2" latitude="24.18719" longitude="120.5956" inDis="50" outDis="50" oid="318989187" /><Stop Id="0240" routeId="藍10" nameZh="東海別墅" seqNo="11" pgp="0" terminal="0" districtId="1" GoBack="2" latitude="24.18268" longitude="120.5935" inDis="50" outDis="50" oid="318989189" /><Stop Id="0526" routeId="藍10" nameZh="台中精機" seqNo="12" pgp="0" terminal="0" districtId="1" GoBack="2" latitude="24.18183" longitude="120.5973" inDis="50" outDis="50" oid="318989191" /><Stop Id="5386" routeId="藍10" nameZh="臺中榮總(臺灣大道)" seqNo="13" pgp="0" terminal="0" districtId="1" GoBack="2" latitude="24.18349" longitude="120.60491" inDis="50" outDis="50" oid="318989193" /><Stop Id="2378" routeId="藍10" nameZh="東大附中" seqNo="14" pgp="0" terminal="0" districtId="1" GoBack="2" latitude="24.18357" longitude="120.60658" inDis="50" outDis="50" oid="318989195" /><Stop Id="0004" routeId="藍10" nameZh="普濟寺" seqNo="15" pgp="0" terminal="0" districtId="1" GoBack="2" latitude="24.18398" longitude="120.60833" inDis="50" outDis="50" oid="318989197" /><Stop Id="4335" routeId="藍10" nameZh="臺灣大道玉門路口" seqNo="16" pgp="0" terminal="0" districtId="1" GoBack="2" latitude="24.18471" longitude="120.6106" inDis="50" outDis="50" oid="318989331" /><Stop Id="0006" routeId="藍10" nameZh="臺中捐血中心" seqNo="17" pgp="0" terminal="0" districtId="1" GoBack="2" latitude="24.18421" longitude="120.61256" inDis="50" outDis="50" oid="318989199" /><Stop Id="0430" routeId="藍10" nameZh="中港澄清醫院" seqNo="18" pgp="0" terminal="0" districtId="1" GoBack="2" latitude="24.18273" longitude="120.61577" inDis="50" outDis="50" oid="318989201" /><Stop Id="0008" routeId="藍10" nameZh="中港新城" seqNo="19" pgp="0" terminal="0" districtId="1" GoBack="2" latitude="24.18145" longitude="120.6183" inDis="50" outDis="50" oid="320062561" /><Stop Id="3060" routeId="藍10" nameZh="統聯轉運站" seqNo="20" pgp="0" terminal="0" districtId="1" GoBack="2" latitude="24.18014" longitude="120.62115" inDis="50" outDis="50" oid="318989205" /><Stop Id="1481" routeId="藍10" nameZh="安和臺灣大道口" seqNo="21" pgp="0" terminal="0" districtId="1" GoBack="2" latitude="24.17838" longitude="120.62438" inDis="50" outDis="50" oid="318989207" /><Stop Id="0285" routeId="藍10" nameZh="安和福玄路口" seqNo="22" pgp="0" terminal="0" districtId="1" GoBack="2" latitude="24.1768" longitude="120.623" inDis="50" outDis="50" oid="319311017" /><Stop Id="5106" routeId="藍10" nameZh="安和朝馬路口" seqNo="23" pgp="0" terminal="0" districtId="1" GoBack="2" latitude="24.1748" longitude="120.62243" inDis="50" outDis="50" oid="318989209" /><Stop Id="4648" routeId="藍10" nameZh="朝馬環中路口" seqNo="24" pgp="0" terminal="0" districtId="1" GoBack="2" latitude="24.17035" longitude="120.63201" inDis="50" outDis="50" oid="318989211" /><Stop Id="4642" routeId="藍10" nameZh="朝馬黎明路口" seqNo="25" pgp="0" terminal="0" districtId="1" GoBack="2" latitude="24.16944" longitude="120.63523" inDis="50" outDis="50" oid="318989213" /><Stop Id="5158" routeId="藍10" nameZh="黎明環河路口" seqNo="26" pgp="0" terminal="0" districtId="1" GoBack="2" latitude="24.1667" longitude="120.63526" inDis="50" outDis="50" oid="318989215" /><Stop Id="4645" routeId="藍10" nameZh="西屯區公所" seqNo="27" pgp="0" terminal="0" districtId="1" GoBack="2" latitude="24.16386" longitude="120.63418" inDis="50" outDis="50" oid="318989217" /><Stop Id="5748" routeId="藍10" nameZh="黎明龍門路口" seqNo="28" pgp="0" terminal="0" districtId="1" GoBack="2" latitude="24.16294" longitude="120.63392" inDis="50" outDis="50" oid="320349543" /><Stop Id="5155" routeId="藍10" nameZh="黎明市政路口" seqNo="29" pgp="0" terminal="0" districtId="1" GoBack="2" latitude="24.16073" longitude="120.63372" inDis="50" outDis="50" oid="318989219" /><Stop Id="0056" routeId="藍10" nameZh="黎明國小" seqNo="30" pgp="0" terminal="0" districtId="1" GoBack="2" latitude="24.15809" longitude="120.63422" inDis="50" outDis="50" oid="318989221" /><Stop Id="3892" routeId="藍10" nameZh="黎明新村(黎明路)" seqNo="31" pgp="0" terminal="0" districtId="1" GoBack="2" latitude="24.15465" longitude="120.6347" inDis="50" outDis="50" oid="318989223" /><Stop Id="4160" routeId="藍10" nameZh="黎明大業路口" seqNo="32" pgp="0" terminal="0" districtId="1" GoBack="2" latitude="24.15317" longitude="120.63498" inDis="50" outDis="50" oid="318989225" /><Stop Id="0059" routeId="藍10" nameZh="黎明公益路口" seqNo="33" pgp="0" terminal="0" districtId="1" GoBack="2" latitude="24.15102" longitude="120.63534" inDis="50" outDis="50" oid="318989227" /><Stop Id="0060" routeId="藍10" nameZh="三厝里" seqNo="34" pgp="0" terminal="0" districtId="1" GoBack="2" latitude="24.14812" longitude="120.63579" inDis="50" outDis="50" oid="318989229" /><Stop Id="0168" routeId="藍10" nameZh="向上河南路口" seqNo="35" pgp="0" terminal="0" districtId="1" GoBack="2" latitude="24.14708" longitude="120.63797" inDis="50" outDis="50" oid="318989231" /><Stop Id="4601" routeId="藍10" nameZh="林新醫院(向上路)" seqNo="36" pgp="0" terminal="0" districtId="1" GoBack="2" latitude="24.14687" longitude="120.64109" inDis="50" outDis="50" oid="318989233" /><Stop Id="0170" routeId="藍10" nameZh="向上惠文路口" seqNo="37" pgp="0" terminal="0" districtId="1" GoBack="2" latitude="24.14683" longitude="120.64344" inDis="50" outDis="50" oid="318989235" /><Stop Id="5654" routeId="藍10" nameZh="文心森林公園(向上路)" seqNo="38" pgp="0" terminal="0" districtId="1" GoBack="2" latitude="24.14676" longitude="120.64762" inDis="50" outDis="50" oid="318989237" /><Stop Id="0139" routeId="藍10" nameZh="向上大墩路口" seqNo="39" pgp="0" terminal="0" districtId="1" GoBack="2" latitude="24.14679" longitude="120.64923" inDis="50" outDis="50" oid="318989239" /><Stop Id="4554" routeId="藍10" nameZh="向上東興路口" seqNo="40" pgp="0" terminal="0" districtId="1" GoBack="2" latitude="24.14676" longitude="120.65268" inDis="50" outDis="50" oid="318989241" /><Stop Id="0870" routeId="藍10" nameZh="萬壽棒球場(東興路)" seqNo="41" pgp="0" terminal="0" districtId="1" GoBack="2" latitude="24.14551" longitude="120.65302" inDis="50" outDis="50" oid="318989243" /><Stop Id="1368" routeId="藍10" nameZh="東興大墩五街口" seqNo="42" pgp="0" terminal="0" districtId="1" GoBack="2" latitude="24.14245" longitude="120.65306" inDis="50" outDis="50" oid="318989245" /><Stop Id="1367" routeId="藍10" nameZh="東興大墩二街口" seqNo="43" pgp="0" terminal="0" districtId="1" GoBack="2" latitude="24.1388" longitude="120.65303" inDis="50" outDis="50" oid="318989247" /><Stop Id="0664" routeId="藍10" nameZh="東興南屯路口" seqNo="44" pgp="0" terminal="0" districtId="1" GoBack="2" latitude="24.13622" longitude="120.65308" inDis="50" outDis="50" oid="318989249" /><Stop Id="4029" routeId="藍10" nameZh="愛心家園" seqNo="45" pgp="0" terminal="0" districtId="1" GoBack="2" latitude="24.13231" longitude="120.65312" inDis="50" outDis="50" oid="318989251" /><Stop Id="4970" routeId="藍10" nameZh="文心南五路260巷口" seqNo="46" pgp="0" terminal="0" districtId="1" GoBack="2" latitude="24.13208" longitude="120.6511" inDis="50" outDis="50" oid="318989253" /><Stop Id="4030" routeId="藍10" nameZh="好市多" seqNo="47" pgp="0" terminal="0" districtId="1" GoBack="2" latitude="24.13201" longitude="120.64853" inDis="50" outDis="50" oid="318989255" /><Stop Id="0026" routeId="藍10" nameZh="豐樂公園" seqNo="48" pgp="0" terminal="0" districtId="1" GoBack="2" latitude="24.13032" longitude="120.64634" inDis="50" outDis="50" oid="318989257" /><Stop Id="4034" routeId="藍10" nameZh="中山醫學大學" seqNo="50" pgp="0" terminal="0" districtId="1" GoBack="2" latitude="24.12297" longitude="120.64848" inDis="50" outDis="50" oid="318989261" /><Stop Id="4032" routeId="藍10" nameZh="大慶火車站" seqNo="51" pgp="0" terminal="0" districtId="1" GoBack="2" latitude="24.11912" longitude="120.64786" inDis="50" outDis="50" oid="318989263" /></BusInfo></BusDynInfo>