<?xml version="1.0" encoding="UTF-8" standalone="yes"?>
<BusDynInfo><EssentialInfo><Location><name>TCBUS</name><CenterName>Maxwin</CenterName></Location><UpdateTime>2014-12-20 08:27:03</UpdateTime><CoordinateSystem/></EssentialInfo>
<BusInfo><Stop Id="2428" routeId="261" nameZh="東勢" seqNo="1" pgp="0" terminal="0" districtId="1" GoBack="1" latitude="24.25839" longitude="120.82786" inDis="50" outDis="50" oid="8008" /><Stop Id="4500" routeId="261" nameZh="東勢老人會館" seqNo="2" pgp="0" terminal="0" districtId="1" GoBack="1" latitude="24.26104" longitude="120.82695" inDis="50" outDis="50" oid="7984" /><Stop Id="2434" routeId="261" nameZh="東新國中" seqNo="3" pgp="0" terminal="0" districtId="1" GoBack="1" latitude="24.26235" longitude="120.82678" inDis="50" outDis="80" oid="6761" /><Stop Id="1200" routeId="261" nameZh="下新社區" seqNo="4" pgp="0" terminal="0" districtId="1" GoBack="1" latitude="24.26491" longitude="120.826" inDis="50" outDis="50" oid="5154" /><Stop Id="1197" routeId="261" nameZh="下新" seqNo="5" pgp="0" terminal="0" districtId="1" GoBack="1" latitude="24.26667" longitude="120.8248" inDis="50" outDis="50" oid="5150" /><Stop Id="2190" routeId="261" nameZh="東蘭西門巷口" seqNo="6" pgp="0" terminal="0" districtId="1" GoBack="1" latitude="24.26853" longitude="120.82331" inDis="50" outDis="50" oid="5762" /><Stop Id="1019" routeId="261" nameZh="八分" seqNo="7" pgp="0" terminal="0" districtId="1" GoBack="1" latitude="24.2716" longitude="120.82224" inDis="50" outDis="50" oid="5042" /><Stop Id="2044" routeId="261" nameZh="東蘭光明路口" seqNo="8" pgp="0" terminal="0" districtId="1" GoBack="1" latitude="24.27315" longitude="120.82082" inDis="50" outDis="50" oid="5683" /><Stop Id="1977" routeId="261" nameZh="田中央" seqNo="9" pgp="0" terminal="0" districtId="1" GoBack="1" latitude="24.27559" longitude="120.81871" inDis="50" outDis="50" oid="5635" /><Stop Id="3640" routeId="261" nameZh="福成橋" seqNo="10" pgp="0" terminal="0" districtId="1" GoBack="1" latitude="24.27817" longitude="120.81678" inDis="50" outDis="50" oid="6546" /><Stop Id="4653" routeId="261" nameZh="東蘭大明路口" seqNo="11" pgp="0" terminal="0" districtId="1" GoBack="1" latitude="24.28103" longitude="120.81301" inDis="50" outDis="50" oid="5234" /><Stop Id="2786" routeId="261" nameZh="校栗埔" seqNo="12" pgp="0" terminal="0" districtId="1" GoBack="1" latitude="24.2819" longitude="120.81048" inDis="50" outDis="50" oid="6106" /><Stop Id="1089" routeId="261" nameZh="三清宮" seqNo="13" pgp="0" terminal="0" districtId="1" GoBack="1" latitude="24.28331" longitude="120.80814" inDis="50" outDis="50" oid="5085" /><Stop Id="1175" routeId="261" nameZh="下校栗埔" seqNo="14" pgp="0" terminal="0" districtId="1" GoBack="1" latitude="24.28411" longitude="120.80343" inDis="50" outDis="50" oid="5136" /><Stop Id="1925" routeId="261" nameZh="民誠宮" seqNo="15" pgp="0" terminal="0" districtId="1" GoBack="1" latitude="24.28486" longitude="120.8014" inDis="50" outDis="50" oid="5609" /><Stop Id="2010" routeId="261" nameZh="石城橋頭" seqNo="16" pgp="0" terminal="0" districtId="1" GoBack="1" latitude="24.28518" longitude="120.79774" inDis="50" outDis="50" oid="5663" /><Stop Id="2008" routeId="261" nameZh="石城" seqNo="17" pgp="0" terminal="0" districtId="1" GoBack="1" latitude="24.2867" longitude="120.79564" inDis="50" outDis="50" oid="5661" /><Stop Id="1228" routeId="261" nameZh="上石城" seqNo="18" pgp="0" terminal="0" districtId="1" GoBack="1" latitude="24.28812" longitude="120.79599" inDis="50" outDis="50" oid="5176" /><Stop Id="3090" routeId="261" nameZh="頂上" seqNo="19" pgp="0" terminal="0" districtId="1" GoBack="1" latitude="24.29391" longitude="120.8011" inDis="50" outDis="50" oid="6279" /><Stop Id="2012" routeId="261" nameZh="石排" seqNo="20" pgp="0" terminal="0" districtId="1" GoBack="1" latitude="24.29847" longitude="120.80272" inDis="50" outDis="50" oid="5665" /><Stop Id="2017" routeId="261" nameZh="石壁坑口" seqNo="21" pgp="0" terminal="0" districtId="1" GoBack="1" latitude="24.30194" longitude="120.80099" inDis="50" outDis="50" oid="5666" /><Stop Id="3444" routeId="261" nameZh="暗山" seqNo="22" pgp="0" terminal="0" districtId="1" GoBack="1" latitude="24.30323" longitude="120.8047" inDis="50" outDis="50" oid="6464" /><Stop Id="1290" routeId="261" nameZh="大安溪" seqNo="23" pgp="0" terminal="0" districtId="1" GoBack="1" latitude="24.30356" longitude="120.81133" inDis="50" outDis="50" oid="5224" /><Stop Id="1248" routeId="261" nameZh="上圓屯" seqNo="24" pgp="0" terminal="0" districtId="1" GoBack="1" latitude="24.30544" longitude="120.80725" inDis="50" outDis="50" oid="5189" /><Stop Id="3382" routeId="261" nameZh="新田口" seqNo="25" pgp="0" terminal="0" districtId="1" GoBack="1" latitude="24.30682" longitude="120.7999" inDis="50" outDis="50" oid="6420" /><Stop Id="1195" routeId="261" nameZh="下圓屯" seqNo="26" pgp="0" terminal="0" districtId="1" GoBack="1" latitude="24.30906" longitude="120.79434" inDis="50" outDis="50" oid="5148" /><Stop Id="2358" routeId="261" nameZh="明正國小" seqNo="27" pgp="0" terminal="0" districtId="1" GoBack="1" latitude="24.3102" longitude="120.79124" inDis="50" outDis="50" oid="5866" /><Stop Id="2359" routeId="261" nameZh="明正里" seqNo="28" pgp="0" terminal="0" districtId="1" GoBack="1" latitude="24.31174" longitude="120.78571" inDis="50" outDis="50" oid="5868" /><Stop Id="2359" routeId="261" nameZh="明正里" seqNo="1" pgp="0" terminal="0" districtId="1" GoBack="2" latitude="24.31174" longitude="120.78571" inDis="50" outDis="50" oid="5868" /><Stop Id="2358" routeId="261" nameZh="明正國小" seqNo="2" pgp="0" terminal="0" districtId="1" GoBack="2" latitude="24.3102" longitude="120.79124" inDis="50" outDis="50" oid="5866" /><Stop Id="1195" routeId="261" nameZh="下圓屯" seqNo="3" pgp="0" terminal="0" districtId="1" GoBack="2" latitude="24.30906" longitude="120.79434" inDis="50" outDis="50" oid="5148" /><Stop Id="3382" routeId="261" nameZh="新田口" seqNo="4" pgp="0" terminal="0" districtId="1" GoBack="2" latitude="24.30682" longitude="120.7999" inDis="50" outDis="50" oid="6420" /><Stop Id="1248" routeId="261" nameZh="上圓屯" seqNo="5" pgp="0" terminal="0" districtId="1" GoBack="2" latitude="24.30544" longitude="120.80725" inDis="50" outDis="50" oid="5189" /><Stop Id="1290" routeId="261" nameZh="大安溪" seqNo="6" pgp="0" terminal="0" districtId="1" GoBack="2" latitude="24.30356" longitude="120.81133" inDis="50" outDis="50" oid="5224" /><Stop Id="3444" routeId="261" nameZh="暗山" seqNo="7" pgp="0" terminal="0" districtId="1" GoBack="2" latitude="24.30323" longitude="120.8047" inDis="50" outDis="50" oid="6464" /><Stop Id="2017" routeId="261" nameZh="石壁坑口" seqNo="8" pgp="0" terminal="0" districtId="1" GoBack="2" latitude="24.30194" longitude="120.80099" inDis="50" outDis="50" oid="5666" /><Stop Id="2012" routeId="261" nameZh="石排" seqNo="9" pgp="0" terminal="0" districtId="1" GoBack="2" latitude="24.29847" longitude="120.80272" inDis="50" outDis="50" oid="5665" /><Stop Id="3090" routeId="261" nameZh="頂上" seqNo="10" pgp="0" terminal="0" districtId="1" GoBack="2" latitude="24.29391" longitude="120.8011" inDis="50" outDis="50" oid="6279" /><Stop Id="1228" routeId="261" nameZh="上石城" seqNo="11" pgp="0" terminal="0" districtId="1" GoBack="2" latitude="24.28812" longitude="120.79599" inDis="50" outDis="50" oid="5176" /><Stop Id="2008" routeId="261" nameZh="石城" seqNo="12" pgp="0" terminal="0" districtId="1" GoBack="2" latitude="24.2867" longitude="120.79564" inDis="50" outDis="50" oid="5661" /><Stop Id="2010" routeId="261" nameZh="石城橋頭" seqNo="13" pgp="0" terminal="0" districtId="1" GoBack="2" latitude="24.28518" longitude="120.79774" inDis="50" outDis="50" oid="5663" /><Stop Id="1925" routeId="261" nameZh="民誠宮" seqNo="14" pgp="0" terminal="0" districtId="1" GoBack="2" latitude="24.28486" longitude="120.8014" inDis="50" outDis="50" oid="5609" /><Stop Id="1175" routeId="261" nameZh="下校栗埔" seqNo="15" pgp="0" terminal="0" districtId="1" GoBack="2" latitude="24.28411" longitude="120.80343" inDis="50" outDis="50" oid="5136" /><Stop Id="1089" routeId="261" nameZh="三清宮" seqNo="16" pgp="0" terminal="0" districtId="1" GoBack="2" latitude="24.28331" longitude="120.80814" inDis="50" outDis="50" oid="5085" /><Stop Id="2786" routeId="261" nameZh="校栗埔" seqNo="17" pgp="0" terminal="0" districtId="1" GoBack="2" latitude="24.2819" longitude="120.81048" inDis="50" outDis="50" oid="6106" /><Stop Id="4653" routeId="261" nameZh="東蘭大明路口" seqNo="18" pgp="0" terminal="0" districtId="1" GoBack="2" latitude="24.28103" longitude="120.81301" inDis="50" outDis="50" oid="5234" /><Stop Id="3640" routeId="261" nameZh="福成橋" seqNo="19" pgp="0" terminal="0" districtId="1" GoBack="2" latitude="24.27817" longitude="120.81678" inDis="50" outDis="50" oid="6546" /><Stop Id="1977" routeId="261" nameZh="田中央" seqNo="20" pgp="0" terminal="0" districtId="1" GoBack="2" latitude="24.27559" longitude="120.81871" inDis="50" outDis="50" oid="5635" /><Stop Id="2044" routeId="261" nameZh="東蘭光明路口" seqNo="21" pgp="0" terminal="0" districtId="1" GoBack="2" latitude="24.27315" longitude="120.82082" inDis="50" outDis="50" oid="5683" /><Stop Id="1019" routeId="261" nameZh="八分" seqNo="22" pgp="0" terminal="0" districtId="1" GoBack="2" latitude="24.2716" longitude="120.82224" inDis="50" outDis="50" oid="5042" /><Stop Id="2190" routeId="261" nameZh="東蘭西門巷口" seqNo="23" pgp="0" terminal="0" districtId="1" GoBack="2" latitude="24.26853" longitude="120.82331" inDis="50" outDis="50" oid="5762" /><Stop Id="1197" routeId="261" nameZh="下新" seqNo="24" pgp="0" terminal="0" districtId="1" GoBack="2" latitude="24.26667" longitude="120.8248" inDis="50" outDis="50" oid="5150" /><Stop Id="1200" routeId="261" nameZh="下新社區" seqNo="25" pgp="0" terminal="0" districtId="1" GoBack="2" latitude="24.26491" longitude="120.826" inDis="50" outDis="50" oid="5154" /><Stop Id="2434" routeId="261" nameZh="東新國中" seqNo="26" pgp="0" terminal="0" districtId="1" GoBack="2" latitude="24.26235" longitude="120.82678" inDis="50" outDis="80" oid="6761" /><Stop Id="4500" routeId="261" nameZh="東勢老人會館" seqNo="27" pgp="0" terminal="0" districtId="1" GoBack="2" latitude="24.26104" longitude="120.82695" inDis="50" outDis="50" oid="7984" /><Stop Id="2428" routeId="261" nameZh="東勢" seqNo="28" pgp="0" terminal="0" districtId="1" GoBack="2" latitude="24.25839" longitude="120.82786" inDis="50" outDis="50" oid="8008" /></BusInfo></BusDynInfo>