<?xml version="1.0" encoding="UTF-8" standalone="yes"?>
<BusDynInfo><EssentialInfo><Location><name>TCBUS</name><CenterName>Maxwin</CenterName></Location><UpdateTime>2014-12-20 07:29:18</UpdateTime><CoordinateSystem/></EssentialInfo>
<BusInfo><Stop Id="0443" routeId="30" nameZh="仁友東站" seqNo="1" pgp="0" terminal="0" districtId="1" GoBack="1" latitude="24.13906" longitude="120.68454" inDis="50" outDis="50" oid="DB645841DD934C0396804255B3C83D46" /><Stop Id="4401" routeId="30" nameZh="彰化銀行(臺灣大道)" seqNo="2" pgp="0" terminal="0" districtId="1" GoBack="1" latitude="24.13982" longitude="120.68242" inDis="50" outDis="50" oid="BF660BA8BC1448B1BCF5415ADC010E30" /><Stop Id="4395" routeId="30" nameZh="第二市場(臺灣大道)" seqNo="3" pgp="0" terminal="0" districtId="1" GoBack="1" latitude="24.14205" longitude="120.68007" inDis="50" outDis="50" oid="DC64FE53249A46B1AB3C61868400E90D" /><Stop Id="4375" routeId="30" nameZh="臺灣大道中華路口" seqNo="5" pgp="0" terminal="0" districtId="1" GoBack="1" latitude="24.14484" longitude="120.67673" inDis="50" outDis="50" oid="AEF378D8DE724ABF91F836F25E9AD741" /><Stop Id="5092" routeId="30" nameZh="臺灣大道原子街口" seqNo="6" pgp="0" terminal="0" districtId="1" GoBack="1" latitude="24.14663" longitude="120.67469" inDis="50" outDis="50" oid="46602A0F73084CD4ACC9CC7ECDBD7FF1" /><Stop Id="5628" routeId="30" nameZh="五權臺灣大道口" seqNo="7" pgp="0" terminal="0" districtId="1" GoBack="1" latitude="24.1469" longitude="120.67269" inDis="50" outDis="50" oid="317223824" /><Stop Id="4260" routeId="30" nameZh="五權民生路口" seqNo="8" pgp="0" terminal="0" districtId="1" GoBack="1" latitude="24.14464" longitude="120.67045" inDis="50" outDis="50" oid="9C678E231DFD4B1F845A5FB6D4223C5A" /><Stop Id="4261" routeId="30" nameZh="五權自立街口" seqNo="9" pgp="0" terminal="0" districtId="1" GoBack="1" latitude="24.14299" longitude="120.66853" inDis="50" outDis="50" oid="82BE086AFF934ABAB20990ABA35C003C" /><Stop Id="5088" routeId="30" nameZh="大墩文化中心(五權路)" seqNo="10" pgp="0" terminal="0" districtId="1" GoBack="1" latitude="24.14084" longitude="120.66621" inDis="50" outDis="50" oid="5D634FE1F6F94F3BB82889A7F25E284F" /><Stop Id="0173" routeId="30" nameZh="五權五廊街口" seqNo="11" pgp="0" terminal="0" districtId="1" GoBack="1" latitude="24.13853" longitude="120.66559" inDis="50" outDis="50" oid="E0A86F016DD54552A735936A0EBC8444" /><Stop Id="0174" routeId="30" nameZh="五權公館路口" seqNo="12" pgp="0" terminal="0" districtId="1" GoBack="1" latitude="24.13616" longitude="120.66557" inDis="50" outDis="50" oid="C8085FCCDA6D477A8BE05E65F7EDD575" /><Stop Id="4603" routeId="30" nameZh="五權柳川西路口" seqNo="13" pgp="0" terminal="0" districtId="1" GoBack="1" latitude="24.13453" longitude="120.66583" inDis="50" outDis="50" oid="301134652" /><Stop Id="0176" routeId="30" nameZh="五權樂群街口" seqNo="14" pgp="0" terminal="0" districtId="1" GoBack="1" latitude="24.13274" longitude="120.6667" inDis="50" outDis="50" oid="553F84D2598B4BDBA424915CB2E6167B" /><Stop Id="0562" routeId="30" nameZh="永安市場" seqNo="15" pgp="0" terminal="0" districtId="1" GoBack="1" latitude="24.13221" longitude="120.66492" inDis="50" outDis="50" oid="FC048E178BCF47AF81C2173E94F5F2CC" /><Stop Id="4637" routeId="30" nameZh="南屯美村路口" seqNo="16" pgp="0" terminal="0" districtId="1" GoBack="1" latitude="24.13224" longitude="120.66207" inDis="50" outDis="50" oid="D2542A1861F44019AB5ED1E551DEC835" /><Stop Id="0935" routeId="30" nameZh="靜和醫院" seqNo="17" pgp="0" terminal="0" districtId="1" GoBack="1" latitude="24.13328" longitude="120.65976" inDis="50" outDis="50" oid="00BBA685390A43CAB09EDD40E8340BCB" /><Stop Id="0126" routeId="30" nameZh="崇倫國中(南屯路)" seqNo="18" pgp="0" terminal="0" districtId="1" GoBack="1" latitude="24.1338" longitude="120.65795" inDis="50" outDis="50" oid="0DDD8ACA4829489DAD5FE76CADD2B25B" /><Stop Id="0348" routeId="30" nameZh="土庫" seqNo="19" pgp="0" terminal="0" districtId="1" GoBack="1" latitude="24.13471" longitude="120.65585" inDis="50" outDis="50" oid="3FBEE76B926F4ABCAE1E9E004D900423" /><Stop Id="0335" routeId="30" nameZh="下田心仔" seqNo="20" pgp="0" terminal="0" districtId="1" GoBack="1" latitude="24.1361" longitude="120.65164" inDis="50" outDis="50" oid="819B349A7DF149208B8B221FCF52285B" /><Stop Id="0577" routeId="30" nameZh="田心仔" seqNo="21" pgp="0" terminal="0" districtId="1" GoBack="1" latitude="24.13691" longitude="120.64879" inDis="50" outDis="50" oid="CAD4EB23A41640398AD0A215FA46AF21" /><Stop Id="0771" routeId="30" nameZh="清真寺" seqNo="22" pgp="0" terminal="0" districtId="1" GoBack="1" latitude="24.13734" longitude="120.64689" inDis="50" outDis="50" oid="682A6294367C44D1A7B15D4A5BE530ED" /><Stop Id="5098" routeId="30" nameZh="文心南南屯路口" seqNo="23" pgp="0" terminal="0" districtId="1" GoBack="1" latitude="24.13681" longitude="120.64668" inDis="50" outDis="50" oid="EA6BCA8DB78640EB9E5A173D7C1771C9" /><Stop Id="4764" routeId="30" nameZh="第四分局" seqNo="24" pgp="0" terminal="0" districtId="1" GoBack="1" latitude="24.13478" longitude="120.64348" inDis="50" outDis="50" oid="307156377" /><Stop Id="0869" routeId="30" nameZh="萬和國中" seqNo="25" pgp="0" terminal="0" districtId="1" GoBack="1" latitude="24.13493" longitude="120.64079" inDis="50" outDis="50" oid="F82FC5BEA9284650A049C512E7440F49" /><Stop Id="5592" routeId="30" nameZh="永春東黎明路口" seqNo="26" pgp="0" terminal="0" districtId="1" GoBack="1" latitude="24.13592" longitude="120.6367" inDis="50" outDis="50" oid="316819994" /><Stop Id="5463" routeId="30" nameZh="永定里(永春東路)" seqNo="27" pgp="0" terminal="0" districtId="1" GoBack="1" latitude="24.1377" longitude="120.63252" inDis="50" outDis="50" oid="26F6EB3082654894925F2138E60BD67E" /><Stop Id="0198" routeId="30" nameZh="永定里二站 (永春東路)" seqNo="28" pgp="0" terminal="0" districtId="1" GoBack="1" latitude="24.1394" longitude="120.63002" inDis="50" outDis="50" oid="7942E78876A44704BCE0E25DB18E84C7" /><Stop Id="0338" routeId="30" nameZh="下新生里" seqNo="29" pgp="0" terminal="0" districtId="1" GoBack="1" latitude="24.14053" longitude="120.62672" inDis="50" outDis="50" oid="36BCB0874EF44848AD1FE0D44886B6EF" /><Stop Id="0910" routeId="30" nameZh="劉厝里" seqNo="30" pgp="0" terminal="0" districtId="1" GoBack="1" latitude="24.14025" longitude="120.62186" inDis="50" outDis="50" oid="3D5A4C55A5F044D1967AD4814E68978D" /><Stop Id="0065" routeId="30" nameZh="春社里(永春路)" seqNo="31" pgp="0" terminal="0" districtId="1" GoBack="1" latitude="24.1388" longitude="120.61314" inDis="50" outDis="50" oid="3F435AA12F9A439D91E7FFAD1CABB0BE" /><Stop Id="3874" routeId="30" nameZh="嶺東高中" seqNo="32" pgp="0" terminal="0" districtId="1" GoBack="1" latitude="24.1385" longitude="120.61138" inDis="50" outDis="50" oid="34FD3EAB92754337BCD114ACCE120559" /><Stop Id="5319" routeId="30" nameZh="嶺東科技大學(嶺東路)" seqNo="33" pgp="0" terminal="0" districtId="1" GoBack="1" latitude="24.13707" longitude="120.61011" inDis="50" outDis="50" oid="79435CE627A44416BE51D3D14AFAACA5" /><Stop Id="1411" routeId="30" nameZh="干城六村" seqNo="34" pgp="0" terminal="0" districtId="1" GoBack="1" latitude="24.13676" longitude="120.60932" inDis="50" outDis="50" oid="7DDB8636BFEF444E9485CA1C187A2C7F" /><Stop Id="0941" routeId="30" nameZh="嶺東三站" seqNo="35" pgp="0" terminal="0" districtId="1" GoBack="1" latitude="24.13645" longitude="120.60714" inDis="50" outDis="50" oid="066DD5240E4E4C0B9592C5B9863B0043" /><Stop Id="0058" routeId="30" nameZh="東光公司" seqNo="36" pgp="0" terminal="0" districtId="1" GoBack="1" latitude="24.1363" longitude="120.60496" inDis="50" outDis="50" oid="E0C3584C53714B7DBC2765138B4BC417" /><Stop Id="5161" routeId="30" nameZh="嶺東科大第二校區" seqNo="37" pgp="0" terminal="0" districtId="1" GoBack="1" latitude="24.13601" longitude="120.60206" inDis="50" outDis="50" oid="305732038" /><Stop Id="0810" routeId="30" nameZh="復興電台" seqNo="38" pgp="0" terminal="0" districtId="1" GoBack="1" latitude="24.13859" longitude="120.59968" inDis="50" outDis="50" oid="0D5B915FBFA243E1B281AB3E08B7A548" /><Stop Id="5796" routeId="30" nameZh="仁友停車場" seqNo="39" pgp="0" terminal="1" districtId="1" GoBack="1" latitude="24.13937" longitude="120.60029" inDis="50" outDis="50" oid="C2830AD055AB4D00BE3537E08BD27F9C" /><Stop Id="5796" routeId="30" nameZh="仁友停車場" seqNo="1" pgp="0" terminal="0" districtId="1" GoBack="2" latitude="24.13925" longitude="120.60038" inDis="50" outDis="50" oid="AB0038166D4B46D6BA9213378085E5A8" /><Stop Id="0810" routeId="30" nameZh="復興電台" seqNo="2" pgp="0" terminal="0" districtId="1" GoBack="2" latitude="24.13875" longitude="120.5995" inDis="50" outDis="50" oid="DF3AB867C45A4968B009CCEC1FA3C23C" /><Stop Id="5161" routeId="30" nameZh="嶺東科大第二校區" seqNo="3" pgp="0" terminal="0" districtId="1" GoBack="2" latitude="24.13601" longitude="120.60206" inDis="50" outDis="50" oid="305732038" /><Stop Id="0058" routeId="30" nameZh="東光公司" seqNo="4" pgp="0" terminal="0" districtId="1" GoBack="2" latitude="24.13632" longitude="120.60497" inDis="50" outDis="50" oid="EC3AC49E63BF492782FF05C9F8D3B3D7" /><Stop Id="0941" routeId="30" nameZh="嶺東三站" seqNo="5" pgp="0" terminal="0" districtId="1" GoBack="2" latitude="24.13638" longitude="120.60705" inDis="50" outDis="50" oid="187109F2A6ED4467ADD0BD8C1D91D21C" /><Stop Id="1411" routeId="30" nameZh="干城六村" seqNo="6" pgp="0" terminal="0" districtId="1" GoBack="2" latitude="24.13673" longitude="120.6093" inDis="50" outDis="50" oid="043944EA87A94869B53C9DCC18DB628E" /><Stop Id="5319" routeId="30" nameZh="嶺東科技大學(嶺東路)" seqNo="7" pgp="0" terminal="0" districtId="1" GoBack="2" latitude="24.1371" longitude="120.61014" inDis="50" outDis="50" oid="24429677E81D402B9E09E08CB4A46719" /><Stop Id="3874" routeId="30" nameZh="嶺東高中" seqNo="8" pgp="0" terminal="0" districtId="1" GoBack="2" latitude="24.1385" longitude="120.61119" inDis="50" outDis="50" oid="C8FA745CF1454D5385797C3D211D69B9" /><Stop Id="0065" routeId="30" nameZh="春社里(永春路)" seqNo="9" pgp="0" terminal="0" districtId="1" GoBack="2" latitude="24.13884" longitude="120.61326" inDis="50" outDis="50" oid="C455873D7D6B4138BDAA41736A33373C" /><Stop Id="0910" routeId="30" nameZh="劉厝里" seqNo="10" pgp="0" terminal="0" districtId="1" GoBack="2" latitude="24.14012" longitude="120.62191" inDis="50" outDis="50" oid="C18C63C54CC64503B43BA794277DD04F" /><Stop Id="0338" routeId="30" nameZh="下新生里" seqNo="11" pgp="0" terminal="0" districtId="1" GoBack="2" latitude="24.14041" longitude="120.62654" inDis="50" outDis="50" oid="301BE11F26E344B480074516D3EF28C8" /><Stop Id="0198" routeId="30" nameZh="永定里二站 (永春東路)" seqNo="12" pgp="0" terminal="0" districtId="1" GoBack="2" latitude="24.13912" longitude="120.63023" inDis="50" outDis="50" oid="2B083B1FF1F34A4A860DB7CD6D831DB4" /><Stop Id="5463" routeId="30" nameZh="永定里(永春東路)" seqNo="13" pgp="0" terminal="0" districtId="1" GoBack="2" latitude="24.13759" longitude="120.6324" inDis="50" outDis="50" oid="27A0C6C53E0F4117BEBBAF1408766300" /><Stop Id="5592" routeId="30" nameZh="永春東黎明路口" seqNo="14" pgp="0" terminal="0" districtId="1" GoBack="2" latitude="24.13587" longitude="120.63588" inDis="50" outDis="50" oid="316819995" /><Stop Id="0869" routeId="30" nameZh="萬和國中" seqNo="15" pgp="0" terminal="0" districtId="1" GoBack="2" latitude="24.13493" longitude="120.64079" inDis="50" outDis="50" oid="F82FC5BEA9284650A049C512E7440F49" /><Stop Id="4764" routeId="30" nameZh="第四分局" seqNo="16" pgp="0" terminal="0" districtId="1" GoBack="2" latitude="24.13478" longitude="120.64348" inDis="50" outDis="50" oid="307156377" /><Stop Id="5098" routeId="30" nameZh="文心南南屯路口" seqNo="17" pgp="0" terminal="0" districtId="1" GoBack="2" latitude="24.13681" longitude="120.64668" inDis="50" outDis="50" oid="EA6BCA8DB78640EB9E5A173D7C1771C9" /><Stop Id="0771" routeId="30" nameZh="清真寺" seqNo="18" pgp="0" terminal="0" districtId="1" GoBack="2" latitude="24.13735" longitude="120.64692" inDis="50" outDis="50" oid="8A73134229B44912870E046F913848D8" /><Stop Id="0577" routeId="30" nameZh="田心仔" seqNo="19" pgp="0" terminal="0" districtId="1" GoBack="2" latitude="24.13699" longitude="120.64866" inDis="50" outDis="50" oid="D563E662E8104AF394BFE475B4791974" /><Stop Id="0335" routeId="30" nameZh="下田心仔" seqNo="20" pgp="0" terminal="0" districtId="1" GoBack="2" latitude="24.13637" longitude="120.65076" inDis="50" outDis="50" oid="7F399731B73E4D9DAD0EAA598B141915" /><Stop Id="0348" routeId="30" nameZh="土庫" seqNo="21" pgp="0" terminal="0" districtId="1" GoBack="2" latitude="24.13474" longitude="120.65598" inDis="50" outDis="50" oid="7321EBADA7144F59BC53E5C11E0808F1" /><Stop Id="0126" routeId="30" nameZh="崇倫國中(南屯路)" seqNo="22" pgp="0" terminal="0" districtId="1" GoBack="2" latitude="24.13372" longitude="120.65785" inDis="50" outDis="50" oid="02E85C2A541347669D8C2FD065025E82" /><Stop Id="0935" routeId="30" nameZh="靜和醫院" seqNo="23" pgp="0" terminal="0" districtId="1" GoBack="2" latitude="24.13324" longitude="120.65967" inDis="50" outDis="50" oid="C2BADB72CCDA443398B2F810263A4A3E" /><Stop Id="4637" routeId="30" nameZh="南屯美村路口" seqNo="24" pgp="0" terminal="0" districtId="1" GoBack="2" latitude="24.13234" longitude="120.66127" inDis="50" outDis="50" oid="1B4D931C55AA4F27A989B8C945C5F17C" /><Stop Id="0562" routeId="30" nameZh="永安市場" seqNo="25" pgp="0" terminal="0" districtId="1" GoBack="2" latitude="24.1322" longitude="120.66481" inDis="50" outDis="50" oid="AF49E54B9B284923BA7F6109056B5FAE" /><Stop Id="0176" routeId="30" nameZh="五權樂群街口" seqNo="26" pgp="0" terminal="0" districtId="1" GoBack="2" latitude="24.13277" longitude="120.6669" inDis="50" outDis="50" oid="C96D1FC17B0C4FFE9535A67D616F381F" /><Stop Id="4603" routeId="30" nameZh="五權柳川西路口" seqNo="27" pgp="0" terminal="0" districtId="1" GoBack="2" latitude="24.1346" longitude="120.66595" inDis="50" outDis="50" oid="301134650" /><Stop Id="0174" routeId="30" nameZh="五權公館路口" seqNo="28" pgp="0" terminal="0" districtId="1" GoBack="2" latitude="24.13701" longitude="120.66573" inDis="50" outDis="50" oid="2A524D799F644D13BBD26C6F69D9ECD6" /><Stop Id="0173" routeId="30" nameZh="五權五廊街口" seqNo="29" pgp="0" terminal="0" districtId="1" GoBack="2" latitude="24.13821" longitude="120.66575" inDis="50" outDis="50" oid="FA93F3CE38144635AAE2D0B5B67682CC" /><Stop Id="5088" routeId="30" nameZh="大墩文化中心(五權路)" seqNo="30" pgp="0" terminal="0" districtId="1" GoBack="2" latitude="24.14074" longitude="120.66647" inDis="50" outDis="50" oid="05CB21FCE0D54B93863FAA61560ABBE3" /><Stop Id="4261" routeId="30" nameZh="五權自立街口" seqNo="31" pgp="0" terminal="0" districtId="1" GoBack="2" latitude="24.14308" longitude="120.66888" inDis="50" outDis="50" oid="0125D1061224430FB618F8B76BF320E3" /><Stop Id="4260" routeId="30" nameZh="五權民生路口" seqNo="32" pgp="0" terminal="0" districtId="1" GoBack="2" latitude="24.14443" longitude="120.67028" inDis="50" outDis="50" oid="3C9BF9490D3649D1A4FB73910556B3DD" /><Stop Id="0513" routeId="30" nameZh="臺中教育大學" seqNo="33" pgp="0" terminal="0" districtId="1" GoBack="2" latitude="24.14474" longitude="120.67192" inDis="50" outDis="50" oid="487266B6A18D430DA1A4D30BD3B2744B" /><Stop Id="4623" routeId="30" nameZh="民權中華路口" seqNo="34" pgp="0" terminal="0" districtId="1" GoBack="2" latitude="24.14257" longitude="120.67464" inDis="50" outDis="50" oid="772FFD21B46D4E16AAC6A8B3CCE38713" /><Stop Id="0208" routeId="30" nameZh="臺中醫院" seqNo="35" pgp="0" terminal="0" districtId="1" GoBack="2" latitude="24.14097" longitude="120.6765" inDis="50" outDis="50" oid="8157" /><Stop Id="4416" routeId="30" nameZh="臺中州廳" seqNo="36" pgp="0" terminal="0" districtId="1" GoBack="2" latitude="24.13905" longitude="120.67845" inDis="50" outDis="50" oid="30640DF0F55C440D9145D196C4305457" /><Stop Id="0215" routeId="30" nameZh="合作金庫" seqNo="37" pgp="0" terminal="0" districtId="1" GoBack="2" latitude="24.13839" longitude="120.68063" inDis="50" outDis="50" oid="CDF8AC37EA3147C29025FB50FAF35494" /><Stop Id="0216" routeId="30" nameZh="彰化銀行(自由路)" seqNo="38" pgp="0" terminal="0" districtId="1" GoBack="2" latitude="24.1397" longitude="120.68172" inDis="50" outDis="50" oid="6ADAC683C94A4B6CA183F1DF21164DBB" /><Stop Id="0402" routeId="30" nameZh="干城站" seqNo="40" pgp="0" terminal="0" districtId="1" GoBack="2" latitude="24.14124" longitude="120.68568" inDis="50" outDis="50" oid="0131F2B604D5433DB522653183D2CEF5" /><Stop Id="0443" routeId="30" nameZh="仁友東站" seqNo="41" pgp="0" terminal="0" districtId="1" GoBack="2" latitude="24.13937" longitude="120.68501" inDis="50" outDis="50" oid="8431DD73B3FD4CB9BDE7296721CB591B" /></BusInfo></BusDynInfo>