<?xml version="1.0" encoding="UTF-8" standalone="yes"?>
<BusDynInfo><EssentialInfo><Location><name>TCBUS</name><CenterName>Maxwin</CenterName></Location><UpdateTime>2014-12-20 07:47:32</UpdateTime><CoordinateSystem/></EssentialInfo>
<BusInfo><Stop Id="4516" routeId="88" nameZh="鹿寮國中(光華路)" seqNo="1" pgp="0" terminal="0" districtId="1" GoBack="1" latitude="24.24373" longitude="120.56679" inDis="50" outDis="50" oid="305379424" /><Stop Id="5140" routeId="88" nameZh="童綜合醫院(沙鹿院區)" seqNo="2" pgp="0" terminal="0" districtId="1" GoBack="1" latitude="24.24245" longitude="120.56127" inDis="50" outDis="50" oid="14047" /><Stop Id="2335" routeId="88" nameZh="居仁里" seqNo="3" pgp="0" terminal="0" districtId="1" GoBack="1" latitude="24.24015" longitude="120.56309" inDis="50" outDis="50" oid="13497" /><Stop Id="0005" routeId="88" nameZh="沙鹿高工(臺灣大道)" seqNo="4" pgp="0" terminal="0" districtId="1" GoBack="1" latitude="24.23926" longitude="120.56535" inDis="50" outDis="50" oid="13493" /><Stop Id="2147" routeId="88" nameZh="竹林國小" seqNo="5" pgp="0" terminal="0" districtId="1" GoBack="1" latitude="24.23847" longitude="120.56774" inDis="50" outDis="50" oid="13487" /><Stop Id="4389" routeId="88" nameZh="竹林里" seqNo="6" pgp="0" terminal="0" districtId="1" GoBack="1" latitude="24.23609" longitude="120.57013" inDis="50" outDis="50" oid="13483" /><Stop Id="4392" routeId="88" nameZh="紅竹巷" seqNo="7" pgp="0" terminal="0" districtId="1" GoBack="1" latitude="24.23325" longitude="120.57198" inDis="50" outDis="100" oid="13510" /><Stop Id="4086" routeId="88" nameZh="臺灣大道北勢路口" seqNo="8" pgp="0" terminal="0" districtId="1" GoBack="1" latitude="24.23028" longitude="120.57389" inDis="50" outDis="50" oid="13456" /><Stop Id="4147" routeId="88" nameZh="靜宜大學" seqNo="9" pgp="0" terminal="0" districtId="1" GoBack="1" latitude="24.22583" longitude="120.57674" inDis="50" outDis="50" oid="13568" /><Stop Id="4062" routeId="88" nameZh="下晉江" seqNo="10" pgp="0" terminal="0" districtId="1" GoBack="1" latitude="24.22342" longitude="120.57829" inDis="50" outDis="50" oid="13417" /><Stop Id="4111" routeId="88" nameZh="晉江里" seqNo="11" pgp="0" terminal="0" districtId="1" GoBack="1" latitude="24.22143" longitude="120.57956" inDis="50" outDis="50" oid="13515" /><Stop Id="4386" routeId="88" nameZh="弘光科技大學" seqNo="12" pgp="0" terminal="0" districtId="1" GoBack="1" latitude="24.21743" longitude="120.58041" inDis="50" outDis="50" oid="13477" /><Stop Id="4124" routeId="88" nameZh="頂六路" seqNo="13" pgp="0" terminal="0" districtId="1" GoBack="1" latitude="24.21314" longitude="120.58096" inDis="50" outDis="50" oid="13535" /><Stop Id="4136" routeId="88" nameZh="祿清宮" seqNo="14" pgp="0" terminal="0" districtId="1" GoBack="1" latitude="24.209" longitude="120.58144" inDis="50" outDis="50" oid="13558" /><Stop Id="4388" routeId="88" nameZh="后厝仔" seqNo="15" pgp="0" terminal="0" districtId="1" GoBack="1" latitude="24.19911" longitude="120.58065" inDis="50" outDis="50" oid="13482" /><Stop Id="4061" routeId="88" nameZh="下坪頂" seqNo="16" pgp="0" terminal="0" districtId="1" GoBack="1" latitude="24.18754" longitude="120.58253" inDis="50" outDis="50" oid="13415" /><Stop Id="2325" routeId="88" nameZh="坪頂" seqNo="17" pgp="0" terminal="0" districtId="1" GoBack="1" latitude="24.186" longitude="120.58603" inDis="50" outDis="50" oid="7104" /><Stop Id="5304" routeId="88" nameZh="東海街口" seqNo="18" pgp="0" terminal="0" districtId="1" GoBack="1" latitude="24.1853" longitude="120.58788" inDis="50" outDis="50" oid="311234408" /><Stop Id="4383" routeId="88" nameZh="臺糖公營學苑" seqNo="19" pgp="0" terminal="0" districtId="1" GoBack="1" latitude="24.18367" longitude="120.59125" inDis="50" outDis="50" oid="13471" /><Stop Id="0240" routeId="88" nameZh="東海別墅" seqNo="20" pgp="0" terminal="0" districtId="1" GoBack="1" latitude="24.18288" longitude="120.59349" inDis="50" outDis="50" oid="13506" /><Stop Id="0526" routeId="88" nameZh="台中精機" seqNo="21" pgp="0" terminal="0" districtId="1" GoBack="1" latitude="24.18208" longitude="120.5973" inDis="50" outDis="50" oid="13469" /><Stop Id="5386" routeId="88" nameZh="臺中榮總(臺灣大道)" seqNo="22" pgp="0" terminal="0" districtId="1" GoBack="1" latitude="24.18349" longitude="120.60491" inDis="50" outDis="50" oid="7553" /><Stop Id="2378" routeId="88" nameZh="東大附中" seqNo="23" pgp="0" terminal="0" districtId="1" GoBack="1" latitude="24.18365" longitude="120.60686" inDis="50" outDis="50" oid="7624" /><Stop Id="0004" routeId="88" nameZh="普濟寺" seqNo="24" pgp="0" terminal="0" districtId="1" GoBack="1" latitude="24.18408" longitude="120.60839" inDis="50" outDis="50" oid="7475" /><Stop Id="4335" routeId="88" nameZh="臺灣大道玉門路口" seqNo="25" pgp="0" terminal="0" districtId="1" GoBack="1" latitude="24.18466" longitude="120.6102" inDis="50" outDis="50" oid="13438" /><Stop Id="0006" routeId="88" nameZh="臺中捐血中心" seqNo="26" pgp="0" terminal="0" districtId="1" GoBack="1" latitude="24.184" longitude="120.61316" inDis="50" outDis="50" oid="13462" /><Stop Id="0430" routeId="88" nameZh="中港澄清醫院" seqNo="27" pgp="0" terminal="0" districtId="1" GoBack="1" latitude="24.18267" longitude="120.61597" inDis="50" outDis="50" oid="13445" /><Stop Id="0008" routeId="88" nameZh="中港新城" seqNo="28" pgp="0" terminal="0" districtId="1" GoBack="1" latitude="24.18145" longitude="120.6183" inDis="50" outDis="50" oid="320062561" /><Stop Id="3060" routeId="88" nameZh="統聯轉運站" seqNo="29" pgp="0" terminal="0" districtId="1" GoBack="1" latitude="24.18006" longitude="120.62116" inDis="50" outDis="50" oid="13534" /><Stop Id="5149" routeId="88" nameZh="福安里(臺灣大道)" seqNo="30" pgp="0" terminal="0" districtId="1" GoBack="1" latitude="24.1787" longitude="120.62374" inDis="50" outDis="50" oid="319908747" /><Stop Id="0054" routeId="88" nameZh="朝馬(臺灣大道)" seqNo="31" pgp="0" terminal="0" districtId="1" GoBack="1" latitude="24.17059" longitude="120.63717" inDis="50" outDis="50" oid="313524993" /><Stop Id="0826" routeId="88" nameZh="秋紅谷(朝陽橋)" seqNo="32" pgp="0" terminal="0" districtId="1" GoBack="1" latitude="24.16865" longitude="120.63957" inDis="50" outDis="50" oid="13543" /><Stop Id="0015" routeId="88" nameZh="教師新村" seqNo="33" pgp="0" terminal="0" districtId="1" GoBack="1" latitude="24.1671" longitude="120.64186" inDis="50" outDis="50" oid="7412" /><Stop Id="0016" routeId="88" nameZh="新光三越" seqNo="34" pgp="0" terminal="0" districtId="1" GoBack="1" latitude="24.16551" longitude="120.64429" inDis="50" outDis="50" oid="7512" /><Stop Id="0017" routeId="88" nameZh="臺中市政府" seqNo="35" pgp="0" terminal="0" districtId="1" GoBack="1" latitude="24.16349" longitude="120.64806" inDis="50" outDis="50" oid="7473" /><Stop Id="4564" routeId="88" nameZh="臺灣大道文心路口" seqNo="36" pgp="0" terminal="0" districtId="1" GoBack="1" latitude="24.16212" longitude="120.65061" inDis="50" outDis="50" oid="7323" /><Stop Id="4566" routeId="88" nameZh="何厝(臺灣大道)" seqNo="37" pgp="0" terminal="0" districtId="1" GoBack="1" latitude="24.16046" longitude="120.65407" inDis="50" outDis="50" oid="7088" /><Stop Id="4569" routeId="88" nameZh="頂何厝(臺灣大道)" seqNo="38" pgp="0" terminal="0" districtId="1" GoBack="1" latitude="24.15891" longitude="120.65638" inDis="50" outDis="50" oid="7455" /><Stop Id="0087" routeId="88" nameZh="忠明國小" seqNo="39" pgp="0" terminal="0" districtId="1" GoBack="1" latitude="24.15776" longitude="120.65849" inDis="50" outDis="50" oid="7112" /><Stop Id="0320" routeId="88" nameZh="科學博物館(臺灣大道)" seqNo="40" pgp="0" terminal="0" districtId="1" GoBack="1" latitude="24.1552" longitude="120.66313" inDis="50" outDis="50" oid="319472665" /><Stop Id="0419" routeId="88" nameZh="中正國小" seqNo="41" pgp="0" terminal="0" districtId="1" GoBack="1" latitude="24.15291" longitude="120.66725" inDis="50" outDis="50" oid="7258" /><Stop Id="4619" routeId="88" nameZh="臺灣大道民權路口" seqNo="42" pgp="0" terminal="0" districtId="1" GoBack="1" latitude="24.15143" longitude="120.66933" inDis="50" outDis="50" oid="7040" /><Stop Id="0723" routeId="88" nameZh="茄苳腳" seqNo="43" pgp="0" terminal="0" districtId="1" GoBack="1" latitude="24.14937" longitude="120.67155" inDis="50" outDis="50" oid="13513" /><Stop Id="5092" routeId="88" nameZh="臺灣大道原子街口" seqNo="44" pgp="0" terminal="0" districtId="1" GoBack="1" latitude="24.14651" longitude="120.67479" inDis="50" outDis="50" oid="300262018" /><Stop Id="4375" routeId="88" nameZh="臺灣大道中華路口" seqNo="45" pgp="0" terminal="0" districtId="1" GoBack="1" latitude="24.14482" longitude="120.67688" inDis="50" outDis="50" oid="8242" /><Stop Id="4662" routeId="88" nameZh="仁愛醫院" seqNo="46" pgp="0" terminal="0" districtId="1" GoBack="1" latitude="24.1435" longitude="120.67823" inDis="50" outDis="50" oid="24DEA478B1C34307AD5865881E001C24" /><Stop Id="4395" routeId="88" nameZh="第二市場(臺灣大道)" seqNo="47" pgp="0" terminal="0" districtId="1" GoBack="1" latitude="24.14202" longitude="120.67997" inDis="50" outDis="50" oid="13530" /><Stop Id="4401" routeId="88" nameZh="彰化銀行(臺灣大道)" seqNo="48" pgp="0" terminal="0" districtId="1" GoBack="1" latitude="24.13977" longitude="120.68262" inDis="50" outDis="50" oid="310758072" /><Stop Id="0151" routeId="88" nameZh="第一廣場" seqNo="49" pgp="0" terminal="0" districtId="1" GoBack="1" latitude="24.13878" longitude="120.68368" inDis="50" outDis="50" oid="8161" /><Stop Id="1824" routeId="88" nameZh="臺中火車站" seqNo="50" pgp="0" terminal="0" districtId="1" GoBack="1" latitude="24.13726" longitude="120.6846" inDis="50" outDis="50" oid="7358" /><Stop Id="0402" routeId="88" nameZh="干城站" seqNo="51" pgp="0" terminal="0" districtId="1" GoBack="1" latitude="24.14087" longitude="120.68576" inDis="50" outDis="50" oid="300262027" /><Stop Id="4561" routeId="88" nameZh="立體停車場(雙十路)" seqNo="52" pgp="0" terminal="0" districtId="1" GoBack="1" latitude="24.14248" longitude="120.68582" inDis="50" outDis="50" oid="4C0F8426770D41898B45F60F2EFB829E" /><Stop Id="4544" routeId="88" nameZh="臺中公園(雙十路)" seqNo="53" pgp="0" terminal="0" districtId="1" GoBack="1" latitude="24.14416" longitude="120.68606" inDis="50" outDis="50" oid="300262031" /><Stop Id="1513" routeId="88" nameZh="中興堂" seqNo="54" pgp="0" terminal="0" districtId="1" GoBack="1" latitude="24.14626" longitude="120.68448" inDis="50" outDis="50" oid="15989" /><Stop Id="0045" routeId="88" nameZh="國立臺中科技大學" seqNo="55" pgp="0" terminal="0" districtId="1" GoBack="1" latitude="24.1495" longitude="120.68398" inDis="50" outDis="50" oid="13460" /><Stop Id="0046" routeId="88" nameZh="中友百貨" seqNo="56" pgp="0" terminal="0" districtId="1" GoBack="1" latitude="24.15223" longitude="120.68517" inDis="50" outDis="50" oid="13430" /><Stop Id="0203" routeId="88" nameZh="市立殯儀館" seqNo="57" pgp="0" terminal="0" districtId="1" GoBack="1" latitude="24.15637" longitude="120.68548" inDis="50" outDis="50" oid="13474" /><Stop Id="4400" routeId="88" nameZh="新民高中(健行路)" seqNo="1" pgp="0" terminal="0" districtId="1" GoBack="2" latitude="24.15902" longitude="120.68724" inDis="50" outDis="50" oid="13554" /><Stop Id="0960" routeId="88" nameZh="寶覺寺" seqNo="2" pgp="0" terminal="0" districtId="1" GoBack="2" latitude="24.15797" longitude="120.68961" inDis="50" outDis="50" oid="13570" /><Stop Id="4399" routeId="88" nameZh="新民高中(三民路)" seqNo="3" pgp="0" terminal="0" districtId="1" GoBack="2" latitude="24.1564" longitude="120.688" inDis="50" outDis="50" oid="13553" /><Stop Id="0047" routeId="88" nameZh="一心市場" seqNo="4" pgp="0" terminal="0" districtId="1" GoBack="2" latitude="24.15369" longitude="120.68563" inDis="50" outDis="50" oid="F0119547CD3849D384500658BE2345D3" /><Stop Id="0046" routeId="88" nameZh="中友百貨" seqNo="5" pgp="0" terminal="0" districtId="1" GoBack="2" latitude="24.15223" longitude="120.68517" inDis="50" outDis="50" oid="13430" /><Stop Id="0045" routeId="88" nameZh="國立臺中科技大學" seqNo="6" pgp="0" terminal="0" districtId="1" GoBack="2" latitude="24.1495" longitude="120.68398" inDis="50" outDis="50" oid="13460" /><Stop Id="1513" routeId="88" nameZh="中興堂" seqNo="7" pgp="0" terminal="0" districtId="1" GoBack="2" latitude="24.14621" longitude="120.68463" inDis="50" outDis="50" oid="16096" /><Stop Id="4544" routeId="88" nameZh="臺中公園(雙十路)" seqNo="8" pgp="0" terminal="0" districtId="1" GoBack="2" latitude="24.14416" longitude="120.68606" inDis="50" outDis="50" oid="300262031" /><Stop Id="0402" routeId="88" nameZh="干城站" seqNo="9" pgp="0" terminal="0" districtId="1" GoBack="2" latitude="24.14087" longitude="120.68576" inDis="50" outDis="50" oid="300262027" /><Stop Id="1824" routeId="88" nameZh="臺中火車站" seqNo="10" pgp="0" terminal="0" districtId="1" GoBack="2" latitude="24.13726" longitude="120.6846" inDis="50" outDis="50" oid="7358" /><Stop Id="0151" routeId="88" nameZh="第一廣場" seqNo="11" pgp="0" terminal="0" districtId="1" GoBack="2" latitude="24.13878" longitude="120.68368" inDis="50" outDis="50" oid="8161" /><Stop Id="4401" routeId="88" nameZh="彰化銀行(臺灣大道)" seqNo="12" pgp="0" terminal="0" districtId="1" GoBack="2" latitude="24.13977" longitude="120.68262" inDis="50" outDis="50" oid="310758072" /><Stop Id="0206" routeId="88" nameZh="第一信用" seqNo="13" pgp="0" terminal="0" districtId="1" GoBack="2" latitude="24.14044" longitude="120.6819" inDis="50" outDis="50" oid="13527" /><Stop Id="4395" routeId="88" nameZh="第二市場(臺灣大道)" seqNo="14" pgp="0" terminal="0" districtId="1" GoBack="2" latitude="24.1427" longitude="120.67937" inDis="50" outDis="50" oid="13529" /><Stop Id="4375" routeId="88" nameZh="臺灣大道中華路口" seqNo="16" pgp="0" terminal="0" districtId="1" GoBack="2" latitude="24.14482" longitude="120.67688" inDis="50" outDis="50" oid="8242" /><Stop Id="5092" routeId="88" nameZh="臺灣大道原子街口" seqNo="17" pgp="0" terminal="0" districtId="1" GoBack="2" latitude="24.14651" longitude="120.67479" inDis="50" outDis="50" oid="300262018" /><Stop Id="0723" routeId="88" nameZh="茄苳腳" seqNo="18" pgp="0" terminal="0" districtId="1" GoBack="2" latitude="24.14955" longitude="120.67155" inDis="50" outDis="50" oid="7182" /><Stop Id="4619" routeId="88" nameZh="臺灣大道民權路口" seqNo="19" pgp="0" terminal="0" districtId="1" GoBack="2" latitude="24.15165" longitude="120.66931" inDis="50" outDis="50" oid="13478" /><Stop Id="0419" routeId="88" nameZh="中正國小" seqNo="20" pgp="0" terminal="0" districtId="1" GoBack="2" latitude="24.1531" longitude="120.66729" inDis="50" outDis="50" oid="7256" /><Stop Id="0320" routeId="88" nameZh="科學博物館(臺灣大道)" seqNo="21" pgp="0" terminal="0" districtId="1" GoBack="2" latitude="24.1552" longitude="120.66313" inDis="50" outDis="50" oid="319472665" /><Stop Id="0087" routeId="88" nameZh="忠明國小" seqNo="22" pgp="0" terminal="0" districtId="1" GoBack="2" latitude="24.15787" longitude="120.65875" inDis="50" outDis="50" oid="13500" /><Stop Id="4569" routeId="88" nameZh="頂何厝(臺灣大道)" seqNo="23" pgp="0" terminal="0" districtId="1" GoBack="2" latitude="24.1592" longitude="120.65635" inDis="50" outDis="50" oid="7456" /><Stop Id="4566" routeId="88" nameZh="何厝(臺灣大道)" seqNo="24" pgp="0" terminal="0" districtId="1" GoBack="2" latitude="24.16046" longitude="120.65407" inDis="50" outDis="50" oid="7088" /><Stop Id="4564" routeId="88" nameZh="臺灣大道文心路口" seqNo="25" pgp="0" terminal="0" districtId="1" GoBack="2" latitude="24.16218" longitude="120.65095" inDis="50" outDis="50" oid="13452" /><Stop Id="0017" routeId="88" nameZh="臺中市政府" seqNo="26" pgp="0" terminal="0" districtId="1" GoBack="2" latitude="24.16416" longitude="120.64686" inDis="50" outDis="50" oid="7472" /><Stop Id="0016" routeId="88" nameZh="新光三越" seqNo="27" pgp="0" terminal="0" districtId="1" GoBack="2" latitude="24.16578" longitude="120.64428" inDis="50" outDis="50" oid="13555" /><Stop Id="0015" routeId="88" nameZh="教師新村" seqNo="28" pgp="0" terminal="0" districtId="1" GoBack="2" latitude="24.16733" longitude="120.64194" inDis="50" outDis="50" oid="7411" /><Stop Id="0826" routeId="88" nameZh="秋紅谷(朝陽橋)" seqNo="29" pgp="0" terminal="0" districtId="1" GoBack="2" latitude="24.16865" longitude="120.63957" inDis="50" outDis="50" oid="13543" /><Stop Id="0054" routeId="88" nameZh="朝馬(臺灣大道)" seqNo="30" pgp="0" terminal="0" districtId="1" GoBack="2" latitude="24.17059" longitude="120.63717" inDis="50" outDis="50" oid="313524993" /><Stop Id="5149" routeId="88" nameZh="福安里(臺灣大道)" seqNo="31" pgp="0" terminal="0" districtId="1" GoBack="2" latitude="24.17849" longitude="120.62485" inDis="50" outDis="50" oid="12822" /><Stop Id="3060" routeId="88" nameZh="統聯轉運站" seqNo="32" pgp="0" terminal="0" districtId="1" GoBack="2" latitude="24.18006" longitude="120.62116" inDis="50" outDis="50" oid="13534" /><Stop Id="0008" routeId="88" nameZh="中港新城" seqNo="33" pgp="0" terminal="0" districtId="1" GoBack="2" latitude="24.18099" longitude="120.61946" inDis="50" outDis="50" oid="12823" /><Stop Id="0430" routeId="88" nameZh="中港澄清醫院" seqNo="34" pgp="0" terminal="0" districtId="1" GoBack="2" latitude="24.18298" longitude="120.61584" inDis="50" outDis="50" oid="13446" /><Stop Id="0006" routeId="88" nameZh="臺中捐血中心" seqNo="35" pgp="0" terminal="0" districtId="1" GoBack="2" latitude="24.18444" longitude="120.61262" inDis="50" outDis="50" oid="13463" /><Stop Id="4335" routeId="88" nameZh="臺灣大道玉門路口" seqNo="36" pgp="0" terminal="0" districtId="1" GoBack="2" latitude="24.18466" longitude="120.6102" inDis="50" outDis="50" oid="13438" /><Stop Id="0004" routeId="88" nameZh="普濟寺" seqNo="37" pgp="0" terminal="0" districtId="1" GoBack="2" latitude="24.18422" longitude="120.60821" inDis="50" outDis="50" oid="7474" /><Stop Id="2378" routeId="88" nameZh="東大附中" seqNo="38" pgp="0" terminal="0" districtId="1" GoBack="2" latitude="24.18371" longitude="120.60633" inDis="50" outDis="50" oid="7623" /><Stop Id="5386" routeId="88" nameZh="臺中榮總(臺灣大道)" seqNo="39" pgp="0" terminal="0" districtId="1" GoBack="2" latitude="24.18349" longitude="120.60491" inDis="50" outDis="50" oid="313588801" /><Stop Id="0526" routeId="88" nameZh="台中精機" seqNo="40" pgp="0" terminal="0" districtId="1" GoBack="2" latitude="24.18208" longitude="120.5973" inDis="50" outDis="50" oid="13469" /><Stop Id="0240" routeId="88" nameZh="東海別墅" seqNo="41" pgp="0" terminal="0" districtId="1" GoBack="2" latitude="24.18288" longitude="120.59349" inDis="50" outDis="50" oid="13506" /><Stop Id="4383" routeId="88" nameZh="臺糖公營學苑" seqNo="42" pgp="0" terminal="0" districtId="1" GoBack="2" latitude="24.18367" longitude="120.59125" inDis="50" outDis="50" oid="13471" /><Stop Id="5304" routeId="88" nameZh="東海街口" seqNo="43" pgp="0" terminal="0" districtId="1" GoBack="2" latitude="24.1853" longitude="120.58788" inDis="50" outDis="50" oid="311234408" /><Stop Id="2325" routeId="88" nameZh="坪頂" seqNo="44" pgp="0" terminal="0" districtId="1" GoBack="2" latitude="24.186" longitude="120.58603" inDis="50" outDis="50" oid="7104" /><Stop Id="4061" routeId="88" nameZh="下坪頂" seqNo="45" pgp="0" terminal="0" districtId="1" GoBack="2" latitude="24.18754" longitude="120.58253" inDis="50" outDis="50" oid="13415" /><Stop Id="4388" routeId="88" nameZh="后厝仔" seqNo="46" pgp="0" terminal="0" districtId="1" GoBack="2" latitude="24.19911" longitude="120.58065" inDis="50" outDis="50" oid="13482" /><Stop Id="4136" routeId="88" nameZh="祿清宮" seqNo="47" pgp="0" terminal="0" districtId="1" GoBack="2" latitude="24.209" longitude="120.58144" inDis="50" outDis="50" oid="13558" /><Stop Id="4124" routeId="88" nameZh="頂六路" seqNo="48" pgp="0" terminal="0" districtId="1" GoBack="2" latitude="24.21314" longitude="120.58096" inDis="50" outDis="50" oid="13535" /><Stop Id="4386" routeId="88" nameZh="弘光科技大學" seqNo="49" pgp="0" terminal="0" districtId="1" GoBack="2" latitude="24.21743" longitude="120.58041" inDis="50" outDis="50" oid="13477" /><Stop Id="4111" routeId="88" nameZh="晉江里" seqNo="50" pgp="0" terminal="0" districtId="1" GoBack="2" latitude="24.22143" longitude="120.57956" inDis="50" outDis="50" oid="13515" /><Stop Id="4062" routeId="88" nameZh="下晉江" seqNo="51" pgp="0" terminal="0" districtId="1" GoBack="2" latitude="24.22342" longitude="120.57829" inDis="50" outDis="50" oid="13417" /><Stop Id="4147" routeId="88" nameZh="靜宜大學" seqNo="52" pgp="0" terminal="0" districtId="1" GoBack="2" latitude="24.22583" longitude="120.57674" inDis="50" outDis="50" oid="13568" /><Stop Id="4086" routeId="88" nameZh="臺灣大道北勢路口" seqNo="53" pgp="0" terminal="0" districtId="1" GoBack="2" latitude="24.23028" longitude="120.57389" inDis="50" outDis="50" oid="13456" /><Stop Id="4392" routeId="88" nameZh="紅竹巷" seqNo="54" pgp="0" terminal="0" districtId="1" GoBack="2" latitude="24.23325" longitude="120.57198" inDis="50" outDis="100" oid="13510" /><Stop Id="4389" routeId="88" nameZh="竹林里" seqNo="55" pgp="0" terminal="0" districtId="1" GoBack="2" latitude="24.23609" longitude="120.57013" inDis="50" outDis="50" oid="13483" /><Stop Id="2147" routeId="88" nameZh="竹林國小" seqNo="56" pgp="0" terminal="0" districtId="1" GoBack="2" latitude="24.23847" longitude="120.56774" inDis="50" outDis="50" oid="13487" /><Stop Id="0005" routeId="88" nameZh="沙鹿高工(臺灣大道)" seqNo="57" pgp="0" terminal="0" districtId="1" GoBack="2" latitude="24.23926" longitude="120.56535" inDis="50" outDis="50" oid="13493" /><Stop Id="2335" routeId="88" nameZh="居仁里" seqNo="58" pgp="0" terminal="0" districtId="1" GoBack="2" latitude="24.24007" longitude="120.56346" inDis="50" outDis="50" oid="13498" /><Stop Id="5140" routeId="88" nameZh="童綜合醫院(沙鹿院區)" seqNo="59" pgp="0" terminal="0" districtId="1" GoBack="2" latitude="24.24245" longitude="120.56127" inDis="50" outDis="50" oid="14047" /><Stop Id="4516" routeId="88" nameZh="鹿寮國中(光華路)" seqNo="60" pgp="0" terminal="0" districtId="1" GoBack="2" latitude="24.24373" longitude="120.56679" inDis="50" outDis="50" oid="305379424" /></BusInfo></BusDynInfo>