<?xml version="1.0" encoding="UTF-8" standalone="yes"?>
<BusDynInfo><EssentialInfo><Location><name>TCBUS</name><CenterName>Maxwin</CenterName></Location><UpdateTime>2014-12-20 07:23:33</UpdateTime><CoordinateSystem/></EssentialInfo>
<BusInfo><Stop Id="4618" routeId="12" nameZh="明德高中(明德街)" seqNo="1" pgp="0" terminal="0" districtId="1" GoBack="1" latitude="24.1211" longitude="120.68414" inDis="50" outDis="50" oid="8941" /><Stop Id="0255" routeId="12" nameZh="南門仔" seqNo="2" pgp="0" terminal="0" districtId="1" GoBack="1" latitude="24.12555" longitude="120.68424" inDis="50" outDis="50" oid="6619BD77BE964E6E951A771062BD126E" /><Stop Id="5607" routeId="12" nameZh="興大附農(臺中路)" seqNo="3" pgp="0" terminal="0" districtId="1" GoBack="1" latitude="24.12747" longitude="120.68452" inDis="50" outDis="50" oid="95879C963BCD4EAB8A376EF9655A419C" /><Stop Id="0257" routeId="12" nameZh="臺中國小" seqNo="4" pgp="0" terminal="0" districtId="1" GoBack="1" latitude="24.13028" longitude="120.68499" inDis="50" outDis="50" oid="5561" /><Stop Id="0049" routeId="12" nameZh="第三市場(臺中家商)" seqNo="5" pgp="0" terminal="0" districtId="1" GoBack="1" latitude="24.13246" longitude="120.68381" inDis="50" outDis="50" oid="6258" /><Stop Id="1824" routeId="12" nameZh="臺中火車站" seqNo="6" pgp="0" terminal="0" districtId="1" GoBack="1" latitude="24.13663" longitude="120.68387" inDis="50" outDis="170" oid="5545" /><Stop Id="0402" routeId="12" nameZh="干城站" seqNo="7" pgp="0" terminal="0" districtId="1" GoBack="1" latitude="24.14101" longitude="120.68597" inDis="50" outDis="50" oid="315959597" /><Stop Id="4544" routeId="12" nameZh="臺中公園(雙十路)" seqNo="8" pgp="0" terminal="0" districtId="1" GoBack="1" latitude="24.14419" longitude="120.68597" inDis="50" outDis="50" oid="5554" /><Stop Id="1513" routeId="12" nameZh="中興堂" seqNo="9" pgp="0" terminal="0" districtId="1" GoBack="1" latitude="24.14626" longitude="120.68448" inDis="50" outDis="50" oid="15989" /><Stop Id="0045" routeId="12" nameZh="國立臺中科技大學" seqNo="10" pgp="0" terminal="0" districtId="1" GoBack="1" latitude="24.14987" longitude="120.68413" inDis="50" outDis="50" oid="5556" /><Stop Id="0046" routeId="12" nameZh="中友百貨" seqNo="11" pgp="0" terminal="0" districtId="1" GoBack="1" latitude="24.15251" longitude="120.6852" inDis="50" outDis="50" oid="5310" /><Stop Id="0203" routeId="12" nameZh="市立殯儀館" seqNo="12" pgp="0" terminal="0" districtId="1" GoBack="1" latitude="24.15626" longitude="120.68566" inDis="50" outDis="50" oid="8942" /><Stop Id="4607" routeId="12" nameZh="新民高中(崇德路)" seqNo="13" pgp="0" terminal="0" districtId="1" GoBack="1" latitude="24.15959" longitude="120.6851" inDis="50" outDis="50" oid="026609FDC5D64BE88A71CB2F24E08470" /><Stop Id="4576" routeId="12" nameZh="崇德德化街口" seqNo="14" pgp="0" terminal="0" districtId="1" GoBack="1" latitude="24.16146" longitude="120.68514" inDis="50" outDis="50" oid="8944" /><Stop Id="0098" routeId="12" nameZh="崇德橋" seqNo="15" pgp="0" terminal="0" districtId="1" GoBack="1" latitude="24.16438" longitude="120.68514" inDis="50" outDis="50" oid="8945" /><Stop Id="3511" routeId="12" nameZh="聖德禪寺" seqNo="16" pgp="0" terminal="0" districtId="1" GoBack="1" latitude="24.16801" longitude="120.68525" inDis="50" outDis="50" oid="8946" /><Stop Id="1768" routeId="12" nameZh="崇德北平路口" seqNo="17" pgp="0" terminal="0" districtId="1" GoBack="1" latitude="24.17021" longitude="120.68537" inDis="50" outDis="50" oid="8947" /><Stop Id="4339" routeId="12" nameZh="崇德文心路口" seqNo="18" pgp="0" terminal="0" districtId="1" GoBack="1" latitude="24.17147" longitude="120.68539" inDis="50" outDis="50" oid="8948" /><Stop Id="0199" routeId="12" nameZh="崇德瀋陽路口" seqNo="19" pgp="0" terminal="0" districtId="1" GoBack="1" latitude="24.17302" longitude="120.68552" inDis="50" outDis="50" oid="8949" /><Stop Id="5131" routeId="12" nameZh="崇德國中(民俗公園)" seqNo="20" pgp="0" terminal="0" districtId="1" GoBack="1" latitude="24.17455" longitude="120.68569" inDis="50" outDis="50" oid="8950" /><Stop Id="0196" routeId="12" nameZh="崇德一路口" seqNo="21" pgp="0" terminal="0" districtId="1" GoBack="1" latitude="24.17675" longitude="120.68579" inDis="50" outDis="50" oid="8951" /><Stop Id="0195" routeId="12" nameZh="崇德五路口" seqNo="22" pgp="0" terminal="0" districtId="1" GoBack="1" latitude="24.17894" longitude="120.68605" inDis="50" outDis="50" oid="8963" /><Stop Id="5387" routeId="12" nameZh="崇德六路口" seqNo="23" pgp="0" terminal="0" districtId="1" GoBack="1" latitude="24.18086" longitude="120.68608" inDis="50" outDis="50" oid="8964" /><Stop Id="0194" routeId="12" nameZh="北屯區行政大樓" seqNo="24" pgp="0" terminal="0" districtId="1" GoBack="1" latitude="24.18203" longitude="120.68619" inDis="50" outDis="50" oid="8965" /><Stop Id="1393" routeId="12" nameZh="崇德山西路口" seqNo="25" pgp="0" terminal="0" districtId="1" GoBack="1" latitude="24.18493" longitude="120.68627" inDis="50" outDis="50" oid="8966" /><Stop Id="2958" routeId="12" nameZh="崇德九路口" seqNo="26" pgp="0" terminal="0" districtId="1" GoBack="1" latitude="24.18768" longitude="120.68622" inDis="50" outDis="50" oid="9114" /><Stop Id="2959" routeId="12" nameZh="崇德十路口" seqNo="27" pgp="0" terminal="0" districtId="1" GoBack="1" latitude="24.18806" longitude="120.68636" inDis="50" outDis="50" oid="9115" /><Stop Id="4252" routeId="12" nameZh="崇德豐樂路口" seqNo="28" pgp="0" terminal="0" districtId="1" GoBack="1" latitude="24.19258" longitude="120.68646" inDis="50" outDis="50" oid="9116" /><Stop Id="3818" routeId="12" nameZh="錦村市場" seqNo="29" pgp="0" terminal="0" districtId="1" GoBack="1" latitude="24.19588" longitude="120.68639" inDis="50" outDis="50" oid="320761402" /><Stop Id="4359" routeId="12" nameZh="臺中洲際棒球場" seqNo="30" pgp="0" terminal="0" districtId="1" GoBack="1" latitude="24.19889" longitude="120.68656" inDis="50" outDis="50" oid="9118" /><Stop Id="4647" routeId="12" nameZh="崇德環中路口" seqNo="31" pgp="0" terminal="0" districtId="1" GoBack="1" latitude="24.20195" longitude="120.68662" inDis="50" outDis="50" oid="9119" /><Stop Id="4406" routeId="12" nameZh="中油鴻陞加油站" seqNo="32" pgp="0" terminal="0" districtId="1" GoBack="1" latitude="24.20622" longitude="120.68662" inDis="50" outDis="50" oid="9205" /><Stop Id="4301" routeId="12" nameZh="崇德大豐一路口" seqNo="33" pgp="0" terminal="0" districtId="1" GoBack="1" latitude="24.21021" longitude="120.68673" inDis="50" outDis="50" oid="9206" /><Stop Id="4300" routeId="12" nameZh="崇德雅潭路口" seqNo="34" pgp="0" terminal="0" districtId="1" GoBack="1" latitude="24.21496" longitude="120.68792" inDis="50" outDis="50" oid="9207" /><Stop Id="5496" routeId="12" nameZh="天畝社區" seqNo="35" pgp="0" terminal="0" districtId="1" GoBack="1" latitude="24.21868" longitude="120.68884" inDis="50" outDis="50" oid="9208" /><Stop Id="5497" routeId="12" nameZh="歐洲村社區" seqNo="36" pgp="0" terminal="0" districtId="1" GoBack="1" latitude="24.22238" longitude="120.68962" inDis="50" outDis="50" oid="9209" /><Stop Id="4743" routeId="12" nameZh="崇德潭富路口" seqNo="37" pgp="0" terminal="0" districtId="1" GoBack="1" latitude="24.22542" longitude="120.69029" inDis="50" outDis="50" oid="9212" /><Stop Id="5498" routeId="12" nameZh="崇德祿社區" seqNo="38" pgp="0" terminal="0" districtId="1" GoBack="1" latitude="24.22772" longitude="120.69065" inDis="50" outDis="50" oid="9213" /><Stop Id="5499" routeId="12" nameZh="潭雅神綠園道(承德路)" seqNo="39" pgp="0" terminal="0" districtId="1" GoBack="1" latitude="24.2328" longitude="120.69513" inDis="50" outDis="50" oid="9214" /><Stop Id="4937" routeId="12" nameZh="承德三社東路口" seqNo="40" pgp="0" terminal="0" districtId="1" GoBack="1" latitude="24.23509" longitude="120.69874" inDis="50" outDis="50" oid="308835200" /><Stop Id="4936" routeId="12" nameZh="東龍家電" seqNo="41" pgp="0" terminal="0" districtId="1" GoBack="1" latitude="24.23716" longitude="120.70108" inDis="50" outDis="50" oid="308835198" /><Stop Id="5500" routeId="12" nameZh="合作國小(豐原大道)" seqNo="42" pgp="0" terminal="0" districtId="1" GoBack="1" latitude="24.23939" longitude="120.70327" inDis="50" outDis="50" oid="9218" /><Stop Id="5501" routeId="12" nameZh="豐原大道社皮路口" seqNo="43" pgp="0" terminal="0" districtId="1" GoBack="1" latitude="24.24232" longitude="120.70326" inDis="50" outDis="50" oid="9219" /><Stop Id="5502" routeId="12" nameZh="豐原大道一心路口" seqNo="44" pgp="0" terminal="0" districtId="1" GoBack="1" latitude="24.24572" longitude="120.70329" inDis="50" outDis="50" oid="9220" /><Stop Id="2349" routeId="12" nameZh="忠勤新村" seqNo="45" pgp="0" terminal="0" districtId="1" GoBack="1" latitude="24.24962" longitude="120.70434" inDis="50" outDis="50" oid="5856" /><Stop Id="1065" routeId="12" nameZh="三光新村" seqNo="46" pgp="0" terminal="0" districtId="1" GoBack="1" latitude="24.24999" longitude="120.70672" inDis="50" outDis="50" oid="5072" /><Stop Id="4448" routeId="12" nameZh="中正圓環西路口" seqNo="47" pgp="0" terminal="0" districtId="1" GoBack="1" latitude="24.25039" longitude="120.70963" inDis="50" outDis="50" oid="6688" /><Stop Id="3357" routeId="12" nameZh="慈龍寺" seqNo="48" pgp="0" terminal="0" districtId="1" GoBack="1" latitude="24.25079" longitude="120.712" inDis="50" outDis="50" oid="8065" /><Stop Id="3939" routeId="12" nameZh="豐原郵局" seqNo="49" pgp="0" terminal="0" districtId="1" GoBack="1" latitude="24.25136" longitude="120.71526" inDis="50" outDis="50" oid="6698" /><Stop Id="3343" routeId="12" nameZh="媽祖廟" seqNo="50" pgp="0" terminal="0" districtId="1" GoBack="1" latitude="24.25157" longitude="120.71851" inDis="50" outDis="50" oid="6397" /><Stop Id="3157" routeId="12" nameZh="頂街" seqNo="51" pgp="0" terminal="0" districtId="1" GoBack="1" latitude="24.25234" longitude="120.72123" inDis="50" outDis="50" oid="8053" /><Stop Id="4931" routeId="12" nameZh="豐原火車站" seqNo="52" pgp="0" terminal="0" districtId="1" GoBack="1" latitude="24.25504" longitude="120.72247" inDis="50" outDis="50" oid="308835188" /><Stop Id="5632" routeId="12" nameZh="豐中大順街口" seqNo="53" pgp="0" terminal="0" districtId="1" GoBack="1" latitude="24.25766" longitude="120.72158" inDis="50" outDis="50" oid="D879241FDACA4623BB99AF053F6889DA" /><Stop Id="4451" routeId="12" nameZh="北環福德祠" seqNo="54" pgp="0" terminal="0" districtId="1" GoBack="1" latitude="24.25953" longitude="120.72096" inDis="50" outDis="50" oid="13844" /><Stop Id="4472" routeId="12" nameZh="圓環北大順街口" seqNo="55" pgp="0" terminal="0" districtId="1" GoBack="1" latitude="24.2607" longitude="120.72385" inDis="50" outDis="50" oid="13845" /><Stop Id="4474" routeId="12" nameZh="圓環北角潭路口" seqNo="56" pgp="0" terminal="0" districtId="1" GoBack="1" latitude="24.25995" longitude="120.7262" inDis="50" outDis="50" oid="13847" /><Stop Id="4478" routeId="12" nameZh="圓環東水源路口" seqNo="57" pgp="0" terminal="0" districtId="1" GoBack="1" latitude="24.25577" longitude="120.72975" inDis="50" outDis="50" oid="13802" /><Stop Id="5503" routeId="12" nameZh="水源圓環東路口" seqNo="58" pgp="0" terminal="0" districtId="1" GoBack="1" latitude="24.25527" longitude="120.73214" inDis="50" outDis="50" oid="9221" /><Stop Id="3441" routeId="12" nameZh="水源豐東路口" seqNo="59" pgp="0" terminal="0" districtId="1" GoBack="1" latitude="24.25557" longitude="120.73419" inDis="50" outDis="50" oid="6461" /><Stop Id="3931" routeId="12" nameZh="豐村國小" seqNo="60" pgp="0" terminal="0" districtId="1" GoBack="1" latitude="24.2557" longitude="120.73574" inDis="50" outDis="50" oid="6689" /><Stop Id="1746" routeId="12" nameZh="王爺廟" seqNo="61" pgp="0" terminal="0" districtId="1" GoBack="1" latitude="24.25591" longitude="120.73793" inDis="50" outDis="50" oid="5503" /><Stop Id="3937" routeId="12" nameZh="豐原高中" seqNo="62" pgp="0" terminal="0" districtId="1" GoBack="1" latitude="24.25572" longitude="120.74185" inDis="50" outDis="50" oid="6695" /><Stop Id="1716" routeId="12" nameZh="水源地" seqNo="63" pgp="0" terminal="0" districtId="1" GoBack="1" latitude="24.25562" longitude="120.74367" inDis="50" outDis="50" oid="5487" /><Stop Id="5677" routeId="12" nameZh="豐原鎮清宮" seqNo="64" pgp="0" terminal="0" districtId="1" GoBack="1" latitude="24.25396" longitude="120.74437" inDis="50" outDis="50" oid="319604747" /><Stop Id="5677" routeId="12" nameZh="豐原鎮清宮" seqNo="1" pgp="0" terminal="0" districtId="1" GoBack="2" latitude="24.25396" longitude="120.74437" inDis="50" outDis="50" oid="319604747" /><Stop Id="1716" routeId="12" nameZh="水源地" seqNo="2" pgp="0" terminal="0" districtId="1" GoBack="2" latitude="24.25562" longitude="120.74367" inDis="50" outDis="50" oid="5487" /><Stop Id="3937" routeId="12" nameZh="豐原高中" seqNo="3" pgp="0" terminal="0" districtId="1" GoBack="2" latitude="24.25572" longitude="120.74185" inDis="50" outDis="50" oid="6695" /><Stop Id="1746" routeId="12" nameZh="王爺廟" seqNo="4" pgp="0" terminal="0" districtId="1" GoBack="2" latitude="24.25591" longitude="120.73793" inDis="50" outDis="50" oid="5503" /><Stop Id="3931" routeId="12" nameZh="豐村國小" seqNo="5" pgp="0" terminal="0" districtId="1" GoBack="2" latitude="24.2557" longitude="120.73574" inDis="50" outDis="50" oid="6689" /><Stop Id="3441" routeId="12" nameZh="水源豐東路口" seqNo="6" pgp="0" terminal="0" districtId="1" GoBack="2" latitude="24.25557" longitude="120.73419" inDis="50" outDis="50" oid="6461" /><Stop Id="5503" routeId="12" nameZh="水源圓環東路口" seqNo="7" pgp="0" terminal="0" districtId="1" GoBack="2" latitude="24.25527" longitude="120.73214" inDis="50" outDis="50" oid="9221" /><Stop Id="4478" routeId="12" nameZh="圓環東水源路口" seqNo="8" pgp="0" terminal="0" districtId="1" GoBack="2" latitude="24.25577" longitude="120.72975" inDis="50" outDis="50" oid="13802" /><Stop Id="4474" routeId="12" nameZh="圓環北角潭路口" seqNo="9" pgp="0" terminal="0" districtId="1" GoBack="2" latitude="24.25995" longitude="120.7262" inDis="50" outDis="50" oid="13847" /><Stop Id="4472" routeId="12" nameZh="圓環北大順街口" seqNo="10" pgp="0" terminal="0" districtId="1" GoBack="2" latitude="24.2607" longitude="120.72385" inDis="50" outDis="50" oid="13845" /><Stop Id="4451" routeId="12" nameZh="北環福德祠" seqNo="11" pgp="0" terminal="0" districtId="1" GoBack="2" latitude="24.25953" longitude="120.72096" inDis="50" outDis="50" oid="13844" /><Stop Id="5632" routeId="12" nameZh="豐中大順街口" seqNo="12" pgp="0" terminal="0" districtId="1" GoBack="2" latitude="24.25757" longitude="120.7216" inDis="50" outDis="50" oid="317638566" /><Stop Id="4931" routeId="12" nameZh="豐原火車站" seqNo="13" pgp="0" terminal="0" districtId="1" GoBack="2" latitude="24.25504" longitude="120.72247" inDis="50" outDis="50" oid="308835188" /><Stop Id="3157" routeId="12" nameZh="頂街" seqNo="14" pgp="0" terminal="0" districtId="1" GoBack="2" latitude="24.25234" longitude="120.72123" inDis="50" outDis="50" oid="8053" /><Stop Id="3343" routeId="12" nameZh="媽祖廟" seqNo="15" pgp="0" terminal="0" districtId="1" GoBack="2" latitude="24.25157" longitude="120.71851" inDis="50" outDis="50" oid="6397" /><Stop Id="3939" routeId="12" nameZh="豐原郵局" seqNo="16" pgp="0" terminal="0" districtId="1" GoBack="2" latitude="24.25136" longitude="120.71526" inDis="50" outDis="50" oid="6698" /><Stop Id="3357" routeId="12" nameZh="慈龍寺" seqNo="17" pgp="0" terminal="0" districtId="1" GoBack="2" latitude="24.25079" longitude="120.712" inDis="50" outDis="50" oid="8065" /><Stop Id="4448" routeId="12" nameZh="中正圓環西路口" seqNo="18" pgp="0" terminal="0" districtId="1" GoBack="2" latitude="24.25039" longitude="120.70963" inDis="50" outDis="50" oid="6688" /><Stop Id="1065" routeId="12" nameZh="三光新村" seqNo="19" pgp="0" terminal="0" districtId="1" GoBack="2" latitude="24.24999" longitude="120.70672" inDis="50" outDis="50" oid="5072" /><Stop Id="2349" routeId="12" nameZh="忠勤新村" seqNo="20" pgp="0" terminal="0" districtId="1" GoBack="2" latitude="24.24962" longitude="120.70434" inDis="50" outDis="50" oid="5856" /><Stop Id="5502" routeId="12" nameZh="豐原大道一心路口" seqNo="21" pgp="0" terminal="0" districtId="1" GoBack="2" latitude="24.24572" longitude="120.70329" inDis="50" outDis="50" oid="9220" /><Stop Id="5501" routeId="12" nameZh="豐原大道社皮路口" seqNo="22" pgp="0" terminal="0" districtId="1" GoBack="2" latitude="24.24232" longitude="120.70326" inDis="50" outDis="50" oid="9219" /><Stop Id="5500" routeId="12" nameZh="合作國小(豐原大道)" seqNo="23" pgp="0" terminal="0" districtId="1" GoBack="2" latitude="24.23939" longitude="120.70327" inDis="50" outDis="50" oid="9218" /><Stop Id="4936" routeId="12" nameZh="東龍家電" seqNo="24" pgp="0" terminal="0" districtId="1" GoBack="2" latitude="24.23716" longitude="120.70108" inDis="50" outDis="50" oid="308835198" /><Stop Id="4937" routeId="12" nameZh="承德三社東路口" seqNo="25" pgp="0" terminal="0" districtId="1" GoBack="2" latitude="24.23509" longitude="120.69874" inDis="50" outDis="50" oid="308835200" /><Stop Id="5499" routeId="12" nameZh="潭雅神綠園道(承德路)" seqNo="26" pgp="0" terminal="0" districtId="1" GoBack="2" latitude="24.2328" longitude="120.69513" inDis="50" outDis="50" oid="9214" /><Stop Id="5498" routeId="12" nameZh="崇德祿社區" seqNo="27" pgp="0" terminal="0" districtId="1" GoBack="2" latitude="24.22772" longitude="120.69065" inDis="50" outDis="50" oid="9213" /><Stop Id="4743" routeId="12" nameZh="崇德潭富路口" seqNo="28" pgp="0" terminal="0" districtId="1" GoBack="2" latitude="24.22542" longitude="120.69029" inDis="50" outDis="50" oid="9212" /><Stop Id="5497" routeId="12" nameZh="歐洲村社區" seqNo="29" pgp="0" terminal="0" districtId="1" GoBack="2" latitude="24.22238" longitude="120.68962" inDis="50" outDis="50" oid="9209" /><Stop Id="5496" routeId="12" nameZh="天畝社區" seqNo="30" pgp="0" terminal="0" districtId="1" GoBack="2" latitude="24.21868" longitude="120.68884" inDis="50" outDis="50" oid="9208" /><Stop Id="4300" routeId="12" nameZh="崇德雅潭路口" seqNo="31" pgp="0" terminal="0" districtId="1" GoBack="2" latitude="24.21496" longitude="120.68792" inDis="50" outDis="50" oid="9207" /><Stop Id="4301" routeId="12" nameZh="崇德大豐一路口" seqNo="32" pgp="0" terminal="0" districtId="1" GoBack="2" latitude="24.21021" longitude="120.68673" inDis="50" outDis="50" oid="9206" /><Stop Id="4406" routeId="12" nameZh="中油鴻陞加油站" seqNo="33" pgp="0" terminal="0" districtId="1" GoBack="2" latitude="24.20622" longitude="120.68662" inDis="50" outDis="50" oid="9205" /><Stop Id="4647" routeId="12" nameZh="崇德環中路口" seqNo="34" pgp="0" terminal="0" districtId="1" GoBack="2" latitude="24.20195" longitude="120.68662" inDis="50" outDis="50" oid="9119" /><Stop Id="4359" routeId="12" nameZh="臺中洲際棒球場" seqNo="35" pgp="0" terminal="0" districtId="1" GoBack="2" latitude="24.19889" longitude="120.68656" inDis="50" outDis="50" oid="9118" /><Stop Id="3818" routeId="12" nameZh="錦村市場" seqNo="36" pgp="0" terminal="0" districtId="1" GoBack="2" latitude="24.19588" longitude="120.68639" inDis="50" outDis="50" oid="320761402" /><Stop Id="4252" routeId="12" nameZh="崇德豐樂路口" seqNo="37" pgp="0" terminal="0" districtId="1" GoBack="2" latitude="24.19258" longitude="120.68646" inDis="50" outDis="50" oid="9116" /><Stop Id="2959" routeId="12" nameZh="崇德十路口" seqNo="38" pgp="0" terminal="0" districtId="1" GoBack="2" latitude="24.18806" longitude="120.68636" inDis="50" outDis="50" oid="9115" /><Stop Id="2958" routeId="12" nameZh="崇德九路口" seqNo="39" pgp="0" terminal="0" districtId="1" GoBack="2" latitude="24.18768" longitude="120.68622" inDis="50" outDis="50" oid="9114" /><Stop Id="1393" routeId="12" nameZh="崇德山西路口" seqNo="40" pgp="0" terminal="0" districtId="1" GoBack="2" latitude="24.18493" longitude="120.68627" inDis="50" outDis="50" oid="8966" /><Stop Id="0194" routeId="12" nameZh="北屯區行政大樓" seqNo="41" pgp="0" terminal="0" districtId="1" GoBack="2" latitude="24.18203" longitude="120.68619" inDis="50" outDis="50" oid="8965" /><Stop Id="5387" routeId="12" nameZh="崇德六路口" seqNo="42" pgp="0" terminal="0" districtId="1" GoBack="2" latitude="24.18086" longitude="120.68608" inDis="50" outDis="50" oid="8964" /><Stop Id="0195" routeId="12" nameZh="崇德五路口" seqNo="43" pgp="0" terminal="0" districtId="1" GoBack="2" latitude="24.17894" longitude="120.68605" inDis="50" outDis="50" oid="8963" /><Stop Id="0196" routeId="12" nameZh="崇德一路口" seqNo="44" pgp="0" terminal="0" districtId="1" GoBack="2" latitude="24.17675" longitude="120.68579" inDis="50" outDis="50" oid="8951" /><Stop Id="5131" routeId="12" nameZh="崇德國中(民俗公園)" seqNo="45" pgp="0" terminal="0" districtId="1" GoBack="2" latitude="24.17455" longitude="120.68569" inDis="50" outDis="50" oid="8950" /><Stop Id="0199" routeId="12" nameZh="崇德瀋陽路口" seqNo="46" pgp="0" terminal="0" districtId="1" GoBack="2" latitude="24.17302" longitude="120.68552" inDis="50" outDis="50" oid="8949" /><Stop Id="4339" routeId="12" nameZh="崇德文心路口" seqNo="47" pgp="0" terminal="0" districtId="1" GoBack="2" latitude="24.17147" longitude="120.68539" inDis="50" outDis="50" oid="8948" /><Stop Id="1768" routeId="12" nameZh="崇德北平路口" seqNo="48" pgp="0" terminal="0" districtId="1" GoBack="2" latitude="24.17021" longitude="120.68537" inDis="50" outDis="50" oid="8947" /><Stop Id="3511" routeId="12" nameZh="聖德禪寺" seqNo="49" pgp="0" terminal="0" districtId="1" GoBack="2" latitude="24.16801" longitude="120.68525" inDis="50" outDis="50" oid="8946" /><Stop Id="0098" routeId="12" nameZh="崇德橋" seqNo="50" pgp="0" terminal="0" districtId="1" GoBack="2" latitude="24.16438" longitude="120.68514" inDis="50" outDis="50" oid="8945" /><Stop Id="4576" routeId="12" nameZh="崇德德化街口" seqNo="51" pgp="0" terminal="0" districtId="1" GoBack="2" latitude="24.16146" longitude="120.68514" inDis="50" outDis="50" oid="8944" /><Stop Id="4607" routeId="12" nameZh="新民高中(崇德路)" seqNo="52" pgp="0" terminal="0" districtId="1" GoBack="2" latitude="24.15976" longitude="120.68483" inDis="50" outDis="50" oid="1D3F4D0CD3CF4AFB84A736E9D2E65456" /><Stop Id="0203" routeId="12" nameZh="市立殯儀館" seqNo="53" pgp="0" terminal="0" districtId="1" GoBack="2" latitude="24.15626" longitude="120.68566" inDis="50" outDis="50" oid="8942" /><Stop Id="0047" routeId="12" nameZh="一心市場" seqNo="54" pgp="0" terminal="0" districtId="1" GoBack="2" latitude="24.15369" longitude="120.68563" inDis="50" outDis="50" oid="156231535" /><Stop Id="0046" routeId="12" nameZh="中友百貨" seqNo="55" pgp="0" terminal="0" districtId="1" GoBack="2" latitude="24.15251" longitude="120.6852" inDis="50" outDis="50" oid="5310" /><Stop Id="0045" routeId="12" nameZh="國立臺中科技大學" seqNo="56" pgp="0" terminal="0" districtId="1" GoBack="2" latitude="24.14987" longitude="120.68413" inDis="50" outDis="50" oid="5556" /><Stop Id="1513" routeId="12" nameZh="中興堂" seqNo="57" pgp="0" terminal="0" districtId="1" GoBack="2" latitude="24.14626" longitude="120.68448" inDis="50" outDis="50" oid="15989" /><Stop Id="4544" routeId="12" nameZh="臺中公園(雙十路)" seqNo="58" pgp="0" terminal="0" districtId="1" GoBack="2" latitude="24.14419" longitude="120.68597" inDis="50" outDis="50" oid="5554" /><Stop Id="0402" routeId="12" nameZh="干城站" seqNo="59" pgp="0" terminal="0" districtId="1" GoBack="2" latitude="24.14101" longitude="120.68597" inDis="50" outDis="50" oid="315959597" /><Stop Id="1824" routeId="12" nameZh="臺中火車站" seqNo="60" pgp="0" terminal="0" districtId="1" GoBack="2" latitude="24.13743" longitude="120.6844" inDis="50" outDis="170" oid="7351" /><Stop Id="0049" routeId="12" nameZh="第三市場(臺中家商)" seqNo="61" pgp="0" terminal="0" districtId="1" GoBack="2" latitude="24.13246" longitude="120.68381" inDis="50" outDis="50" oid="6258" /><Stop Id="0257" routeId="12" nameZh="臺中國小" seqNo="62" pgp="0" terminal="0" districtId="1" GoBack="2" latitude="24.13028" longitude="120.68499" inDis="50" outDis="50" oid="5561" /><Stop Id="5607" routeId="12" nameZh="興大附農(臺中路)" seqNo="63" pgp="0" terminal="0" districtId="1" GoBack="2" latitude="24.12747" longitude="120.68452" inDis="50" outDis="50" oid="95879C963BCD4EAB8A376EF9655A419C" /><Stop Id="0255" routeId="12" nameZh="南門仔" seqNo="64" pgp="0" terminal="0" districtId="1" GoBack="2" latitude="24.12555" longitude="120.68424" inDis="50" outDis="50" oid="6619BD77BE964E6E951A771062BD126E" /><Stop Id="0254" routeId="12" nameZh="明德高中" seqNo="65" pgp="0" terminal="0" districtId="1" GoBack="2" latitude="24.12272" longitude="120.68416" inDis="50" outDis="50" oid="5873" /><Stop Id="4618" routeId="12" nameZh="明德高中(明德街)" seqNo="66" pgp="0" terminal="0" districtId="1" GoBack="2" latitude="24.1211" longitude="120.68414" inDis="50" outDis="50" oid="8941" /></BusInfo></BusDynInfo>