<?xml version="1.0" encoding="UTF-8" standalone="yes"?>
<BusDynInfo><EssentialInfo><Location><name>TCBUS</name><CenterName>Maxwin</CenterName></Location><UpdateTime>2014-12-20 08:00:23</UpdateTime><CoordinateSystem/></EssentialInfo>
<BusInfo><Stop Id="5487" routeId="155" nameZh="高鐵臺中站(21月台)" seqNo="1" pgp="0" terminal="0" districtId="1" GoBack="1" latitude="24.11387" longitude="120.61564" inDis="50" outDis="50" oid="314581889" /><Stop Id="5468" routeId="155" nameZh="環中市政路口" seqNo="4" pgp="0" terminal="0" districtId="1" GoBack="1" latitude="24.16376" longitude="120.62968" inDis="80" outDis="80" oid="314182470" /><Stop Id="5106" routeId="155" nameZh="安和朝馬路口" seqNo="6" pgp="0" terminal="0" districtId="1" GoBack="1" latitude="24.17466" longitude="120.62252" inDis="50" outDis="50" oid="CFF2B1C135AB4FC8A4DB332DCEB1C42D" /><Stop Id="1481" routeId="155" nameZh="安和臺灣大道口" seqNo="7" pgp="0" terminal="0" districtId="1" GoBack="1" latitude="24.17838" longitude="120.62438" inDis="50" outDis="50" oid="10235" /><Stop Id="0287" routeId="155" nameZh="福華/裕元" seqNo="8" pgp="0" terminal="0" districtId="1" GoBack="1" latitude="24.17956" longitude="120.62508" inDis="50" outDis="50" oid="319311027" /><Stop Id="0010" routeId="155" nameZh="福科安和路口" seqNo="9" pgp="0" terminal="0" districtId="1" GoBack="1" latitude="24.18224" longitude="120.62466" inDis="50" outDis="50" oid="F55A416D15F3411A829D10BD69A8B247" /><Stop Id="3060" routeId="155" nameZh="統聯轉運站" seqNo="10" pgp="0" terminal="0" districtId="1" GoBack="1" latitude="24.17956" longitude="120.62203" inDis="50" outDis="50" oid="13533" /><Stop Id="1911" routeId="155" nameZh="正隆紙廠" seqNo="16" pgp="0" terminal="0" districtId="1" GoBack="1" latitude="24.28434" longitude="120.72285" inDis="50" outDis="50" oid="5605" /><Stop Id="2374" routeId="155" nameZh="枋寮" seqNo="17" pgp="0" terminal="0" districtId="1" GoBack="1" latitude="24.28785" longitude="120.72322" inDis="50" outDis="50" oid="5874" /><Stop Id="0987" routeId="155" nameZh="七星農場" seqNo="18" pgp="0" terminal="0" districtId="1" GoBack="1" latitude="24.2933" longitude="120.72373" inDis="50" outDis="50" oid="5025" /><Stop Id="5589" routeId="155" nameZh="馬場三豐路口" seqNo="19" pgp="0" terminal="0" districtId="1" GoBack="1" latitude="24.2981" longitude="120.7246" inDis="50" outDis="50" oid="129901855" /><Stop Id="5643" routeId="155" nameZh="馬場后科路口" seqNo="20" pgp="0" terminal="0" districtId="1" GoBack="1" latitude="24.2984" longitude="120.7317" inDis="50" outDis="50" oid="317318302" /><Stop Id="5422" routeId="155" nameZh="后里馬場" seqNo="21" pgp="0" terminal="0" districtId="1" GoBack="1" latitude="24.29857" longitude="120.73515" inDis="50" outDis="50" oid="313273920" /><Stop Id="5421" routeId="155" nameZh="內東路營區" seqNo="22" pgp="0" terminal="0" districtId="1" GoBack="1" latitude="24.30467" longitude="120.73095" inDis="50" outDis="50" oid="313273918" /><Stop Id="5420" routeId="155" nameZh="內東大山路口" seqNo="23" pgp="0" terminal="0" districtId="1" GoBack="1" latitude="24.30756" longitude="120.73086" inDis="50" outDis="50" oid="313273916" /><Stop Id="5419" routeId="155" nameZh="后里火車站(后里國小)" seqNo="24" pgp="0" terminal="0" districtId="1" GoBack="1" latitude="24.30933" longitude="120.73032" inDis="50" outDis="50" oid="313273914" /><Stop Id="5418" routeId="155" nameZh="后里義里郵局" seqNo="25" pgp="0" terminal="0" districtId="1" GoBack="1" latitude="24.30923" longitude="120.72843" inDis="50" outDis="50" oid="313273912" /><Stop Id="5417" routeId="155" nameZh="甲后路329巷口" seqNo="26" pgp="0" terminal="0" districtId="1" GoBack="1" latitude="24.30905" longitude="120.72468" inDis="50" outDis="50" oid="313273910" /><Stop Id="1169" routeId="155" nameZh="下后里" seqNo="27" pgp="0" terminal="0" districtId="1" GoBack="1" latitude="24.30903" longitude="120.72164" inDis="50" outDis="50" oid="5132" /><Stop Id="2651" routeId="155" nameZh="后里電信局" seqNo="28" pgp="0" terminal="0" districtId="1" GoBack="1" latitude="24.30969" longitude="120.71765" inDis="50" outDis="50" oid="6026" /><Stop Id="4453" routeId="155" nameZh="民生文明路口" seqNo="29" pgp="0" terminal="0" districtId="1" GoBack="1" latitude="24.30747" longitude="120.71645" inDis="50" outDis="50" oid="5459" /><Stop Id="1571" routeId="155" nameZh="內埔市場" seqNo="30" pgp="0" terminal="0" districtId="1" GoBack="1" latitude="24.30557" longitude="120.7132" inDis="50" outDis="50" oid="138961819" /><Stop Id="4504" routeId="155" nameZh="后里區公所" seqNo="31" pgp="0" terminal="0" districtId="1" GoBack="1" latitude="24.30482" longitude="120.7107" inDis="50" outDis="50" oid="303690762" /><Stop Id="4449" routeId="155" nameZh="公安主和路口" seqNo="32" pgp="0" terminal="0" districtId="1" GoBack="1" latitude="24.30554" longitude="120.70917" inDis="50" outDis="50" oid="5504" /><Stop Id="3309" routeId="155" nameZh="雅藝公司" seqNo="33" pgp="0" terminal="0" districtId="1" GoBack="1" latitude="24.30699" longitude="120.70587" inDis="50" outDis="50" oid="6381" /><Stop Id="0421" routeId="155" nameZh="中和" seqNo="34" pgp="0" terminal="0" districtId="1" GoBack="1" latitude="24.31041" longitude="120.69814" inDis="50" outDis="50" oid="5326" /><Stop Id="2469" routeId="155" nameZh="松鶴酒莊" seqNo="35" pgp="0" terminal="0" districtId="1" GoBack="1" latitude="24.31178" longitude="120.69621" inDis="50" outDis="50" oid="5928" /><Stop Id="1683" routeId="155" nameZh="月眉" seqNo="36" pgp="0" terminal="0" districtId="1" GoBack="1" latitude="24.31551" longitude="120.69715" inDis="50" outDis="50" oid="5464" /><Stop Id="1685" routeId="155" nameZh="麗寶樂園" seqNo="37" pgp="0" terminal="0" districtId="1" GoBack="1" latitude="24.3192" longitude="120.69226" inDis="50" outDis="50" oid="313359593" /><Stop Id="1685" routeId="155" nameZh="麗寶樂園" seqNo="1" pgp="0" terminal="0" districtId="1" GoBack="2" latitude="24.3192" longitude="120.69226" inDis="50" outDis="50" oid="313359593" /><Stop Id="1683" routeId="155" nameZh="月眉" seqNo="2" pgp="0" terminal="0" districtId="1" GoBack="2" latitude="24.31613" longitude="120.6957" inDis="50" outDis="50" oid="319170128" /><Stop Id="2469" routeId="155" nameZh="松鶴酒莊" seqNo="3" pgp="0" terminal="0" districtId="1" GoBack="2" latitude="24.31178" longitude="120.69621" inDis="50" outDis="50" oid="5928" /><Stop Id="0421" routeId="155" nameZh="中和" seqNo="4" pgp="0" terminal="0" districtId="1" GoBack="2" latitude="24.31041" longitude="120.69814" inDis="50" outDis="50" oid="5326" /><Stop Id="3309" routeId="155" nameZh="雅藝公司" seqNo="5" pgp="0" terminal="0" districtId="1" GoBack="2" latitude="24.30699" longitude="120.70587" inDis="50" outDis="50" oid="6381" /><Stop Id="4449" routeId="155" nameZh="公安主和路口" seqNo="6" pgp="0" terminal="0" districtId="1" GoBack="2" latitude="24.30554" longitude="120.70917" inDis="50" outDis="50" oid="5504" /><Stop Id="4504" routeId="155" nameZh="后里區公所" seqNo="7" pgp="0" terminal="0" districtId="1" GoBack="2" latitude="24.30482" longitude="120.7107" inDis="50" outDis="50" oid="303690762" /><Stop Id="1571" routeId="155" nameZh="內埔市場" seqNo="8" pgp="0" terminal="0" districtId="1" GoBack="2" latitude="24.30557" longitude="120.7132" inDis="50" outDis="50" oid="138961819" /><Stop Id="4453" routeId="155" nameZh="民生文明路口" seqNo="9" pgp="0" terminal="0" districtId="1" GoBack="2" latitude="24.30747" longitude="120.71645" inDis="50" outDis="50" oid="5459" /><Stop Id="2651" routeId="155" nameZh="后里電信局" seqNo="10" pgp="0" terminal="0" districtId="1" GoBack="2" latitude="24.30969" longitude="120.71765" inDis="50" outDis="50" oid="6026" /><Stop Id="1169" routeId="155" nameZh="下后里" seqNo="11" pgp="0" terminal="0" districtId="1" GoBack="2" latitude="24.30903" longitude="120.72164" inDis="50" outDis="50" oid="5132" /><Stop Id="5417" routeId="155" nameZh="甲后路329巷口" seqNo="12" pgp="0" terminal="0" districtId="1" GoBack="2" latitude="24.30891" longitude="120.72453" inDis="50" outDis="50" oid="313273911" /><Stop Id="5418" routeId="155" nameZh="后里義里郵局" seqNo="13" pgp="0" terminal="0" districtId="1" GoBack="2" latitude="24.30911" longitude="120.72833" inDis="50" outDis="50" oid="313273913" /><Stop Id="5419" routeId="155" nameZh="后里火車站(后里國小)" seqNo="14" pgp="0" terminal="0" districtId="1" GoBack="2" latitude="24.30924" longitude="120.73065" inDis="50" outDis="50" oid="313273915" /><Stop Id="5420" routeId="155" nameZh="內東大山路口" seqNo="15" pgp="0" terminal="0" districtId="1" GoBack="2" latitude="24.30778" longitude="120.73078" inDis="50" outDis="50" oid="313273917" /><Stop Id="5421" routeId="155" nameZh="內東路營區" seqNo="16" pgp="0" terminal="0" districtId="1" GoBack="2" latitude="24.30502" longitude="120.73095" inDis="50" outDis="50" oid="313273919" /><Stop Id="5422" routeId="155" nameZh="后里馬場" seqNo="17" pgp="0" terminal="0" districtId="1" GoBack="2" latitude="24.29857" longitude="120.73515" inDis="50" outDis="50" oid="313273920" /><Stop Id="5643" routeId="155" nameZh="馬場后科路口" seqNo="18" pgp="0" terminal="0" districtId="1" GoBack="2" latitude="24.2984" longitude="120.7317" inDis="50" outDis="50" oid="317318302" /><Stop Id="5589" routeId="155" nameZh="馬場三豐路口" seqNo="19" pgp="0" terminal="0" districtId="1" GoBack="2" latitude="24.2981" longitude="120.7246" inDis="50" outDis="50" oid="129901855" /><Stop Id="0987" routeId="155" nameZh="七星農場" seqNo="20" pgp="0" terminal="0" districtId="1" GoBack="2" latitude="24.2933" longitude="120.72373" inDis="50" outDis="50" oid="5025" /><Stop Id="2374" routeId="155" nameZh="枋寮" seqNo="21" pgp="0" terminal="0" districtId="1" GoBack="2" latitude="24.28785" longitude="120.72322" inDis="50" outDis="50" oid="5874" /><Stop Id="1911" routeId="155" nameZh="正隆紙廠" seqNo="22" pgp="0" terminal="0" districtId="1" GoBack="2" latitude="24.28434" longitude="120.72285" inDis="50" outDis="50" oid="5605" /><Stop Id="5149" routeId="155" nameZh="福安里(臺灣大道)" seqNo="28" pgp="0" terminal="0" districtId="1" GoBack="2" latitude="24.17845" longitude="120.62494" inDis="50" outDis="50" oid="320851040" /><Stop Id="0287" routeId="155" nameZh="福華/裕元" seqNo="29" pgp="0" terminal="0" districtId="1" GoBack="2" latitude="24.17956" longitude="120.62508" inDis="50" outDis="50" oid="319311027" /><Stop Id="0010" routeId="155" nameZh="福科安和路口" seqNo="30" pgp="0" terminal="0" districtId="1" GoBack="2" latitude="24.18235" longitude="120.62447" inDis="50" outDis="50" oid="0B8BB139044A433193D90A6EBEFA7A30" /><Stop Id="3060" routeId="155" nameZh="統聯轉運站" seqNo="31" pgp="0" terminal="0" districtId="1" GoBack="2" latitude="24.17956" longitude="120.62203" inDis="50" outDis="50" oid="13533" /><Stop Id="1481" routeId="155" nameZh="安和臺灣大道口" seqNo="32" pgp="0" terminal="0" districtId="1" GoBack="2" latitude="24.17838" longitude="120.62438" inDis="50" outDis="50" oid="10235" /><Stop Id="5106" routeId="155" nameZh="安和朝馬路口" seqNo="33" pgp="0" terminal="0" districtId="1" GoBack="2" latitude="24.1748" longitude="120.62243" inDis="50" outDis="50" oid="F7DDB5F0EE6348F4B255E082575BC2F8" /><Stop Id="5468" routeId="155" nameZh="環中市政路口" seqNo="35" pgp="0" terminal="0" districtId="1" GoBack="2" latitude="24.16376" longitude="120.62968" inDis="80" outDis="80" oid="314182470" /><Stop Id="5487" routeId="155" nameZh="高鐵臺中站(21月台)" seqNo="38" pgp="0" terminal="0" districtId="1" GoBack="2" latitude="24.11387" longitude="120.61564" inDis="50" outDis="50" oid="314581889" /></BusInfo></BusDynInfo>