[
  {
    "type": "Feature",
    "geometry": {
      "type": "Point",
      "coordinates": [
        120.68414,
        24.1211
      ]
    },
    "properties": {
      "id": "4618",
      "name": "明德高中(明德街)",
      "seq": 1
    }
  },
  {
    "type": "Feature",
    "geometry": {
      "type": "Point",
      "coordinates": [
        120.68452,
        24.12747
      ]
    },
    "properties": {
      "id": "5607",
      "name": "興大附農(臺中路)",
      "seq": 2
    }
  },
  {
    "type": "Feature",
    "geometry": {
      "type": "Point",
      "coordinates": [
        120.68499,
        24.13028
      ]
    },
    "properties": {
      "id": "0257",
      "name": "臺中國小",
      "seq": 3
    }
  },
  {
    "type": "Feature",
    "geometry": {
      "type": "Point",
      "coordinates": [
        120.68383,
        24.1328
      ]
    },
    "properties": {
      "id": "0049",
      "name": "第三市場",
      "seq": 4
    }
  },
  {
    "type": "Feature",
    "geometry": {
      "type": "Point",
      "coordinates": [
        120.68466,
        24.1374
      ]
    },
    "properties": {
      "id": "1824",
      "name": "臺中火車站",
      "seq": 5
    }
  },
  {
    "type": "Feature",
    "geometry": {
      "type": "Point",
      "coordinates": [
        120.68413,
        24.14987
      ]
    },
    "properties": {
      "id": "0045",
      "name": "國立臺中科技大學",
      "seq": 6
    }
  },
  {
    "type": "Feature",
    "geometry": {
      "type": "Point",
      "coordinates": [
        120.68484,
        24.15176
      ]
    },
    "properties": {
      "id": "0046",
      "name": "中友百貨",
      "seq": 7
    }
  },
  {
    "type": "Feature",
    "geometry": {
      "type": "Point",
      "coordinates": [
        120.68566,
        24.15626
      ]
    },
    "properties": {
      "id": "0203",
      "name": "市立殯儀館",
      "seq": 8
    }
  },
  {
    "type": "Feature",
    "geometry": {
      "type": "Point",
      "coordinates": [
        120.6851,
        24.15959
      ]
    },
    "properties": {
      "id": "4607",
      "name": "新民高中(崇德路)",
      "seq": 9
    }
  },
  {
    "type": "Feature",
    "geometry": {
      "type": "Point",
      "coordinates": [
        120.68514,
        24.16146
      ]
    },
    "properties": {
      "id": "4576",
      "name": "崇德德化街口",
      "seq": 10
    }
  },
  {
    "type": "Feature",
    "geometry": {
      "type": "Point",
      "coordinates": [
        120.68514,
        24.16438
      ]
    },
    "properties": {
      "id": "0098",
      "name": "崇德橋",
      "seq": 11
    }
  },
  {
    "type": "Feature",
    "geometry": {
      "type": "Point",
      "coordinates": [
        120.68525,
        24.16801
      ]
    },
    "properties": {
      "id": "5866",
      "name": "崇德青島路口",
      "seq": 12
    }
  },
  {
    "type": "Feature",
    "geometry": {
      "type": "Point",
      "coordinates": [
        120.68537,
        24.17021
      ]
    },
    "properties": {
      "id": "1768",
      "name": "崇德北平路口",
      "seq": 13
    }
  },
  {
    "type": "Feature",
    "geometry": {
      "type": "Point",
      "coordinates": [
        120.68539,
        24.17147
      ]
    },
    "properties": {
      "id": "4339",
      "name": "崇德文心路口",
      "seq": 14
    }
  },
  {
    "type": "Feature",
    "geometry": {
      "type": "Point",
      "coordinates": [
        120.6856,
        24.17523
      ]
    },
    "properties": {
      "id": "5131",
      "name": "崇德國中(民俗公園)",
      "seq": 15
    }
  },
  {
    "type": "Feature",
    "geometry": {
      "type": "Point",
      "coordinates": [
        120.68605,
        24.17894
      ]
    },
    "properties": {
      "id": "0195",
      "name": "崇德五路口",
      "seq": 16
    }
  },
  {
    "type": "Feature",
    "geometry": {
      "type": "Point",
      "coordinates": [
        120.68646,
        24.19258
      ]
    },
    "properties": {
      "id": "4252",
      "name": "崇德豐樂路口",
      "seq": 17
    }
  },
  {
    "type": "Feature",
    "geometry": {
      "type": "Point",
      "coordinates": [
        120.70327,
        24.23939
      ]
    },
    "properties": {
      "id": "5500",
      "name": "合作國小(豐原大道)",
      "seq": 18
    }
  },
  {
    "type": "Feature",
    "geometry": {
      "type": "Point",
      "coordinates": [
        120.70434,
        24.24962
      ]
    },
    "properties": {
      "id": "2349",
      "name": "忠勤新村",
      "seq": 19
    }
  },
  {
    "type": "Feature",
    "geometry": {
      "type": "Point",
      "coordinates": [
        120.71526,
        24.25136
      ]
    },
    "properties": {
      "id": "3939",
      "name": "豐原郵局",
      "seq": 20
    }
  },
  {
    "type": "Feature",
    "geometry": {
      "type": "Point",
      "coordinates": [
        120.7184,
        24.25178
      ]
    },
    "properties": {
      "id": "3343",
      "name": "媽祖廟",
      "seq": 21
    }
  },
  {
    "type": "Feature",
    "geometry": {
      "type": "Point",
      "coordinates": [
        120.72123,
        24.25234
      ]
    },
    "properties": {
      "id": "3157",
      "name": "頂街",
      "seq": 22
    }
  },
  {
    "type": "Feature",
    "geometry": {
      "type": "Point",
      "coordinates": [
        120.72247,
        24.25504
      ]
    },
    "properties": {
      "id": "4931",
      "name": "豐原火車站",
      "seq": 23
    }
  },
  {
    "type": "Feature",
    "geometry": {
      "type": "Point",
      "coordinates": [
        120.73574,
        24.2557
      ]
    },
    "properties": {
      "id": "3931",
      "name": "豐村國小",
      "seq": 24
    }
  },
  {
    "type": "Feature",
    "geometry": {
      "type": "Point",
      "coordinates": [
        120.74185,
        24.25572
      ]
    },
    "properties": {
      "id": "3937",
      "name": "豐原高中",
      "seq": 25
    }
  },
  {
    "type": "Feature",
    "geometry": {
      "type": "Point",
      "coordinates": [
        120.74185,
        24.25572
      ]
    },
    "properties": {
      "id": "3937",
      "name": "豐原高中",
      "seq": 1
    }
  },
  {
    "type": "Feature",
    "geometry": {
      "type": "Point",
      "coordinates": [
        120.73574,
        24.2557
      ]
    },
    "properties": {
      "id": "3931",
      "name": "豐村國小",
      "seq": 2
    }
  },
  {
    "type": "Feature",
    "geometry": {
      "type": "Point",
      "coordinates": [
        120.72247,
        24.25504
      ]
    },
    "properties": {
      "id": "4931",
      "name": "豐原火車站",
      "seq": 3
    }
  },
  {
    "type": "Feature",
    "geometry": {
      "type": "Point",
      "coordinates": [
        120.72123,
        24.25234
      ]
    },
    "properties": {
      "id": "3157",
      "name": "頂街",
      "seq": 4
    }
  },
  {
    "type": "Feature",
    "geometry": {
      "type": "Point",
      "coordinates": [
        120.7184,
        24.25178
      ]
    },
    "properties": {
      "id": "3343",
      "name": "媽祖廟",
      "seq": 5
    }
  },
  {
    "type": "Feature",
    "geometry": {
      "type": "Point",
      "coordinates": [
        120.71526,
        24.25136
      ]
    },
    "properties": {
      "id": "3939",
      "name": "豐原郵局",
      "seq": 6
    }
  },
  {
    "type": "Feature",
    "geometry": {
      "type": "Point",
      "coordinates": [
        120.70434,
        24.24962
      ]
    },
    "properties": {
      "id": "2349",
      "name": "忠勤新村",
      "seq": 7
    }
  },
  {
    "type": "Feature",
    "geometry": {
      "type": "Point",
      "coordinates": [
        120.70327,
        24.23939
      ]
    },
    "properties": {
      "id": "5500",
      "name": "合作國小(豐原大道)",
      "seq": 8
    }
  },
  {
    "type": "Feature",
    "geometry": {
      "type": "Point",
      "coordinates": [
        120.68646,
        24.19258
      ]
    },
    "properties": {
      "id": "4252",
      "name": "崇德豐樂路口",
      "seq": 9
    }
  },
  {
    "type": "Feature",
    "geometry": {
      "type": "Point",
      "coordinates": [
        120.68605,
        24.17894
      ]
    },
    "properties": {
      "id": "0195",
      "name": "崇德五路口",
      "seq": 10
    }
  },
  {
    "type": "Feature",
    "geometry": {
      "type": "Point",
      "coordinates": [
        120.6856,
        24.17523
      ]
    },
    "properties": {
      "id": "5131",
      "name": "崇德國中(民俗公園)",
      "seq": 11
    }
  },
  {
    "type": "Feature",
    "geometry": {
      "type": "Point",
      "coordinates": [
        120.68539,
        24.17147
      ]
    },
    "properties": {
      "id": "4339",
      "name": "崇德文心路口",
      "seq": 12
    }
  },
  {
    "type": "Feature",
    "geometry": {
      "type": "Point",
      "coordinates": [
        120.68537,
        24.17021
      ]
    },
    "properties": {
      "id": "1768",
      "name": "崇德北平路口",
      "seq": 13
    }
  },
  {
    "type": "Feature",
    "geometry": {
      "type": "Point",
      "coordinates": [
        120.68525,
        24.16801
      ]
    },
    "properties": {
      "id": "5866",
      "name": "崇德青島路口",
      "seq": 14
    }
  },
  {
    "type": "Feature",
    "geometry": {
      "type": "Point",
      "coordinates": [
        120.68514,
        24.16438
      ]
    },
    "properties": {
      "id": "0098",
      "name": "崇德橋",
      "seq": 15
    }
  },
  {
    "type": "Feature",
    "geometry": {
      "type": "Point",
      "coordinates": [
        120.68514,
        24.16146
      ]
    },
    "properties": {
      "id": "4576",
      "name": "崇德德化街口",
      "seq": 16
    }
  },
  {
    "type": "Feature",
    "geometry": {
      "type": "Point",
      "coordinates": [
        120.68483,
        24.15976
      ]
    },
    "properties": {
      "id": "4607",
      "name": "新民高中(崇德路)",
      "seq": 17
    }
  },
  {
    "type": "Feature",
    "geometry": {
      "type": "Point",
      "coordinates": [
        120.68566,
        24.15626
      ]
    },
    "properties": {
      "id": "0203",
      "name": "市立殯儀館",
      "seq": 18
    }
  },
  {
    "type": "Feature",
    "geometry": {
      "type": "Point",
      "coordinates": [
        120.68563,
        24.15369
      ]
    },
    "properties": {
      "id": "0047",
      "name": "一心市場",
      "seq": 19
    }
  },
  {
    "type": "Feature",
    "geometry": {
      "type": "Point",
      "coordinates": [
        120.68514,
        24.15241
      ]
    },
    "properties": {
      "id": "0046",
      "name": "中友百貨",
      "seq": 20
    }
  },
  {
    "type": "Feature",
    "geometry": {
      "type": "Point",
      "coordinates": [
        120.68413,
        24.14987
      ]
    },
    "properties": {
      "id": "0045",
      "name": "國立臺中科技大學",
      "seq": 21
    }
  },
  {
    "type": "Feature",
    "geometry": {
      "type": "Point",
      "coordinates": [
        120.68387,
        24.13663
      ]
    },
    "properties": {
      "id": "1824",
      "name": "臺中火車站",
      "seq": 22
    }
  },
  {
    "type": "Feature",
    "geometry": {
      "type": "Point",
      "coordinates": [
        120.68383,
        24.1328
      ]
    },
    "properties": {
      "id": "0049",
      "name": "第三市場",
      "seq": 23
    }
  },
  {
    "type": "Feature",
    "geometry": {
      "type": "Point",
      "coordinates": [
        120.68499,
        24.13028
      ]
    },
    "properties": {
      "id": "0257",
      "name": "臺中國小",
      "seq": 24
    }
  },
  {
    "type": "Feature",
    "geometry": {
      "type": "Point",
      "coordinates": [
        120.68452,
        24.12747
      ]
    },
    "properties": {
      "id": "5607",
      "name": "興大附農(臺中路)",
      "seq": 25
    }
  },
  {
    "type": "Feature",
    "geometry": {
      "type": "Point",
      "coordinates": [
        120.68414,
        24.1211
      ]
    },
    "properties": {
      "id": "4618",
      "name": "明德高中(明德街)",
      "seq": 26
    }
  }
]
