<?xml version="1.0" encoding="UTF-8" standalone="yes"?>
<BusDynInfo><EssentialInfo><Location><name>TCBUS</name><CenterName>Maxwin</CenterName></Location><UpdateTime>2014-12-20 08:09:50</UpdateTime><CoordinateSystem/></EssentialInfo>
<BusInfo><Stop Id="5471" routeId="178" nameZh="清水火車站" seqNo="1" pgp="0" terminal="0" districtId="1" GoBack="1" latitude="24.26341" longitude="120.57005" inDis="50" outDis="50" oid="314200099" /><Stop Id="4119" routeId="178" nameZh="清水高中" seqNo="2" pgp="0" terminal="0" districtId="1" GoBack="1" latitude="24.2658" longitude="120.5742" inDis="50" outDis="50" oid="14359" /><Stop Id="5141" routeId="178" nameZh="華南銀行(清水分行)" seqNo="3" pgp="0" terminal="0" districtId="1" GoBack="1" latitude="24.2683" longitude="120.57516" inDis="50" outDis="50" oid="14057" /><Stop Id="3013" routeId="178" nameZh="清水" seqNo="4" pgp="0" terminal="0" districtId="1" GoBack="1" latitude="24.2703" longitude="120.57594" inDis="50" outDis="50" oid="10843" /><Stop Id="4521" routeId="178" nameZh="中山董公街口" seqNo="5" pgp="0" terminal="0" districtId="1" GoBack="1" latitude="24.27284" longitude="120.57687" inDis="50" outDis="50" oid="305513525" /><Stop Id="4442" routeId="178" nameZh="中山高美路口" seqNo="6" pgp="0" terminal="0" districtId="1" GoBack="1" latitude="24.27461" longitude="120.57725" inDis="50" outDis="50" oid="312352563" /><Stop Id="4863" routeId="178" nameZh="橋頭" seqNo="7" pgp="0" terminal="0" districtId="1" GoBack="1" latitude="24.27929" longitude="120.57524" inDis="50" outDis="50" oid="311502867" /><Stop Id="4847" routeId="178" nameZh="頂橋頭" seqNo="8" pgp="0" terminal="0" districtId="1" GoBack="1" latitude="24.28251" longitude="120.57494" inDis="50" outDis="50" oid="316040246" /><Stop Id="3586" routeId="178" nameZh="廖厝" seqNo="9" pgp="0" terminal="0" districtId="1" GoBack="1" latitude="24.28457" longitude="120.57462" inDis="50" outDis="50" oid="14597" /><Stop Id="1096" routeId="178" nameZh="三塊厝" seqNo="10" pgp="0" terminal="0" districtId="1" GoBack="1" latitude="24.28633" longitude="120.57372" inDis="50" outDis="50" oid="14598" /><Stop Id="5517" routeId="178" nameZh="國姓里(高美路)" seqNo="11" pgp="0" terminal="0" districtId="1" GoBack="1" latitude="24.28898" longitude="120.5722" inDis="50" outDis="50" oid="14584" /><Stop Id="4855" routeId="178" nameZh="裕嘉里" seqNo="12" pgp="0" terminal="0" districtId="1" GoBack="1" latitude="24.291" longitude="120.5702" inDis="50" outDis="50" oid="14600" /><Stop Id="0525" routeId="178" nameZh="高美路350巷口" seqNo="13" pgp="0" terminal="0" districtId="1" GoBack="1" latitude="24.29145" longitude="120.56812" inDis="50" outDis="50" oid="319559958" /><Stop Id="1852" routeId="178" nameZh="四塊厝" seqNo="14" pgp="0" terminal="0" districtId="1" GoBack="1" latitude="24.29152" longitude="120.56774" inDis="50" outDis="50" oid="14601" /><Stop Id="4834" routeId="178" nameZh="高南路口" seqNo="15" pgp="0" terminal="0" districtId="1" GoBack="1" latitude="24.29427" longitude="120.56394" inDis="50" outDis="50" oid="14602" /><Stop Id="5545" routeId="178" nameZh="溪底(高美路)" seqNo="16" pgp="0" terminal="0" districtId="1" GoBack="1" latitude="24.29914" longitude="120.56441" inDis="50" outDis="50" oid="14603" /><Stop Id="4846" routeId="178" nameZh="頂溪底" seqNo="17" pgp="0" terminal="0" districtId="1" GoBack="1" latitude="24.30123" longitude="120.56391" inDis="50" outDis="50" oid="14604" /><Stop Id="4861" routeId="178" nameZh="蔡厝" seqNo="18" pgp="0" terminal="0" districtId="1" GoBack="1" latitude="24.30371" longitude="120.56322" inDis="50" outDis="50" oid="14605" /><Stop Id="3918" routeId="178" nameZh="舊庄" seqNo="19" pgp="0" terminal="0" districtId="1" GoBack="1" latitude="24.30536" longitude="120.5635" inDis="50" outDis="50" oid="14606" /><Stop Id="4836" routeId="178" nameZh="高美社區" seqNo="20" pgp="0" terminal="0" districtId="1" GoBack="1" latitude="24.3075" longitude="120.56293" inDis="50" outDis="50" oid="14607" /><Stop Id="4835" routeId="178" nameZh="高美" seqNo="21" pgp="0" terminal="0" districtId="1" GoBack="1" latitude="24.3104" longitude="120.56267" inDis="50" outDis="50" oid="14608" /><Stop Id="4789" routeId="178" nameZh="五分子" seqNo="22" pgp="0" terminal="0" districtId="1" GoBack="1" latitude="24.30949" longitude="120.55975" inDis="50" outDis="50" oid="14609" /><Stop Id="4831" routeId="178" nameZh="海口村" seqNo="23" pgp="0" terminal="0" districtId="1" GoBack="1" latitude="24.31086" longitude="120.55723" inDis="50" outDis="50" oid="14610" /><Stop Id="0347" routeId="178" nameZh="土地公廟" seqNo="24" pgp="0" terminal="0" districtId="1" GoBack="1" latitude="24.31103" longitude="120.5555" inDis="50" outDis="50" oid="14611" /><Stop Id="4793" routeId="178" nameZh="文興宮" seqNo="25" pgp="0" terminal="0" districtId="1" GoBack="1" latitude="24.31122" longitude="120.55226" inDis="50" outDis="50" oid="14612" /><Stop Id="4728" routeId="178" nameZh="高美濕地" seqNo="26" pgp="0" terminal="0" districtId="1" GoBack="1" latitude="24.3118" longitude="120.55137" inDis="50" outDis="50" oid="14613" /><Stop Id="0322" routeId="178" nameZh="西安朝天宮" seqNo="27" pgp="0" terminal="0" districtId="1" GoBack="1" latitude="24.30845" longitude="120.54944" inDis="50" outDis="50" oid="318752341" /><Stop Id="0326" routeId="178" nameZh="高美濕地體驗館" seqNo="28" pgp="0" terminal="0" districtId="1" GoBack="1" latitude="24.30599" longitude="120.54649" inDis="50" outDis="50" oid="318752342" /><Stop Id="5760" routeId="178" nameZh="高美濕地遊客中心" seqNo="29" pgp="0" terminal="0" districtId="1" GoBack="1" latitude="24.29995" longitude="120.54631" inDis="50" outDis="50" oid="318752343" /><Stop Id="5760" routeId="178" nameZh="高美濕地遊客中心" seqNo="1" pgp="0" terminal="0" districtId="1" GoBack="2" latitude="24.29995" longitude="120.54631" inDis="50" outDis="50" oid="318752343" /><Stop Id="0326" routeId="178" nameZh="高美濕地體驗館" seqNo="2" pgp="0" terminal="0" districtId="1" GoBack="2" latitude="24.30601" longitude="120.54654" inDis="50" outDis="50" oid="318752344" /><Stop Id="0322" routeId="178" nameZh="西安朝天宮" seqNo="3" pgp="0" terminal="0" districtId="1" GoBack="2" latitude="24.30875" longitude="120.54955" inDis="50" outDis="50" oid="318752345" /><Stop Id="4728" routeId="178" nameZh="高美濕地" seqNo="4" pgp="0" terminal="0" districtId="1" GoBack="2" latitude="24.3118" longitude="120.55137" inDis="50" outDis="50" oid="14570" /><Stop Id="4793" routeId="178" nameZh="文興宮" seqNo="5" pgp="0" terminal="0" districtId="1" GoBack="2" latitude="24.31122" longitude="120.55226" inDis="50" outDis="50" oid="14571" /><Stop Id="0347" routeId="178" nameZh="土地公廟" seqNo="6" pgp="0" terminal="0" districtId="1" GoBack="2" latitude="24.31103" longitude="120.5555" inDis="50" outDis="50" oid="14572" /><Stop Id="4831" routeId="178" nameZh="海口村" seqNo="7" pgp="0" terminal="0" districtId="1" GoBack="2" latitude="24.31086" longitude="120.55723" inDis="50" outDis="50" oid="14573" /><Stop Id="4789" routeId="178" nameZh="五分子" seqNo="8" pgp="0" terminal="0" districtId="1" GoBack="2" latitude="24.30949" longitude="120.55975" inDis="50" outDis="50" oid="14574" /><Stop Id="4835" routeId="178" nameZh="高美" seqNo="9" pgp="0" terminal="0" districtId="1" GoBack="2" latitude="24.31028" longitude="120.56257" inDis="50" outDis="50" oid="14575" /><Stop Id="4836" routeId="178" nameZh="高美社區" seqNo="10" pgp="0" terminal="0" districtId="1" GoBack="2" latitude="24.3075" longitude="120.56293" inDis="50" outDis="50" oid="14576" /><Stop Id="3918" routeId="178" nameZh="舊庄" seqNo="11" pgp="0" terminal="0" districtId="1" GoBack="2" latitude="24.30536" longitude="120.5635" inDis="50" outDis="50" oid="14577" /><Stop Id="4861" routeId="178" nameZh="蔡厝" seqNo="12" pgp="0" terminal="0" districtId="1" GoBack="2" latitude="24.30371" longitude="120.56322" inDis="50" outDis="50" oid="14578" /><Stop Id="4846" routeId="178" nameZh="頂溪底" seqNo="13" pgp="0" terminal="0" districtId="1" GoBack="2" latitude="24.30123" longitude="120.56391" inDis="50" outDis="50" oid="14579" /><Stop Id="5545" routeId="178" nameZh="溪底(高美路)" seqNo="14" pgp="0" terminal="0" districtId="1" GoBack="2" latitude="24.29914" longitude="120.56441" inDis="50" outDis="50" oid="14580" /><Stop Id="4834" routeId="178" nameZh="高南路口" seqNo="15" pgp="0" terminal="0" districtId="1" GoBack="2" latitude="24.29427" longitude="120.56394" inDis="50" outDis="50" oid="14581" /><Stop Id="1852" routeId="178" nameZh="四塊厝" seqNo="16" pgp="0" terminal="0" districtId="1" GoBack="2" latitude="24.29152" longitude="120.56774" inDis="50" outDis="50" oid="14582" /><Stop Id="0525" routeId="178" nameZh="高美路350巷口" seqNo="17" pgp="0" terminal="0" districtId="1" GoBack="2" latitude="24.29128" longitude="120.56872" inDis="50" outDis="50" oid="319559957" /><Stop Id="4855" routeId="178" nameZh="裕嘉里" seqNo="18" pgp="0" terminal="0" districtId="1" GoBack="2" latitude="24.291" longitude="120.5702" inDis="50" outDis="50" oid="14583" /><Stop Id="5517" routeId="178" nameZh="國姓里(高美路)" seqNo="19" pgp="0" terminal="0" districtId="1" GoBack="2" latitude="24.28898" longitude="120.5722" inDis="50" outDis="50" oid="14584" /><Stop Id="1096" routeId="178" nameZh="三塊厝" seqNo="20" pgp="0" terminal="0" districtId="1" GoBack="2" latitude="24.28633" longitude="120.57372" inDis="50" outDis="50" oid="14585" /><Stop Id="3586" routeId="178" nameZh="廖厝" seqNo="21" pgp="0" terminal="0" districtId="1" GoBack="2" latitude="24.28457" longitude="120.57462" inDis="50" outDis="50" oid="14586" /><Stop Id="4847" routeId="178" nameZh="頂橋頭" seqNo="22" pgp="0" terminal="0" districtId="1" GoBack="2" latitude="24.28255" longitude="120.57501" inDis="50" outDis="50" oid="311502868" /><Stop Id="4863" routeId="178" nameZh="橋頭" seqNo="23" pgp="0" terminal="0" districtId="1" GoBack="2" latitude="24.28043" longitude="120.5751" inDis="50" outDis="50" oid="316040245" /><Stop Id="4442" routeId="178" nameZh="中山高美路口" seqNo="24" pgp="0" terminal="0" districtId="1" GoBack="2" latitude="24.27461" longitude="120.57725" inDis="50" outDis="50" oid="312352563" /><Stop Id="4521" routeId="178" nameZh="中山董公街口" seqNo="25" pgp="0" terminal="0" districtId="1" GoBack="2" latitude="24.27284" longitude="120.57687" inDis="50" outDis="50" oid="305513525" /><Stop Id="3013" routeId="178" nameZh="清水" seqNo="26" pgp="0" terminal="0" districtId="1" GoBack="2" latitude="24.2703" longitude="120.57594" inDis="50" outDis="50" oid="10843" /><Stop Id="5141" routeId="178" nameZh="華南銀行(清水分行)" seqNo="27" pgp="0" terminal="0" districtId="1" GoBack="2" latitude="24.2683" longitude="120.57516" inDis="50" outDis="50" oid="14057" /><Stop Id="4119" routeId="178" nameZh="清水高中" seqNo="28" pgp="0" terminal="0" districtId="1" GoBack="2" latitude="24.2658" longitude="120.5742" inDis="50" outDis="50" oid="14359" /><Stop Id="5471" routeId="178" nameZh="清水火車站" seqNo="29" pgp="0" terminal="0" districtId="1" GoBack="2" latitude="24.26341" longitude="120.57005" inDis="50" outDis="50" oid="314200099" /></BusInfo></BusDynInfo>