[
  {
    "type": "Feature",
    "geometry": {
      "type": "Point",
      "coordinates": [
        120.82798,
        24.2582
      ]
    },
    "properties": {
      "id": "2428",
      "name": "東勢",
      "seq": 1
    }
  },
  {
    "type": "Feature",
    "geometry": {
      "type": "Point",
      "coordinates": [
        120.82921,
        24.25529
      ]
    },
    "properties": {
      "id": "2570",
      "name": "南平里",
      "seq": 2
    }
  },
  {
    "type": "Feature",
    "geometry": {
      "type": "Point",
      "coordinates": [
        120.8299,
        24.25274
      ]
    },
    "properties": {
      "id": "1415",
      "name": "中嵙口",
      "seq": 3
    }
  },
  {
    "type": "Feature",
    "geometry": {
      "type": "Point",
      "coordinates": [
        120.83063,
        24.24998
      ]
    },
    "properties": {
      "id": "4409",
      "name": "東勢南站",
      "seq": 4
    }
  },
  {
    "type": "Feature",
    "geometry": {
      "type": "Point",
      "coordinates": [
        120.8317,
        24.24822
      ]
    },
    "properties": {
      "id": "2002",
      "name": "石角口",
      "seq": 5
    }
  },
  {
    "type": "Feature",
    "geometry": {
      "type": "Point",
      "coordinates": [
        120.83329,
        24.24339
      ]
    },
    "properties": {
      "id": "0312",
      "name": "新盛里(東勢高工)",
      "seq": 6
    }
  },
  {
    "type": "Feature",
    "geometry": {
      "type": "Point",
      "coordinates": [
        120.83439,
        24.23876
      ]
    },
    "properties": {
      "id": "2229",
      "name": "尾社",
      "seq": 7
    }
  },
  {
    "type": "Feature",
    "geometry": {
      "type": "Point",
      "coordinates": [
        120.83546,
        24.23498
      ]
    },
    "properties": {
      "id": "1107",
      "name": "三鑫公司",
      "seq": 8
    }
  },
  {
    "type": "Feature",
    "geometry": {
      "type": "Point",
      "coordinates": [
        120.83637,
        24.23179
      ]
    },
    "properties": {
      "id": "4466",
      "name": "東關福山路口",
      "seq": 9
    }
  },
  {
    "type": "Feature",
    "geometry": {
      "type": "Point",
      "coordinates": [
        120.83723,
        24.22845
      ]
    },
    "properties": {
      "id": "3391",
      "name": "新伯公",
      "seq": 10
    }
  },
  {
    "type": "Feature",
    "geometry": {
      "type": "Point",
      "coordinates": [
        120.83827,
        24.22503
      ]
    },
    "properties": {
      "id": "3329",
      "name": "詒新",
      "seq": 11
    }
  },
  {
    "type": "Feature",
    "geometry": {
      "type": "Point",
      "coordinates": [
        120.83849,
        24.22229
      ]
    },
    "properties": {
      "id": "1167",
      "name": "下城里",
      "seq": 12
    }
  },
  {
    "type": "Feature",
    "geometry": {
      "type": "Point",
      "coordinates": [
        120.83825,
        24.21803
      ]
    },
    "properties": {
      "id": "1238",
      "name": "上城里",
      "seq": 13
    }
  },
  {
    "type": "Feature",
    "geometry": {
      "type": "Point",
      "coordinates": [
        120.83881,
        24.21252
      ]
    },
    "properties": {
      "id": "3828",
      "name": "頭汴角",
      "seq": 14
    }
  },
  {
    "type": "Feature",
    "geometry": {
      "type": "Point",
      "coordinates": [
        120.83937,
        24.20619
      ]
    },
    "properties": {
      "id": "2118",
      "name": "成功新村",
      "seq": 15
    }
  },
  {
    "type": "Feature",
    "geometry": {
      "type": "Point",
      "coordinates": [
        120.83965,
        24.20401
      ]
    },
    "properties": {
      "id": "1326",
      "name": "大茅埔",
      "seq": 16
    }
  },
  {
    "type": "Feature",
    "geometry": {
      "type": "Point",
      "coordinates": [
        120.83925,
        24.19282
      ]
    },
    "properties": {
      "id": "3730",
      "name": "慶福里",
      "seq": 17
    }
  },
  {
    "type": "Feature",
    "geometry": {
      "type": "Point",
      "coordinates": [
        120.84023,
        24.18874
      ]
    },
    "properties": {
      "id": "1170",
      "name": "下段",
      "seq": 18
    }
  },
  {
    "type": "Feature",
    "geometry": {
      "type": "Point",
      "coordinates": [
        120.84056,
        24.184
      ]
    },
    "properties": {
      "id": "1239",
      "name": "上段",
      "seq": 19
    }
  },
  {
    "type": "Feature",
    "geometry": {
      "type": "Point",
      "coordinates": [
        120.83894,
        24.17564
      ]
    },
    "properties": {
      "id": "1722",
      "name": "水簡頭",
      "seq": 20
    }
  },
  {
    "type": "Feature",
    "geometry": {
      "type": "Point",
      "coordinates": [
        120.83959,
        24.17144
      ]
    },
    "properties": {
      "id": "2902",
      "name": "馬鞍寮",
      "seq": 21
    }
  },
  {
    "type": "Feature",
    "geometry": {
      "type": "Point",
      "coordinates": [
        120.84295,
        24.1681
      ]
    },
    "properties": {
      "id": "4465",
      "name": "東關湖楓路口",
      "seq": 22
    }
  },
  {
    "type": "Feature",
    "geometry": {
      "type": "Point",
      "coordinates": [
        120.84701,
        24.16308
      ]
    },
    "properties": {
      "id": "2163",
      "name": "老楓樹下",
      "seq": 23
    }
  },
  {
    "type": "Feature",
    "geometry": {
      "type": "Point",
      "coordinates": [
        120.85086,
        24.16229
      ]
    },
    "properties": {
      "id": "3453",
      "name": "楓樹下",
      "seq": 24
    }
  },
  {
    "type": "Feature",
    "geometry": {
      "type": "Point",
      "coordinates": [
        120.8604,
        24.16097
      ]
    },
    "properties": {
      "id": "1627",
      "name": "天冷",
      "seq": 25
    }
  },
  {
    "type": "Feature",
    "geometry": {
      "type": "Point",
      "coordinates": [
        120.86339,
        24.16457
      ]
    },
    "properties": {
      "id": "1287",
      "name": "大同橋",
      "seq": 26
    }
  },
  {
    "type": "Feature",
    "geometry": {
      "type": "Point",
      "coordinates": [
        120.86698,
        24.16719
      ]
    },
    "properties": {
      "id": "3887",
      "name": "燥坑",
      "seq": 27
    }
  },
  {
    "type": "Feature",
    "geometry": {
      "type": "Point",
      "coordinates": [
        120.86967,
        24.16944
      ]
    },
    "properties": {
      "id": "2312",
      "name": "和合",
      "seq": 28
    }
  },
  {
    "type": "Feature",
    "geometry": {
      "type": "Point",
      "coordinates": [
        120.87264,
        24.17065
      ]
    },
    "properties": {
      "id": "4464",
      "name": "東關和榮路口",
      "seq": 29
    }
  },
  {
    "type": "Feature",
    "geometry": {
      "type": "Point",
      "coordinates": [
        120.87776,
        24.17319
      ]
    },
    "properties": {
      "id": "1864",
      "name": "外和平",
      "seq": 30
    }
  },
  {
    "type": "Feature",
    "geometry": {
      "type": "Point",
      "coordinates": [
        120.88207,
        24.17506
      ]
    },
    "properties": {
      "id": "2307",
      "name": "和平",
      "seq": 31
    }
  },
  {
    "type": "Feature",
    "geometry": {
      "type": "Point",
      "coordinates": [
        120.88386,
        24.17472
      ]
    },
    "properties": {
      "id": "5043",
      "name": "和平區農會",
      "seq": 32
    }
  },
  {
    "type": "Feature",
    "geometry": {
      "type": "Point",
      "coordinates": [
        120.88895,
        24.17389
      ]
    },
    "properties": {
      "id": "4463",
      "name": "和平衛生所",
      "seq": 33
    }
  },
  {
    "type": "Feature",
    "geometry": {
      "type": "Point",
      "coordinates": [
        120.88895,
        24.17389
      ]
    },
    "properties": {
      "id": "4463",
      "name": "和平衛生所",
      "seq": 1
    }
  },
  {
    "type": "Feature",
    "geometry": {
      "type": "Point",
      "coordinates": [
        120.88386,
        24.17472
      ]
    },
    "properties": {
      "id": "5043",
      "name": "和平區農會",
      "seq": 2
    }
  },
  {
    "type": "Feature",
    "geometry": {
      "type": "Point",
      "coordinates": [
        120.88207,
        24.17506
      ]
    },
    "properties": {
      "id": "2307",
      "name": "和平",
      "seq": 3
    }
  },
  {
    "type": "Feature",
    "geometry": {
      "type": "Point",
      "coordinates": [
        120.87776,
        24.17319
      ]
    },
    "properties": {
      "id": "1864",
      "name": "外和平",
      "seq": 4
    }
  },
  {
    "type": "Feature",
    "geometry": {
      "type": "Point",
      "coordinates": [
        120.87264,
        24.17065
      ]
    },
    "properties": {
      "id": "4464",
      "name": "東關和榮路口",
      "seq": 5
    }
  },
  {
    "type": "Feature",
    "geometry": {
      "type": "Point",
      "coordinates": [
        120.86967,
        24.16944
      ]
    },
    "properties": {
      "id": "2312",
      "name": "和合",
      "seq": 6
    }
  },
  {
    "type": "Feature",
    "geometry": {
      "type": "Point",
      "coordinates": [
        120.86698,
        24.16719
      ]
    },
    "properties": {
      "id": "3887",
      "name": "燥坑",
      "seq": 7
    }
  },
  {
    "type": "Feature",
    "geometry": {
      "type": "Point",
      "coordinates": [
        120.86339,
        24.16457
      ]
    },
    "properties": {
      "id": "1287",
      "name": "大同橋",
      "seq": 8
    }
  },
  {
    "type": "Feature",
    "geometry": {
      "type": "Point",
      "coordinates": [
        120.8604,
        24.16097
      ]
    },
    "properties": {
      "id": "1627",
      "name": "天冷",
      "seq": 9
    }
  },
  {
    "type": "Feature",
    "geometry": {
      "type": "Point",
      "coordinates": [
        120.85086,
        24.16229
      ]
    },
    "properties": {
      "id": "3453",
      "name": "楓樹下",
      "seq": 10
    }
  },
  {
    "type": "Feature",
    "geometry": {
      "type": "Point",
      "coordinates": [
        120.84701,
        24.16308
      ]
    },
    "properties": {
      "id": "2163",
      "name": "老楓樹下",
      "seq": 11
    }
  },
  {
    "type": "Feature",
    "geometry": {
      "type": "Point",
      "coordinates": [
        120.84295,
        24.1681
      ]
    },
    "properties": {
      "id": "4465",
      "name": "東關湖楓路口",
      "seq": 12
    }
  },
  {
    "type": "Feature",
    "geometry": {
      "type": "Point",
      "coordinates": [
        120.83959,
        24.17144
      ]
    },
    "properties": {
      "id": "2902",
      "name": "馬鞍寮",
      "seq": 13
    }
  },
  {
    "type": "Feature",
    "geometry": {
      "type": "Point",
      "coordinates": [
        120.83894,
        24.17564
      ]
    },
    "properties": {
      "id": "1722",
      "name": "水簡頭",
      "seq": 14
    }
  },
  {
    "type": "Feature",
    "geometry": {
      "type": "Point",
      "coordinates": [
        120.84056,
        24.184
      ]
    },
    "properties": {
      "id": "1239",
      "name": "上段",
      "seq": 15
    }
  },
  {
    "type": "Feature",
    "geometry": {
      "type": "Point",
      "coordinates": [
        120.84023,
        24.18874
      ]
    },
    "properties": {
      "id": "1170",
      "name": "下段",
      "seq": 16
    }
  },
  {
    "type": "Feature",
    "geometry": {
      "type": "Point",
      "coordinates": [
        120.83925,
        24.19282
      ]
    },
    "properties": {
      "id": "3730",
      "name": "慶福里",
      "seq": 17
    }
  },
  {
    "type": "Feature",
    "geometry": {
      "type": "Point",
      "coordinates": [
        120.83965,
        24.20401
      ]
    },
    "properties": {
      "id": "1326",
      "name": "大茅埔",
      "seq": 18
    }
  },
  {
    "type": "Feature",
    "geometry": {
      "type": "Point",
      "coordinates": [
        120.83937,
        24.20619
      ]
    },
    "properties": {
      "id": "2118",
      "name": "成功新村",
      "seq": 19
    }
  },
  {
    "type": "Feature",
    "geometry": {
      "type": "Point",
      "coordinates": [
        120.83881,
        24.21252
      ]
    },
    "properties": {
      "id": "3828",
      "name": "頭汴角",
      "seq": 20
    }
  },
  {
    "type": "Feature",
    "geometry": {
      "type": "Point",
      "coordinates": [
        120.83825,
        24.21803
      ]
    },
    "properties": {
      "id": "1238",
      "name": "上城里",
      "seq": 21
    }
  },
  {
    "type": "Feature",
    "geometry": {
      "type": "Point",
      "coordinates": [
        120.83849,
        24.22229
      ]
    },
    "properties": {
      "id": "1167",
      "name": "下城里",
      "seq": 22
    }
  },
  {
    "type": "Feature",
    "geometry": {
      "type": "Point",
      "coordinates": [
        120.83827,
        24.22503
      ]
    },
    "properties": {
      "id": "3329",
      "name": "詒新",
      "seq": 23
    }
  },
  {
    "type": "Feature",
    "geometry": {
      "type": "Point",
      "coordinates": [
        120.83723,
        24.22845
      ]
    },
    "properties": {
      "id": "3391",
      "name": "新伯公",
      "seq": 24
    }
  },
  {
    "type": "Feature",
    "geometry": {
      "type": "Point",
      "coordinates": [
        120.83637,
        24.23179
      ]
    },
    "properties": {
      "id": "4466",
      "name": "東關福山路口",
      "seq": 25
    }
  },
  {
    "type": "Feature",
    "geometry": {
      "type": "Point",
      "coordinates": [
        120.83546,
        24.23498
      ]
    },
    "properties": {
      "id": "1107",
      "name": "三鑫公司",
      "seq": 26
    }
  },
  {
    "type": "Feature",
    "geometry": {
      "type": "Point",
      "coordinates": [
        120.83439,
        24.23876
      ]
    },
    "properties": {
      "id": "2229",
      "name": "尾社",
      "seq": 27
    }
  },
  {
    "type": "Feature",
    "geometry": {
      "type": "Point",
      "coordinates": [
        120.83329,
        24.24339
      ]
    },
    "properties": {
      "id": "0312",
      "name": "新盛里(東勢高工)",
      "seq": 28
    }
  },
  {
    "type": "Feature",
    "geometry": {
      "type": "Point",
      "coordinates": [
        120.8317,
        24.24822
      ]
    },
    "properties": {
      "id": "2002",
      "name": "石角口",
      "seq": 29
    }
  },
  {
    "type": "Feature",
    "geometry": {
      "type": "Point",
      "coordinates": [
        120.83063,
        24.24998
      ]
    },
    "properties": {
      "id": "4409",
      "name": "東勢南站",
      "seq": 30
    }
  },
  {
    "type": "Feature",
    "geometry": {
      "type": "Point",
      "coordinates": [
        120.8299,
        24.25274
      ]
    },
    "properties": {
      "id": "1415",
      "name": "中嵙口",
      "seq": 31
    }
  },
  {
    "type": "Feature",
    "geometry": {
      "type": "Point",
      "coordinates": [
        120.82921,
        24.25529
      ]
    },
    "properties": {
      "id": "2570",
      "name": "南平里",
      "seq": 32
    }
  },
  {
    "type": "Feature",
    "geometry": {
      "type": "Point",
      "coordinates": [
        120.82798,
        24.2582
      ]
    },
    "properties": {
      "id": "2428",
      "name": "東勢",
      "seq": 33
    }
  }
]
