<?xml version="1.0" encoding="UTF-8" standalone="yes"?>
<BusDynInfo><EssentialInfo><Location><name>TCBUS</name><CenterName>Maxwin</CenterName></Location><UpdateTime>2014-12-20 08:18:37</UpdateTime><CoordinateSystem/></EssentialInfo>
<BusInfo><Stop Id="3935" routeId="218" nameZh="豐原" seqNo="1" pgp="0" terminal="0" districtId="1" GoBack="1" latitude="24.2538" longitude="120.72154" inDis="70" outDis="70" oid="6693" /><Stop Id="3343" routeId="218" nameZh="媽祖廟" seqNo="2" pgp="0" terminal="0" districtId="1" GoBack="1" latitude="24.25157" longitude="120.71851" inDis="50" outDis="50" oid="6397" /><Stop Id="2097" routeId="218" nameZh="圳寮口" seqNo="3" pgp="0" terminal="0" districtId="1" GoBack="1" latitude="24.25245" longitude="120.71571" inDis="50" outDis="50" oid="5711" /><Stop Id="2098" routeId="218" nameZh="圳寮里" seqNo="4" pgp="0" terminal="0" districtId="1" GoBack="1" latitude="24.25557" longitude="120.71548" inDis="50" outDis="50" oid="5714" /><Stop Id="4473" routeId="218" nameZh="圓環北中山路口" seqNo="5" pgp="0" terminal="0" districtId="1" GoBack="1" latitude="24.25583" longitude="120.71299" inDis="50" outDis="50" oid="13846" /><Stop Id="3458" routeId="218" nameZh="源龍社區" seqNo="6" pgp="0" terminal="0" districtId="1" GoBack="1" latitude="24.25835" longitude="120.71133" inDis="50" outDis="50" oid="6473" /><Stop Id="2021" routeId="218" nameZh="石頭厝" seqNo="7" pgp="0" terminal="0" districtId="1" GoBack="1" latitude="24.25975" longitude="120.70844" inDis="50" outDis="50" oid="5668" /><Stop Id="4967" routeId="218" nameZh="豐洲國小" seqNo="8" pgp="0" terminal="0" districtId="1" GoBack="1" latitude="24.26201" longitude="120.70375" inDis="50" outDis="50" oid="308875008" /><Stop Id="1323" routeId="218" nameZh="豐洲大洲路口" seqNo="9" pgp="0" terminal="0" districtId="1" GoBack="1" latitude="24.26187" longitude="120.70408" inDis="50" outDis="50" oid="5242" /><Stop Id="2655" routeId="218" nameZh="後壁厝" seqNo="10" pgp="0" terminal="0" districtId="1" GoBack="1" latitude="24.26555" longitude="120.69606" inDis="50" outDis="50" oid="6029" /><Stop Id="2840" routeId="218" nameZh="神洲" seqNo="11" pgp="0" terminal="0" districtId="1" GoBack="1" latitude="24.26621" longitude="120.69073" inDis="50" outDis="50" oid="6143" /><Stop Id="1496" routeId="218" nameZh="中寮" seqNo="12" pgp="0" terminal="0" districtId="1" GoBack="1" latitude="24.26797" longitude="120.68592" inDis="50" outDis="50" oid="5346" /><Stop Id="1143" routeId="218" nameZh="下圳寮" seqNo="13" pgp="0" terminal="0" districtId="1" GoBack="1" latitude="24.26933" longitude="120.68296" inDis="50" outDis="50" oid="5123" /><Stop Id="3934" routeId="218" nameZh="豐洲" seqNo="14" pgp="0" terminal="0" districtId="1" GoBack="1" latitude="24.26727" longitude="120.68095" inDis="50" outDis="50" oid="6691" /><Stop Id="1205" routeId="218" nameZh="下溪洲" seqNo="15" pgp="0" terminal="0" districtId="1" GoBack="1" latitude="24.26597" longitude="120.67957" inDis="50" outDis="50" oid="5157" /><Stop Id="4945" routeId="218" nameZh="崎腳" seqNo="16" pgp="0" terminal="0" districtId="1" GoBack="1" latitude="24.26491" longitude="120.67765" inDis="50" outDis="50" oid="308890940" /><Stop Id="4945" routeId="218" nameZh="崎腳" seqNo="1" pgp="0" terminal="0" districtId="1" GoBack="2" latitude="24.26491" longitude="120.67765" inDis="50" outDis="50" oid="308890940" /><Stop Id="1205" routeId="218" nameZh="下溪洲" seqNo="3" pgp="0" terminal="0" districtId="1" GoBack="2" latitude="24.26597" longitude="120.67957" inDis="50" outDis="50" oid="5157" /><Stop Id="3934" routeId="218" nameZh="豐洲" seqNo="4" pgp="0" terminal="0" districtId="1" GoBack="2" latitude="24.26727" longitude="120.68095" inDis="50" outDis="50" oid="6691" /><Stop Id="1143" routeId="218" nameZh="下圳寮" seqNo="5" pgp="0" terminal="0" districtId="1" GoBack="2" latitude="24.26933" longitude="120.68296" inDis="50" outDis="50" oid="5123" /><Stop Id="1496" routeId="218" nameZh="中寮" seqNo="6" pgp="0" terminal="0" districtId="1" GoBack="2" latitude="24.26797" longitude="120.68592" inDis="50" outDis="50" oid="5346" /><Stop Id="2840" routeId="218" nameZh="神洲" seqNo="7" pgp="0" terminal="0" districtId="1" GoBack="2" latitude="24.26621" longitude="120.69073" inDis="50" outDis="50" oid="6143" /><Stop Id="2655" routeId="218" nameZh="後壁厝" seqNo="8" pgp="0" terminal="0" districtId="1" GoBack="2" latitude="24.26555" longitude="120.69606" inDis="50" outDis="50" oid="6029" /><Stop Id="1323" routeId="218" nameZh="豐洲大洲路口" seqNo="9" pgp="0" terminal="0" districtId="1" GoBack="2" latitude="24.26187" longitude="120.70408" inDis="50" outDis="50" oid="5242" /><Stop Id="4967" routeId="218" nameZh="豐洲國小" seqNo="10" pgp="0" terminal="0" districtId="1" GoBack="2" latitude="24.26201" longitude="120.70375" inDis="50" outDis="50" oid="308875008" /><Stop Id="2021" routeId="218" nameZh="石頭厝" seqNo="11" pgp="0" terminal="0" districtId="1" GoBack="2" latitude="24.25975" longitude="120.70844" inDis="50" outDis="50" oid="5668" /><Stop Id="3458" routeId="218" nameZh="源龍社區" seqNo="12" pgp="0" terminal="0" districtId="1" GoBack="2" latitude="24.25835" longitude="120.71133" inDis="50" outDis="50" oid="6473" /><Stop Id="4473" routeId="218" nameZh="圓環北中山路口" seqNo="13" pgp="0" terminal="0" districtId="1" GoBack="2" latitude="24.25583" longitude="120.71299" inDis="50" outDis="50" oid="13846" /><Stop Id="2098" routeId="218" nameZh="圳寮里" seqNo="14" pgp="0" terminal="0" districtId="1" GoBack="2" latitude="24.25557" longitude="120.71548" inDis="50" outDis="50" oid="5714" /><Stop Id="2097" routeId="218" nameZh="圳寮口" seqNo="15" pgp="0" terminal="0" districtId="1" GoBack="2" latitude="24.25245" longitude="120.71571" inDis="50" outDis="50" oid="5711" /><Stop Id="3939" routeId="218" nameZh="豐原郵局" seqNo="16" pgp="0" terminal="0" districtId="1" GoBack="2" latitude="24.25136" longitude="120.71526" inDis="50" outDis="50" oid="13243" /><Stop Id="3343" routeId="218" nameZh="媽祖廟" seqNo="17" pgp="0" terminal="0" districtId="1" GoBack="2" latitude="24.25157" longitude="120.71851" inDis="50" outDis="50" oid="6397" /><Stop Id="2309" routeId="218" nameZh="和平街" seqNo="18" pgp="0" terminal="0" districtId="1" GoBack="2" latitude="24.25233" longitude="120.71986" inDis="50" outDis="50" oid="5835" /><Stop Id="3935" routeId="218" nameZh="豐原" seqNo="19" pgp="0" terminal="0" districtId="1" GoBack="2" latitude="24.2538" longitude="120.72154" inDis="70" outDis="70" oid="6693" /></BusInfo></BusDynInfo>