<?xml version="1.0" encoding="UTF-8" standalone="yes"?>
<BusDynInfo><EssentialInfo><Location><name>TCBUS</name><CenterName>Maxwin</CenterName></Location><UpdateTime>2014-12-20 07:31:20</UpdateTime><CoordinateSystem/></EssentialInfo>
<BusInfo><Stop Id="2907" routeId="39" nameZh="高鐵臺中站" seqNo="1" pgp="0" terminal="0" districtId="1" GoBack="1" latitude="24.11147" longitude="120.61552" inDis="50" outDis="50" oid="319373168" /><Stop Id="5126" routeId="39" nameZh="烏日國中(新興路)" seqNo="2" pgp="0" terminal="0" districtId="1" GoBack="1" latitude="24.10561" longitude="120.61694" inDis="50" outDis="50" oid="319373171" /><Stop Id="2816" routeId="39" nameZh="烏日" seqNo="3" pgp="0" terminal="0" districtId="1" GoBack="1" latitude="24.1052" longitude="120.6213" inDis="50" outDis="50" oid="319373175" /><Stop Id="4340" routeId="39" nameZh="烏日區公所" seqNo="4" pgp="0" terminal="0" districtId="1" GoBack="1" latitude="24.10439" longitude="120.62384" inDis="50" outDis="50" oid="319373176" /><Stop Id="0040" routeId="39" nameZh="五光公園三街口" seqNo="5" pgp="0" terminal="0" districtId="1" GoBack="1" latitude="24.10287" longitude="120.62813" inDis="50" outDis="50" oid="319373177" /><Stop Id="0469" routeId="39" nameZh="五光復光六巷口" seqNo="6" pgp="0" terminal="0" districtId="1" GoBack="1" latitude="24.09983" longitude="120.63098" inDis="50" outDis="50" oid="319373179" /><Stop Id="0472" routeId="39" nameZh="五光復光五巷口" seqNo="7" pgp="0" terminal="0" districtId="1" GoBack="1" latitude="24.09852" longitude="120.63307" inDis="50" outDis="50" oid="319373180" /><Stop Id="0474" routeId="39" nameZh="五光溪南路口" seqNo="8" pgp="0" terminal="0" districtId="1" GoBack="1" latitude="24.09629" longitude="120.63834" inDis="50" outDis="50" oid="319373182" /><Stop Id="0475" routeId="39" nameZh="五光環河路口" seqNo="9" pgp="0" terminal="0" districtId="1" GoBack="1" latitude="24.09354" longitude="120.64376" inDis="50" outDis="50" oid="319373183" /><Stop Id="0476" routeId="39" nameZh="五光環中路口" seqNo="10" pgp="0" terminal="0" districtId="1" GoBack="1" latitude="24.09292" longitude="120.6471" inDis="50" outDis="50" oid="319373185" /><Stop Id="0477" routeId="39" nameZh="五張犁福德宮" seqNo="11" pgp="0" terminal="0" districtId="1" GoBack="1" latitude="24.09382" longitude="120.6508" inDis="50" outDis="50" oid="319373187" /><Stop Id="5226" routeId="39" nameZh="五光里" seqNo="12" pgp="0" terminal="0" districtId="1" GoBack="1" latitude="24.09446" longitude="120.65266" inDis="50" outDis="50" oid="319373189" /><Stop Id="5225" routeId="39" nameZh="五光五中巷口" seqNo="13" pgp="0" terminal="0" districtId="1" GoBack="1" latitude="24.09516" longitude="120.65499" inDis="50" outDis="50" oid="319373191" /><Stop Id="3789" routeId="39" nameZh="德昌社區" seqNo="14" pgp="0" terminal="0" districtId="1" GoBack="1" latitude="24.0961" longitude="120.65912" inDis="50" outDis="50" oid="319376564" /><Stop Id="3788" routeId="39" nameZh="樹王" seqNo="15" pgp="0" terminal="0" districtId="1" GoBack="1" latitude="24.09677" longitude="120.66481" inDis="50" outDis="50" oid="319373193" /><Stop Id="1972" routeId="39" nameZh="瓦瑤" seqNo="16" pgp="0" terminal="0" districtId="1" GoBack="1" latitude="24.09758" longitude="120.67354" inDis="50" outDis="50" oid="319373195" /><Stop Id="1360" routeId="39" nameZh="大里" seqNo="17" pgp="0" terminal="0" districtId="1" GoBack="1" latitude="24.09789" longitude="120.67702" inDis="50" outDis="50" oid="319373198" /><Stop Id="5218" routeId="39" nameZh="大里國小" seqNo="18" pgp="0" terminal="0" districtId="1" GoBack="1" latitude="24.09971" longitude="120.67705" inDis="50" outDis="50" oid="319373199" /><Stop Id="1364" routeId="39" nameZh="大里農會" seqNo="19" pgp="0" terminal="0" districtId="1" GoBack="1" latitude="24.10077" longitude="120.67679" inDis="50" outDis="50" oid="319373201" /><Stop Id="0506" routeId="39" nameZh="進士公園" seqNo="20" pgp="0" terminal="0" districtId="1" GoBack="1" latitude="24.10308" longitude="120.67576" inDis="50" outDis="50" oid="319373203" /><Stop Id="0508" routeId="39" nameZh="環保公園" seqNo="21" pgp="0" terminal="0" districtId="1" GoBack="1" latitude="24.1039" longitude="120.67829" inDis="50" outDis="50" oid="319373205" /><Stop Id="4294" routeId="39" nameZh="國光德芳路口" seqNo="22" pgp="0" terminal="0" districtId="1" GoBack="1" latitude="24.10523" longitude="120.68115" inDis="50" outDis="50" oid="319373207" /><Stop Id="1558" routeId="39" nameZh="大里仁愛醫院" seqNo="23" pgp="0" terminal="0" districtId="1" GoBack="1" latitude="24.10945" longitude="120.68048" inDis="50" outDis="50" oid="319373209" /><Stop Id="5627" routeId="39" nameZh="興大附中(東榮路)" seqNo="24" pgp="0" terminal="0" districtId="1" GoBack="1" latitude="24.11011" longitude="120.68319" inDis="50" outDis="50" oid="319373211" /><Stop Id="5074" routeId="39" nameZh="大里地政事務所" seqNo="25" pgp="0" terminal="0" districtId="1" GoBack="1" latitude="24.11033" longitude="120.68543" inDis="50" outDis="50" oid="319373213" /><Stop Id="4919" routeId="39" nameZh="大里公園" seqNo="26" pgp="0" terminal="0" districtId="1" GoBack="1" latitude="24.1102" longitude="120.68805" inDis="50" outDis="50" oid="319373215" /><Stop Id="1363" routeId="39" nameZh="中興大里路口" seqNo="27" pgp="0" terminal="0" districtId="1" GoBack="1" latitude="24.10857" longitude="120.68994" inDis="50" outDis="50" oid="319376519" /><Stop Id="2026" routeId="39" nameZh="立人高中" seqNo="28" pgp="0" terminal="0" districtId="1" GoBack="1" latitude="24.10581" longitude="120.68939" inDis="50" outDis="50" oid="319376521" /><Stop Id="1126" routeId="39" nameZh="下內新" seqNo="29" pgp="0" terminal="0" districtId="1" GoBack="1" latitude="24.10256" longitude="120.68844" inDis="50" outDis="50" oid="319376523" /><Stop Id="0479" routeId="39" nameZh="大元國小" seqNo="30" pgp="0" terminal="0" districtId="1" GoBack="1" latitude="24.10111" longitude="120.68938" inDis="50" outDis="50" oid="319376525" /><Stop Id="0490" routeId="39" nameZh="健康公園(立元路) " seqNo="31" pgp="0" terminal="0" districtId="1" GoBack="1" latitude="24.09977" longitude="120.69595" inDis="50" outDis="50" oid="319376527" /><Stop Id="0480" routeId="39" nameZh="立中街" seqNo="32" pgp="0" terminal="0" districtId="1" GoBack="1" latitude="24.10121" longitude="120.69718" inDis="50" outDis="50" oid="319376529" /><Stop Id="0482" routeId="39" nameZh="立新國中" seqNo="33" pgp="0" terminal="0" districtId="1" GoBack="1" latitude="24.10421" longitude="120.69805" inDis="50" outDis="50" oid="319376531" /><Stop Id="0495" routeId="39" nameZh="立新國小" seqNo="34" pgp="0" terminal="0" districtId="1" GoBack="1" latitude="24.10566" longitude="120.6998" inDis="50" outDis="50" oid="319376532" /><Stop Id="0495" routeId="39" nameZh="立新國小" seqNo="1" pgp="0" terminal="0" districtId="1" GoBack="2" latitude="24.1051" longitude="120.6999" inDis="50" outDis="50" oid="319376533" /><Stop Id="0482" routeId="39" nameZh="立新國中" seqNo="2" pgp="0" terminal="0" districtId="1" GoBack="2" latitude="24.10421" longitude="120.69805" inDis="50" outDis="50" oid="319376531" /><Stop Id="0480" routeId="39" nameZh="立中街" seqNo="3" pgp="0" terminal="0" districtId="1" GoBack="2" latitude="24.1017" longitude="120.69715" inDis="50" outDis="50" oid="319376530" /><Stop Id="0490" routeId="39" nameZh="健康公園(立元路) " seqNo="4" pgp="0" terminal="0" districtId="1" GoBack="2" latitude="24.09976" longitude="120.69588" inDis="50" outDis="50" oid="319376528" /><Stop Id="0479" routeId="39" nameZh="大元國小" seqNo="5" pgp="0" terminal="0" districtId="1" GoBack="2" latitude="24.10123" longitude="120.6895" inDis="50" outDis="50" oid="319376526" /><Stop Id="1126" routeId="39" nameZh="下內新" seqNo="6" pgp="0" terminal="0" districtId="1" GoBack="2" latitude="24.10289" longitude="120.68856" inDis="50" outDis="50" oid="319376524" /><Stop Id="2026" routeId="39" nameZh="立人高中" seqNo="7" pgp="0" terminal="0" districtId="1" GoBack="2" latitude="24.10494" longitude="120.68917" inDis="50" outDis="50" oid="319376522" /><Stop Id="1363" routeId="39" nameZh="中興大里路口" seqNo="8" pgp="0" terminal="0" districtId="1" GoBack="2" latitude="24.10879" longitude="120.68996" inDis="50" outDis="50" oid="319376520" /><Stop Id="4919" routeId="39" nameZh="大里公園" seqNo="9" pgp="0" terminal="0" districtId="1" GoBack="2" latitude="24.11028" longitude="120.68749" inDis="50" outDis="50" oid="319373216" /><Stop Id="5074" routeId="39" nameZh="大里地政事務所" seqNo="10" pgp="0" terminal="0" districtId="1" GoBack="2" latitude="24.11037" longitude="120.68541" inDis="50" outDis="50" oid="319373214" /><Stop Id="5627" routeId="39" nameZh="興大附中(東榮路)" seqNo="11" pgp="0" terminal="0" districtId="1" GoBack="2" latitude="24.10996" longitude="120.68232" inDis="50" outDis="50" oid="319373212" /><Stop Id="1558" routeId="39" nameZh="大里仁愛醫院" seqNo="12" pgp="0" terminal="0" districtId="1" GoBack="2" latitude="24.10856" longitude="120.67995" inDis="50" outDis="50" oid="319373210" /><Stop Id="4294" routeId="39" nameZh="國光德芳路口" seqNo="13" pgp="0" terminal="0" districtId="1" GoBack="2" latitude="24.10524" longitude="120.68094" inDis="50" outDis="50" oid="319373208" /><Stop Id="0508" routeId="39" nameZh="環保公園" seqNo="14" pgp="0" terminal="0" districtId="1" GoBack="2" latitude="24.10405" longitude="120.67825" inDis="50" outDis="50" oid="319373206" /><Stop Id="0506" routeId="39" nameZh="進士公園" seqNo="15" pgp="0" terminal="0" districtId="1" GoBack="2" latitude="24.10246" longitude="120.67555" inDis="50" outDis="50" oid="319373204" /><Stop Id="1364" routeId="39" nameZh="大里農會" seqNo="16" pgp="0" terminal="0" districtId="1" GoBack="2" latitude="24.10101" longitude="120.67659" inDis="50" outDis="50" oid="319373202" /><Stop Id="5218" routeId="39" nameZh="大里國小" seqNo="17" pgp="0" terminal="0" districtId="1" GoBack="2" latitude="24.09958" longitude="120.67705" inDis="50" outDis="50" oid="319373200" /><Stop Id="1360" routeId="39" nameZh="大里" seqNo="18" pgp="0" terminal="0" districtId="1" GoBack="2" latitude="24.09789" longitude="120.67702" inDis="50" outDis="50" oid="319373198" /><Stop Id="1972" routeId="39" nameZh="瓦瑤" seqNo="19" pgp="0" terminal="0" districtId="1" GoBack="2" latitude="24.09756" longitude="120.67328" inDis="50" outDis="50" oid="319373196" /><Stop Id="3788" routeId="39" nameZh="樹王" seqNo="20" pgp="0" terminal="0" districtId="1" GoBack="2" latitude="24.0968" longitude="120.66467" inDis="50" outDis="50" oid="319373194" /><Stop Id="3789" routeId="39" nameZh="德昌社區" seqNo="21" pgp="0" terminal="0" districtId="1" GoBack="2" latitude="24.0961" longitude="120.65912" inDis="50" outDis="50" oid="319376564" /><Stop Id="5225" routeId="39" nameZh="五光五中巷口" seqNo="22" pgp="0" terminal="0" districtId="1" GoBack="2" latitude="24.09525" longitude="120.65522" inDis="50" outDis="50" oid="319373192" /><Stop Id="5226" routeId="39" nameZh="五光里" seqNo="23" pgp="0" terminal="0" districtId="1" GoBack="2" latitude="24.09446" longitude="120.65266" inDis="50" outDis="50" oid="319373189" /><Stop Id="0477" routeId="39" nameZh="五張犁福德宮" seqNo="24" pgp="0" terminal="0" districtId="1" GoBack="2" latitude="24.09382" longitude="120.6508" inDis="50" outDis="50" oid="319373187" /><Stop Id="0476" routeId="39" nameZh="五光環中路口" seqNo="25" pgp="0" terminal="0" districtId="1" GoBack="2" latitude="24.09298" longitude="120.64723" inDis="50" outDis="50" oid="319373186" /><Stop Id="0475" routeId="39" nameZh="五光環河路口" seqNo="26" pgp="0" terminal="0" districtId="1" GoBack="2" latitude="24.09354" longitude="120.64376" inDis="50" outDis="50" oid="319373183" /><Stop Id="0474" routeId="39" nameZh="五光溪南路口" seqNo="27" pgp="0" terminal="0" districtId="1" GoBack="2" latitude="24.09629" longitude="120.63834" inDis="50" outDis="50" oid="319373182" /><Stop Id="0472" routeId="39" nameZh="五光復光五巷口" seqNo="28" pgp="0" terminal="0" districtId="1" GoBack="2" latitude="24.09852" longitude="120.63307" inDis="50" outDis="50" oid="319373180" /><Stop Id="0469" routeId="39" nameZh="五光復光六巷口" seqNo="29" pgp="0" terminal="0" districtId="1" GoBack="2" latitude="24.09983" longitude="120.63098" inDis="50" outDis="50" oid="319373179" /><Stop Id="0040" routeId="39" nameZh="五光公園三街口" seqNo="30" pgp="0" terminal="0" districtId="1" GoBack="2" latitude="24.10287" longitude="120.62813" inDis="50" outDis="50" oid="319373178" /><Stop Id="4340" routeId="39" nameZh="烏日區公所" seqNo="31" pgp="0" terminal="0" districtId="1" GoBack="2" latitude="24.10439" longitude="120.62384" inDis="50" outDis="50" oid="319373176" /><Stop Id="2816" routeId="39" nameZh="烏日" seqNo="32" pgp="0" terminal="0" districtId="1" GoBack="2" latitude="24.1052" longitude="120.6213" inDis="50" outDis="50" oid="319373175" /><Stop Id="2820" routeId="39" nameZh="烏日國中" seqNo="33" pgp="0" terminal="0" districtId="1" GoBack="2" latitude="24.10565" longitude="120.61697" inDis="50" outDis="50" oid="319373172" /><Stop Id="2907" routeId="39" nameZh="高鐵臺中站" seqNo="34" pgp="0" terminal="0" districtId="1" GoBack="2" latitude="24.11094" longitude="120.61629" inDis="50" outDis="50" oid="319373169" /></BusInfo></BusDynInfo>