[
  {
    "type": "Feature",
    "geometry": {
      "type": "Point",
      "coordinates": [
        120.72156,
        24.19578
      ]
    },
    "properties": {
      "id": "3359",
      "name": "慈濟醫院",
      "seq": 1
    }
  },
  {
    "type": "Feature",
    "geometry": {
      "type": "Point",
      "coordinates": [
        120.70781,
        24.20232
      ]
    },
    "properties": {
      "id": "5739",
      "name": "天寶彌勒佛院",
      "seq": 10
    }
  },
  {
    "type": "Feature",
    "geometry": {
      "type": "Point",
      "coordinates": [
        120.70633,
        24.20232
      ]
    },
    "properties": {
      "id": "5740",
      "name": "復興大新路口",
      "seq": 11
    }
  },
  {
    "type": "Feature",
    "geometry": {
      "type": "Point",
      "coordinates": [
        120.70678,
        24.20673
      ]
    },
    "properties": {
      "id": "5741",
      "name": "復興圓通南路口",
      "seq": 12
    }
  },
  {
    "type": "Feature",
    "geometry": {
      "type": "Point",
      "coordinates": [
        120.70522,
        24.20786
      ]
    },
    "properties": {
      "id": "4370",
      "name": "中山圓通南路口",
      "seq": 13
    }
  },
  {
    "type": "Feature",
    "geometry": {
      "type": "Point",
      "coordinates": [
        120.70522,
        24.20949
      ]
    },
    "properties": {
      "id": "3742",
      "name": "潭子區公所",
      "seq": 14
    }
  },
  {
    "type": "Feature",
    "geometry": {
      "type": "Point",
      "coordinates": [
        120.70545,
        24.21254
      ]
    },
    "properties": {
      "id": "4240",
      "name": "潭子火車站",
      "seq": 15
    }
  },
  {
    "type": "Feature",
    "geometry": {
      "type": "Point",
      "coordinates": [
        120.70533,
        24.21456
      ]
    },
    "properties": {
      "id": "3740",
      "name": "潭子",
      "seq": 16
    }
  },
  {
    "type": "Feature",
    "geometry": {
      "type": "Point",
      "coordinates": [
        120.7032,
        24.21601
      ]
    },
    "properties": {
      "id": "4235",
      "name": "雅潭中山路口",
      "seq": 17
    }
  },
  {
    "type": "Feature",
    "geometry": {
      "type": "Point",
      "coordinates": [
        120.69998,
        24.21642
      ]
    },
    "properties": {
      "id": "4242",
      "name": "潭秀國中",
      "seq": 18
    }
  },
  {
    "type": "Feature",
    "geometry": {
      "type": "Point",
      "coordinates": [
        120.69436,
        24.21613
      ]
    },
    "properties": {
      "id": "4222",
      "name": "北基加油站雅潭站",
      "seq": 19
    }
  },
  {
    "type": "Feature",
    "geometry": {
      "type": "Point",
      "coordinates": [
        120.72211,
        24.19937
      ]
    },
    "properties": {
      "id": "1504",
      "name": "中興",
      "seq": 2
    }
  },
  {
    "type": "Feature",
    "geometry": {
      "type": "Point",
      "coordinates": [
        120.69172,
        24.21606
      ]
    },
    "properties": {
      "id": "4303",
      "name": "雅潭大豐路口",
      "seq": 20
    }
  },
  {
    "type": "Feature",
    "geometry": {
      "type": "Point",
      "coordinates": [
        120.6855,
        24.21628
      ]
    },
    "properties": {
      "id": "4938",
      "name": "東寶國小",
      "seq": 21
    }
  },
  {
    "type": "Feature",
    "geometry": {
      "type": "Point",
      "coordinates": [
        120.67961,
        24.21592
      ]
    },
    "properties": {
      "id": "4939",
      "name": "雅潭民族路口",
      "seq": 22
    }
  },
  {
    "type": "Feature",
    "geometry": {
      "type": "Point",
      "coordinates": [
        120.6723,
        24.21579
      ]
    },
    "properties": {
      "id": "5037",
      "name": "西寶里",
      "seq": 23
    }
  },
  {
    "type": "Feature",
    "geometry": {
      "type": "Point",
      "coordinates": [
        120.66859,
        24.21609
      ]
    },
    "properties": {
      "id": "4940",
      "name": "員寶庄福德祠",
      "seq": 24
    }
  },
  {
    "type": "Feature",
    "geometry": {
      "type": "Point",
      "coordinates": [
        120.66671,
        24.21654
      ]
    },
    "properties": {
      "id": "3027",
      "name": "清泉醫院",
      "seq": 25
    }
  },
  {
    "type": "Feature",
    "geometry": {
      "type": "Point",
      "coordinates": [
        120.66488,
        24.21793
      ]
    },
    "properties": {
      "id": "2895",
      "name": "馬岡厝加油站",
      "seq": 26
    }
  },
  {
    "type": "Feature",
    "geometry": {
      "type": "Point",
      "coordinates": [
        120.66092,
        24.21983
      ]
    },
    "properties": {
      "id": "3237",
      "name": "惠明盲校",
      "seq": 27
    }
  },
  {
    "type": "Feature",
    "geometry": {
      "type": "Point",
      "coordinates": [
        120.65843,
        24.22035
      ]
    },
    "properties": {
      "id": "5752",
      "name": "台電大雅服務所",
      "seq": 28
    }
  },
  {
    "type": "Feature",
    "geometry": {
      "type": "Point",
      "coordinates": [
        120.6569,
        24.22074
      ]
    },
    "properties": {
      "id": "2943",
      "name": "國際花市",
      "seq": 29
    }
  },
  {
    "type": "Feature",
    "geometry": {
      "type": "Point",
      "coordinates": [
        120.72268,
        24.20331
      ]
    },
    "properties": {
      "id": "3432",
      "name": "新興",
      "seq": 3
    }
  },
  {
    "type": "Feature",
    "geometry": {
      "type": "Point",
      "coordinates": [
        120.65314,
        24.22133
      ]
    },
    "properties": {
      "id": "5875",
      "name": "雅潭雅環路口",
      "seq": 30
    }
  },
  {
    "type": "Feature",
    "geometry": {
      "type": "Point",
      "coordinates": [
        120.6505,
        24.22172
      ]
    },
    "properties": {
      "id": "4944",
      "name": "大雅國小",
      "seq": 31
    }
  },
  {
    "type": "Feature",
    "geometry": {
      "type": "Point",
      "coordinates": [
        120.64794,
        24.22353
      ]
    },
    "properties": {
      "id": "1346",
      "name": "大雅",
      "seq": 32
    }
  },
  {
    "type": "Feature",
    "geometry": {
      "type": "Point",
      "coordinates": [
        120.6468,
        24.22493
      ]
    },
    "properties": {
      "id": "1620",
      "name": "大雅分駐所",
      "seq": 33
    }
  },
  {
    "type": "Feature",
    "geometry": {
      "type": "Point",
      "coordinates": [
        120.64448,
        24.22715
      ]
    },
    "properties": {
      "id": "5423",
      "name": "大雅澄清醫院",
      "seq": 34
    }
  },
  {
    "type": "Feature",
    "geometry": {
      "type": "Point",
      "coordinates": [
        120.64289,
        24.22881
      ]
    },
    "properties": {
      "id": "4651",
      "name": "大明國小(中清路)",
      "seq": 35
    }
  },
  {
    "type": "Feature",
    "geometry": {
      "type": "Point",
      "coordinates": [
        120.64125,
        24.23042
      ]
    },
    "properties": {
      "id": "2253",
      "name": "秀山里",
      "seq": 36
    }
  },
  {
    "type": "Feature",
    "geometry": {
      "type": "Point",
      "coordinates": [
        120.63829,
        24.2333
      ]
    },
    "properties": {
      "id": "2798",
      "name": "泰聯公司",
      "seq": 37
    }
  },
  {
    "type": "Feature",
    "geometry": {
      "type": "Point",
      "coordinates": [
        120.63498,
        24.23653
      ]
    },
    "properties": {
      "id": "1593",
      "name": "六寶里",
      "seq": 38
    }
  },
  {
    "type": "Feature",
    "geometry": {
      "type": "Point",
      "coordinates": [
        120.63235,
        24.23908
      ]
    },
    "properties": {
      "id": "2289",
      "name": "亞東公司",
      "seq": 39
    }
  },
  {
    "type": "Feature",
    "geometry": {
      "type": "Point",
      "coordinates": [
        120.72016,
        24.20424
      ]
    },
    "properties": {
      "id": "5745",
      "name": "翔仁社區",
      "seq": 4
    }
  },
  {
    "type": "Feature",
    "geometry": {
      "type": "Point",
      "coordinates": [
        120.63095,
        24.24016
      ]
    },
    "properties": {
      "id": "1591",
      "name": "六張犁",
      "seq": 40
    }
  },
  {
    "type": "Feature",
    "geometry": {
      "type": "Point",
      "coordinates": [
        120.62667,
        24.24248
      ]
    },
    "properties": {
      "id": "3663",
      "name": "福樂新城",
      "seq": 41
    }
  },
  {
    "type": "Feature",
    "geometry": {
      "type": "Point",
      "coordinates": [
        120.62045,
        24.24252
      ]
    },
    "properties": {
      "id": "4669",
      "name": "中清信義路口",
      "seq": 42
    }
  },
  {
    "type": "Feature",
    "geometry": {
      "type": "Point",
      "coordinates": [
        120.61757,
        24.24338
      ]
    },
    "properties": {
      "id": "4960",
      "name": "中清清泉路口",
      "seq": 43
    }
  },
  {
    "type": "Feature",
    "geometry": {
      "type": "Point",
      "coordinates": [
        120.61475,
        24.24423
      ]
    },
    "properties": {
      "id": "3023",
      "name": "清泉里",
      "seq": 44
    }
  },
  {
    "type": "Feature",
    "geometry": {
      "type": "Point",
      "coordinates": [
        120.61054,
        24.2456
      ]
    },
    "properties": {
      "id": "0169",
      "name": "清泉派出所",
      "seq": 45
    }
  },
  {
    "type": "Feature",
    "geometry": {
      "type": "Point",
      "coordinates": [
        120.60825,
        24.2465
      ]
    },
    "properties": {
      "id": "1604",
      "name": "公明里",
      "seq": 46
    }
  },
  {
    "type": "Feature",
    "geometry": {
      "type": "Point",
      "coordinates": [
        120.60567,
        24.24767
      ]
    },
    "properties": {
      "id": "3738",
      "name": "樂群二村",
      "seq": 47
    }
  },
  {
    "type": "Feature",
    "geometry": {
      "type": "Point",
      "coordinates": [
        120.60171,
        24.24946
      ]
    },
    "properties": {
      "id": "1556",
      "name": "中清仁愛巷口",
      "seq": 48
    }
  },
  {
    "type": "Feature",
    "geometry": {
      "type": "Point",
      "coordinates": [
        120.60099,
        24.2498
      ]
    },
    "properties": {
      "id": "4713",
      "name": "公明國中",
      "seq": 49
    }
  },
  {
    "type": "Feature",
    "geometry": {
      "type": "Point",
      "coordinates": [
        120.71791,
        24.20411
      ]
    },
    "properties": {
      "id": "5620",
      "name": "聚興福德祠",
      "seq": 5
    }
  },
  {
    "type": "Feature",
    "geometry": {
      "type": "Point",
      "coordinates": [
        120.59816,
        24.25189
      ]
    },
    "properties": {
      "id": "4982",
      "name": "漢翔複材中心",
      "seq": 50
    }
  },
  {
    "type": "Feature",
    "geometry": {
      "type": "Point",
      "coordinates": [
        120.59888,
        24.25313
      ]
    },
    "properties": {
      "id": "0135",
      "name": "臺中航空站",
      "seq": 51
    }
  },
  {
    "type": "Feature",
    "geometry": {
      "type": "Point",
      "coordinates": [
        120.60008,
        24.25557
      ]
    },
    "properties": {
      "id": "5381",
      "name": "西勢十巷口",
      "seq": 52
    }
  },
  {
    "type": "Feature",
    "geometry": {
      "type": "Point",
      "coordinates": [
        120.60142,
        24.25854
      ]
    },
    "properties": {
      "id": "5662",
      "name": "中航和睦路口",
      "seq": 53
    }
  },
  {
    "type": "Feature",
    "geometry": {
      "type": "Point",
      "coordinates": [
        120.59842,
        24.25987
      ]
    },
    "properties": {
      "id": "4101",
      "name": "西勢里",
      "seq": 54
    }
  },
  {
    "type": "Feature",
    "geometry": {
      "type": "Point",
      "coordinates": [
        120.59545,
        24.26088
      ]
    },
    "properties": {
      "id": "4083",
      "name": "公館國小",
      "seq": 55
    }
  },
  {
    "type": "Feature",
    "geometry": {
      "type": "Point",
      "coordinates": [
        120.58794,
        24.26415
      ]
    },
    "properties": {
      "id": "5033",
      "name": "國仕加油站",
      "seq": 56
    }
  },
  {
    "type": "Feature",
    "geometry": {
      "type": "Point",
      "coordinates": [
        120.58274,
        24.26613
      ]
    },
    "properties": {
      "id": "4137",
      "name": "嘉陽高中",
      "seq": 57
    }
  },
  {
    "type": "Feature",
    "geometry": {
      "type": "Point",
      "coordinates": [
        120.57484,
        24.26623
      ]
    },
    "properties": {
      "id": "5568",
      "name": "清水高中(學園街)",
      "seq": 58
    }
  },
  {
    "type": "Feature",
    "geometry": {
      "type": "Point",
      "coordinates": [
        120.57509,
        24.26792
      ]
    },
    "properties": {
      "id": "5141",
      "name": "華南銀行(清水分行)",
      "seq": 59
    }
  },
  {
    "type": "Feature",
    "geometry": {
      "type": "Point",
      "coordinates": [
        120.71354,
        24.20533
      ]
    },
    "properties": {
      "id": "5761",
      "name": "久豪社區",
      "seq": 6
    }
  },
  {
    "type": "Feature",
    "geometry": {
      "type": "Point",
      "coordinates": [
        120.57521,
        24.26918
      ]
    },
    "properties": {
      "id": "1615",
      "name": "分局前",
      "seq": 60
    }
  },
  {
    "type": "Feature",
    "geometry": {
      "type": "Point",
      "coordinates": [
        120.57017,
        24.2693
      ]
    },
    "properties": {
      "id": "5655",
      "name": "鰲峰西社路口",
      "seq": 61
    }
  },
  {
    "type": "Feature",
    "geometry": {
      "type": "Point",
      "coordinates": [
        120.56825,
        24.26844
      ]
    },
    "properties": {
      "id": "2486",
      "name": "社口",
      "seq": 62
    }
  },
  {
    "type": "Feature",
    "geometry": {
      "type": "Point",
      "coordinates": [
        120.56468,
        24.26832
      ]
    },
    "properties": {
      "id": "3700",
      "name": "銀聯二村",
      "seq": 63
    }
  },
  {
    "type": "Feature",
    "geometry": {
      "type": "Point",
      "coordinates": [
        120.56312,
        24.2679
      ]
    },
    "properties": {
      "id": "3017",
      "name": "清水國中",
      "seq": 64
    }
  },
  {
    "type": "Feature",
    "geometry": {
      "type": "Point",
      "coordinates": [
        120.55989,
        24.26878
      ]
    },
    "properties": {
      "id": "5723",
      "name": "清水區公所(鎮政路)",
      "seq": 65
    }
  },
  {
    "type": "Feature",
    "geometry": {
      "type": "Point",
      "coordinates": [
        120.55902,
        24.27038
      ]
    },
    "properties": {
      "id": "4904",
      "name": "港區藝術中心(中社路)",
      "seq": 66
    }
  },
  {
    "type": "Feature",
    "geometry": {
      "type": "Point",
      "coordinates": [
        120.55688,
        24.27205
      ]
    },
    "properties": {
      "id": "4891",
      "name": "秀水里",
      "seq": 67
    }
  },
  {
    "type": "Feature",
    "geometry": {
      "type": "Point",
      "coordinates": [
        120.55439,
        24.27284
      ]
    },
    "properties": {
      "id": "0000",
      "name": "首園",
      "seq": 68
    }
  },
  {
    "type": "Feature",
    "geometry": {
      "type": "Point",
      "coordinates": [
        120.5514,
        24.27393
      ]
    },
    "properties": {
      "id": "5719",
      "name": "武鹿里",
      "seq": 69
    }
  },
  {
    "type": "Feature",
    "geometry": {
      "type": "Point",
      "coordinates": [
        120.71068,
        24.20769
      ]
    },
    "properties": {
      "id": "5623",
      "name": "潭興新興路口",
      "seq": 7
    }
  },
  {
    "type": "Feature",
    "geometry": {
      "type": "Point",
      "coordinates": [
        120.54929,
        24.27473
      ]
    },
    "properties": {
      "id": "0300",
      "name": "甲桂林社區",
      "seq": 70
    }
  },
  {
    "type": "Feature",
    "geometry": {
      "type": "Point",
      "coordinates": [
        120.54865,
        24.27925
      ]
    },
    "properties": {
      "id": "0301",
      "name": "港埠中清路口",
      "seq": 71
    }
  },
  {
    "type": "Feature",
    "geometry": {
      "type": "Point",
      "coordinates": [
        120.54845,
        24.28245
      ]
    },
    "properties": {
      "id": "6031",
      "name": "漁港港埠路口",
      "seq": 72
    }
  },
  {
    "type": "Feature",
    "geometry": {
      "type": "Point",
      "coordinates": [
        120.54556,
        24.28552
      ]
    },
    "properties": {
      "id": "3143",
      "name": "頂海濱里",
      "seq": 73
    }
  },
  {
    "type": "Feature",
    "geometry": {
      "type": "Point",
      "coordinates": [
        120.54428,
        24.28662
      ]
    },
    "properties": {
      "id": "2812",
      "name": "海濱里",
      "seq": 74
    }
  },
  {
    "type": "Feature",
    "geometry": {
      "type": "Point",
      "coordinates": [
        120.53888,
        24.28964
      ]
    },
    "properties": {
      "id": "5063",
      "name": "臺中港北堤",
      "seq": 75
    }
  },
  {
    "type": "Feature",
    "geometry": {
      "type": "Point",
      "coordinates": [
        120.52187,
        24.29393
      ]
    },
    "properties": {
      "id": "4394",
      "name": "梧棲觀光漁港",
      "seq": 76
    }
  },
  {
    "type": "Feature",
    "geometry": {
      "type": "Point",
      "coordinates": [
        120.70985,
        24.20509
      ]
    },
    "properties": {
      "id": "5830",
      "name": "福仁",
      "seq": 8
    }
  },
  {
    "type": "Feature",
    "geometry": {
      "type": "Point",
      "coordinates": [
        120.7095,
        24.20293
      ]
    },
    "properties": {
      "id": "5738",
      "name": "保安寺",
      "seq": 9
    }
  }
]
