<?xml version="1.0" encoding="UTF-8" standalone="yes"?>
<BusDynInfo><EssentialInfo><Location><name>TCBUS</name><CenterName>Maxwin</CenterName></Location><UpdateTime>2014-12-20 08:25:02</UpdateTime><CoordinateSystem/></EssentialInfo>
<BusInfo><Stop Id="2428" routeId="252" nameZh="東勢" seqNo="1" pgp="0" terminal="0" districtId="1" GoBack="1" latitude="24.25838" longitude="120.82784" inDis="50" outDis="80" oid="5899" /><Stop Id="2570" routeId="252" nameZh="南平里" seqNo="2" pgp="0" terminal="0" districtId="1" GoBack="1" latitude="24.25518" longitude="120.82924" inDis="50" outDis="50" oid="8023" /><Stop Id="1415" routeId="252" nameZh="中嵙口" seqNo="3" pgp="0" terminal="0" districtId="1" GoBack="1" latitude="24.25259" longitude="120.82984" inDis="50" outDis="50" oid="7930" /><Stop Id="4409" routeId="252" nameZh="東勢南站" seqNo="4" pgp="0" terminal="0" districtId="1" GoBack="1" latitude="24.24976" longitude="120.83065" inDis="50" outDis="80" oid="8005" /><Stop Id="2002" routeId="252" nameZh="石角口" seqNo="5" pgp="0" terminal="0" districtId="1" GoBack="1" latitude="24.24723" longitude="120.83282" inDis="50" outDis="50" oid="5655" /><Stop Id="4524" routeId="252" nameZh="東坑豐勢路口" seqNo="6" pgp="0" terminal="0" districtId="1" GoBack="1" latitude="24.24749" longitude="120.8321" inDis="50" outDis="50" oid="305529400" /><Stop Id="1339" routeId="252" nameZh="大雪山後門" seqNo="7" pgp="0" terminal="0" districtId="1" GoBack="1" latitude="24.24493" longitude="120.83707" inDis="50" outDis="50" oid="5258" /><Stop Id="2921" routeId="252" nameZh="高簡" seqNo="8" pgp="0" terminal="0" districtId="1" GoBack="1" latitude="24.24496" longitude="120.84068" inDis="50" outDis="50" oid="6174" /><Stop Id="1242" routeId="252" nameZh="上高簡" seqNo="9" pgp="0" terminal="0" districtId="1" GoBack="1" latitude="24.24493" longitude="120.84251" inDis="50" outDis="50" oid="5186" /><Stop Id="2217" routeId="252" nameZh="伯公下" seqNo="10" pgp="0" terminal="0" districtId="1" GoBack="1" latitude="24.2429" longitude="120.84601" inDis="50" outDis="50" oid="5774" /><Stop Id="1816" routeId="252" nameZh="古靈堂" seqNo="11" pgp="0" terminal="0" districtId="1" GoBack="1" latitude="24.24109" longitude="120.8479" inDis="50" outDis="50" oid="5542" /><Stop Id="2001" routeId="252" nameZh="石角" seqNo="12" pgp="0" terminal="0" districtId="1" GoBack="1" latitude="24.24041" longitude="120.85013" inDis="50" outDis="50" oid="5653" /><Stop Id="2003" routeId="252" nameZh="石角國小" seqNo="13" pgp="0" terminal="0" districtId="1" GoBack="1" latitude="24.23887" longitude="120.85152" inDis="50" outDis="50" oid="5656" /><Stop Id="1227" routeId="252" nameZh="上石角" seqNo="14" pgp="0" terminal="0" districtId="1" GoBack="1" latitude="24.23618" longitude="120.85426" inDis="50" outDis="50" oid="5175" /><Stop Id="3312" routeId="252" nameZh="雲仙洞" seqNo="15" pgp="0" terminal="0" districtId="1" GoBack="1" latitude="24.23723" longitude="120.86117" inDis="50" outDis="50" oid="6385" /><Stop Id="2018" routeId="252" nameZh="石橋頭前" seqNo="16" pgp="0" terminal="0" districtId="1" GoBack="1" latitude="24.23974" longitude="120.86353" inDis="50" outDis="50" oid="5667" /><Stop Id="2324" routeId="252" nameZh="坪埔" seqNo="17" pgp="0" terminal="0" districtId="1" GoBack="1" latitude="24.241" longitude="120.86816" inDis="50" outDis="50" oid="5843" /><Stop Id="3881" routeId="252" nameZh="檢查站" seqNo="18" pgp="0" terminal="0" districtId="1" GoBack="1" latitude="24.24027" longitude="120.87327" inDis="50" outDis="50" oid="6666" /><Stop Id="3449" routeId="252" nameZh="楊桃樹腳" seqNo="19" pgp="0" terminal="0" districtId="1" GoBack="1" latitude="24.23691" longitude="120.87836" inDis="50" outDis="50" oid="6467" /><Stop Id="5211" routeId="252" nameZh="下楊桃樹腳" seqNo="20" pgp="0" terminal="0" districtId="1" GoBack="1" latitude="24.23398" longitude="120.87783" inDis="50" outDis="50" oid="310787728" /><Stop Id="5213" routeId="252" nameZh="上小南坑" seqNo="21" pgp="0" terminal="0" districtId="1" GoBack="1" latitude="24.22969" longitude="120.87886" inDis="50" outDis="50" oid="310787732" /><Stop Id="1384" routeId="252" nameZh="小南坑" seqNo="22" pgp="0" terminal="0" districtId="1" GoBack="1" latitude="24.22751" longitude="120.8789" inDis="50" outDis="50" oid="5285" /><Stop Id="0985" routeId="252" nameZh="七公里" seqNo="23" pgp="0" terminal="0" districtId="1" GoBack="1" latitude="24.22394" longitude="120.87817" inDis="50" outDis="50" oid="311159722" /><Stop Id="1018" routeId="252" nameZh="八公里" seqNo="24" pgp="0" terminal="0" districtId="1" GoBack="1" latitude="24.21904" longitude="120.87944" inDis="50" outDis="50" oid="5041" /><Stop Id="1319" routeId="252" nameZh="大南坑" seqNo="25" pgp="0" terminal="0" districtId="1" GoBack="1" latitude="24.21422" longitude="120.88277" inDis="50" outDis="50" oid="5240" /><Stop Id="5202" routeId="252" nameZh="九公里" seqNo="26" pgp="0" terminal="0" districtId="1" GoBack="1" latitude="24.21512" longitude="120.88412" inDis="50" outDis="50" oid="310787710" /><Stop Id="1038" routeId="252" nameZh="十公里" seqNo="27" pgp="0" terminal="0" districtId="1" GoBack="1" latitude="24.21784" longitude="120.88903" inDis="50" outDis="50" oid="5052" /><Stop Id="1027" routeId="252" nameZh="十一公里" seqNo="28" pgp="0" terminal="0" districtId="1" GoBack="1" latitude="24.2206" longitude="120.88739" inDis="50" outDis="50" oid="5047" /><Stop Id="1029" routeId="252" nameZh="十二公里" seqNo="29" pgp="0" terminal="0" districtId="1" GoBack="1" latitude="24.22085" longitude="120.89415" inDis="50" outDis="50" oid="5048" /><Stop Id="1032" routeId="252" nameZh="十三公里" seqNo="30" pgp="0" terminal="0" districtId="1" GoBack="1" latitude="24.22576" longitude="120.8959" inDis="50" outDis="50" oid="5050" /><Stop Id="1042" routeId="252" nameZh="十四公里" seqNo="31" pgp="0" terminal="0" districtId="1" GoBack="1" latitude="24.23267" longitude="120.90027" inDis="50" outDis="50" oid="5055" /><Stop Id="5302" routeId="252" nameZh="十五公里" seqNo="32" pgp="0" terminal="0" districtId="1" GoBack="1" latitude="24.23924" longitude="120.90688" inDis="50" outDis="50" oid="311033709" /><Stop Id="3783" routeId="252" nameZh="橫流溪" seqNo="33" pgp="0" terminal="0" districtId="1" GoBack="1" latitude="24.24073" longitude="120.90703" inDis="50" outDis="50" oid="6623" /><Stop Id="3535" routeId="252" nameZh="遊客中心" seqNo="34" pgp="0" terminal="0" districtId="1" GoBack="1" latitude="24.25623" longitude="121.00787" inDis="50" outDis="50" oid="6506" /><Stop Id="5219" routeId="252" nameZh="大雪山森林遊樂區" seqNo="35" pgp="0" terminal="0" districtId="1" GoBack="1" latitude="24.28251" longitude="121.02873" inDis="50" outDis="50" oid="310787744" /><Stop Id="5219" routeId="252" nameZh="大雪山森林遊樂區" seqNo="1" pgp="0" terminal="0" districtId="1" GoBack="2" latitude="24.28251" longitude="121.02873" inDis="50" outDis="50" oid="310787744" /><Stop Id="3535" routeId="252" nameZh="遊客中心" seqNo="2" pgp="0" terminal="0" districtId="1" GoBack="2" latitude="24.25623" longitude="121.00787" inDis="50" outDis="50" oid="6506" /><Stop Id="3783" routeId="252" nameZh="橫流溪" seqNo="3" pgp="0" terminal="0" districtId="1" GoBack="2" latitude="24.24073" longitude="120.90703" inDis="50" outDis="50" oid="6623" /><Stop Id="5302" routeId="252" nameZh="十五公里" seqNo="4" pgp="0" terminal="0" districtId="1" GoBack="2" latitude="24.23924" longitude="120.90688" inDis="50" outDis="50" oid="311033709" /><Stop Id="1042" routeId="252" nameZh="十四公里" seqNo="5" pgp="0" terminal="0" districtId="1" GoBack="2" latitude="24.23267" longitude="120.90027" inDis="50" outDis="50" oid="5055" /><Stop Id="1032" routeId="252" nameZh="十三公里" seqNo="6" pgp="0" terminal="0" districtId="1" GoBack="2" latitude="24.22576" longitude="120.8959" inDis="50" outDis="50" oid="5050" /><Stop Id="1029" routeId="252" nameZh="十二公里" seqNo="7" pgp="0" terminal="0" districtId="1" GoBack="2" latitude="24.22085" longitude="120.89415" inDis="50" outDis="50" oid="5048" /><Stop Id="1027" routeId="252" nameZh="十一公里" seqNo="8" pgp="0" terminal="0" districtId="1" GoBack="2" latitude="24.2206" longitude="120.88739" inDis="50" outDis="50" oid="5047" /><Stop Id="1038" routeId="252" nameZh="十公里" seqNo="9" pgp="0" terminal="0" districtId="1" GoBack="2" latitude="24.21784" longitude="120.88903" inDis="50" outDis="50" oid="5052" /><Stop Id="5202" routeId="252" nameZh="九公里" seqNo="10" pgp="0" terminal="0" districtId="1" GoBack="2" latitude="24.21512" longitude="120.88412" inDis="50" outDis="50" oid="310787710" /><Stop Id="1319" routeId="252" nameZh="大南坑" seqNo="11" pgp="0" terminal="0" districtId="1" GoBack="2" latitude="24.21422" longitude="120.88277" inDis="50" outDis="50" oid="5240" /><Stop Id="1018" routeId="252" nameZh="八公里" seqNo="12" pgp="0" terminal="0" districtId="1" GoBack="2" latitude="24.21904" longitude="120.87944" inDis="50" outDis="50" oid="5041" /><Stop Id="0985" routeId="252" nameZh="七公里" seqNo="13" pgp="0" terminal="0" districtId="1" GoBack="2" latitude="24.22394" longitude="120.87817" inDis="50" outDis="50" oid="311159722" /><Stop Id="1384" routeId="252" nameZh="小南坑" seqNo="14" pgp="0" terminal="0" districtId="1" GoBack="2" latitude="24.22751" longitude="120.8789" inDis="50" outDis="50" oid="5285" /><Stop Id="5213" routeId="252" nameZh="上小南坑" seqNo="15" pgp="0" terminal="0" districtId="1" GoBack="2" latitude="24.22969" longitude="120.87886" inDis="50" outDis="50" oid="310787732" /><Stop Id="5211" routeId="252" nameZh="下楊桃樹腳" seqNo="16" pgp="0" terminal="0" districtId="1" GoBack="2" latitude="24.23398" longitude="120.87783" inDis="50" outDis="50" oid="310787728" /><Stop Id="3449" routeId="252" nameZh="楊桃樹腳" seqNo="17" pgp="0" terminal="0" districtId="1" GoBack="2" latitude="24.23691" longitude="120.87836" inDis="50" outDis="50" oid="6467" /><Stop Id="3881" routeId="252" nameZh="檢查站" seqNo="18" pgp="0" terminal="0" districtId="1" GoBack="2" latitude="24.24027" longitude="120.87327" inDis="50" outDis="50" oid="6666" /><Stop Id="2324" routeId="252" nameZh="坪埔" seqNo="19" pgp="0" terminal="0" districtId="1" GoBack="2" latitude="24.241" longitude="120.86816" inDis="50" outDis="50" oid="5843" /><Stop Id="2018" routeId="252" nameZh="石橋頭前" seqNo="20" pgp="0" terminal="0" districtId="1" GoBack="2" latitude="24.23974" longitude="120.86353" inDis="50" outDis="50" oid="5667" /><Stop Id="3312" routeId="252" nameZh="雲仙洞" seqNo="21" pgp="0" terminal="0" districtId="1" GoBack="2" latitude="24.23723" longitude="120.86117" inDis="50" outDis="50" oid="6385" /><Stop Id="1227" routeId="252" nameZh="上石角" seqNo="22" pgp="0" terminal="0" districtId="1" GoBack="2" latitude="24.23618" longitude="120.85426" inDis="50" outDis="50" oid="5175" /><Stop Id="2003" routeId="252" nameZh="石角國小" seqNo="23" pgp="0" terminal="0" districtId="1" GoBack="2" latitude="24.23887" longitude="120.85152" inDis="50" outDis="50" oid="5656" /><Stop Id="2001" routeId="252" nameZh="石角" seqNo="24" pgp="0" terminal="0" districtId="1" GoBack="2" latitude="24.24041" longitude="120.85013" inDis="50" outDis="50" oid="5653" /><Stop Id="1816" routeId="252" nameZh="古靈堂" seqNo="25" pgp="0" terminal="0" districtId="1" GoBack="2" latitude="24.24109" longitude="120.8479" inDis="50" outDis="50" oid="5542" /><Stop Id="2217" routeId="252" nameZh="伯公下" seqNo="26" pgp="0" terminal="0" districtId="1" GoBack="2" latitude="24.2429" longitude="120.84601" inDis="50" outDis="50" oid="5774" /><Stop Id="1242" routeId="252" nameZh="上高簡" seqNo="27" pgp="0" terminal="0" districtId="1" GoBack="2" latitude="24.24493" longitude="120.84251" inDis="50" outDis="50" oid="5186" /><Stop Id="2921" routeId="252" nameZh="高簡" seqNo="28" pgp="0" terminal="0" districtId="1" GoBack="2" latitude="24.24496" longitude="120.84068" inDis="50" outDis="50" oid="6174" /><Stop Id="1339" routeId="252" nameZh="大雪山後門" seqNo="29" pgp="0" terminal="0" districtId="1" GoBack="2" latitude="24.24493" longitude="120.83707" inDis="50" outDis="50" oid="5258" /><Stop Id="4524" routeId="252" nameZh="東坑豐勢路口" seqNo="30" pgp="0" terminal="0" districtId="1" GoBack="2" latitude="24.24749" longitude="120.8321" inDis="50" outDis="50" oid="305529400" /><Stop Id="2002" routeId="252" nameZh="石角口" seqNo="31" pgp="0" terminal="0" districtId="1" GoBack="2" latitude="24.24723" longitude="120.83282" inDis="50" outDis="50" oid="5655" /><Stop Id="4409" routeId="252" nameZh="東勢南站" seqNo="32" pgp="0" terminal="0" districtId="1" GoBack="2" latitude="24.24976" longitude="120.83065" inDis="50" outDis="80" oid="8005" /><Stop Id="1415" routeId="252" nameZh="中嵙口" seqNo="33" pgp="0" terminal="0" districtId="1" GoBack="2" latitude="24.25259" longitude="120.82984" inDis="50" outDis="50" oid="7930" /><Stop Id="2570" routeId="252" nameZh="南平里" seqNo="34" pgp="0" terminal="0" districtId="1" GoBack="2" latitude="24.25518" longitude="120.82924" inDis="50" outDis="50" oid="8023" /><Stop Id="2428" routeId="252" nameZh="東勢" seqNo="35" pgp="0" terminal="0" districtId="1" GoBack="2" latitude="24.25838" longitude="120.82784" inDis="50" outDis="80" oid="5899" /></BusInfo></BusDynInfo>