[
  {
    "type": "Feature",
    "geometry": {
      "type": "Point",
      "coordinates": [
        120.82862,
        24.25742
      ]
    },
    "properties": {
      "id": "2428",
      "name": "東勢",
      "seq": 1
    }
  },
  {
    "type": "Feature",
    "geometry": {
      "type": "Point",
      "coordinates": [
        120.80698,
        24.25547
      ]
    },
    "properties": {
      "id": "1394",
      "name": "山頂",
      "seq": 10
    }
  },
  {
    "type": "Feature",
    "geometry": {
      "type": "Point",
      "coordinates": [
        120.80775,
        24.25339
      ]
    },
    "properties": {
      "id": "3557",
      "name": "電信局前",
      "seq": 11
    }
  },
  {
    "type": "Feature",
    "geometry": {
      "type": "Point",
      "coordinates": [
        120.80893,
        24.25027
      ]
    },
    "properties": {
      "id": "1438",
      "name": "中正里",
      "seq": 12
    }
  },
  {
    "type": "Feature",
    "geometry": {
      "type": "Point",
      "coordinates": [
        120.80868,
        24.24772
      ]
    },
    "properties": {
      "id": "0011",
      "name": "郵局",
      "seq": 13
    }
  },
  {
    "type": "Feature",
    "geometry": {
      "type": "Point",
      "coordinates": [
        120.80832,
        24.24638
      ]
    },
    "properties": {
      "id": "1199",
      "name": "下新社",
      "seq": 14
    }
  },
  {
    "type": "Feature",
    "geometry": {
      "type": "Point",
      "coordinates": [
        120.80835,
        24.24458
      ]
    },
    "properties": {
      "id": "3398",
      "name": "新社",
      "seq": 15
    }
  },
  {
    "type": "Feature",
    "geometry": {
      "type": "Point",
      "coordinates": [
        120.80769,
        24.24262
      ]
    },
    "properties": {
      "id": "3162",
      "name": "頂新社",
      "seq": 16
    }
  },
  {
    "type": "Feature",
    "geometry": {
      "type": "Point",
      "coordinates": [
        120.80658,
        24.23922
      ]
    },
    "properties": {
      "id": "3400",
      "name": "新社高中",
      "seq": 17
    }
  },
  {
    "type": "Feature",
    "geometry": {
      "type": "Point",
      "coordinates": [
        120.8057,
        24.23711
      ]
    },
    "properties": {
      "id": "5707",
      "name": "擺頭店",
      "seq": 18
    }
  },
  {
    "type": "Feature",
    "geometry": {
      "type": "Point",
      "coordinates": [
        120.80451,
        24.23582
      ]
    },
    "properties": {
      "id": "5705",
      "name": "復盛橋",
      "seq": 19
    }
  },
  {
    "type": "Feature",
    "geometry": {
      "type": "Point",
      "coordinates": [
        120.8272,
        24.26098
      ]
    },
    "properties": {
      "id": "4500",
      "name": "東勢老人會館",
      "seq": 2
    }
  },
  {
    "type": "Feature",
    "geometry": {
      "type": "Point",
      "coordinates": [
        120.80339,
        24.2302
      ]
    },
    "properties": {
      "id": "3679",
      "name": "種苗繁殖場",
      "seq": 20
    }
  },
  {
    "type": "Feature",
    "geometry": {
      "type": "Point",
      "coordinates": [
        120.79961,
        24.22922
      ]
    },
    "properties": {
      "id": "1318",
      "name": "大南",
      "seq": 21
    }
  },
  {
    "type": "Feature",
    "geometry": {
      "type": "Point",
      "coordinates": [
        120.79874,
        24.22815
      ]
    },
    "properties": {
      "id": "2356",
      "name": "內觀中心",
      "seq": 22
    }
  },
  {
    "type": "Feature",
    "geometry": {
      "type": "Point",
      "coordinates": [
        120.79749,
        24.22637
      ]
    },
    "properties": {
      "id": "3586",
      "name": "廖厝",
      "seq": 23
    }
  },
  {
    "type": "Feature",
    "geometry": {
      "type": "Point",
      "coordinates": [
        120.79585,
        24.22431
      ]
    },
    "properties": {
      "id": "1720",
      "name": "水頭",
      "seq": 24
    }
  },
  {
    "type": "Feature",
    "geometry": {
      "type": "Point",
      "coordinates": [
        120.79363,
        24.22204
      ]
    },
    "properties": {
      "id": "2940",
      "name": "國隆社區",
      "seq": 25
    }
  },
  {
    "type": "Feature",
    "geometry": {
      "type": "Point",
      "coordinates": [
        120.7931,
        24.22078
      ]
    },
    "properties": {
      "id": "2892",
      "name": "馬力埔",
      "seq": 26
    }
  },
  {
    "type": "Feature",
    "geometry": {
      "type": "Point",
      "coordinates": [
        120.79235,
        24.219
      ]
    },
    "properties": {
      "id": "2675",
      "name": "活動中心",
      "seq": 27
    }
  },
  {
    "type": "Feature",
    "geometry": {
      "type": "Point",
      "coordinates": [
        120.79421,
        24.21843
      ]
    },
    "properties": {
      "id": "2987",
      "name": "教堂前",
      "seq": 28
    }
  },
  {
    "type": "Feature",
    "geometry": {
      "type": "Point",
      "coordinates": [
        120.79603,
        24.21791
      ]
    },
    "properties": {
      "id": "3363",
      "name": "新二村",
      "seq": 29
    }
  },
  {
    "type": "Feature",
    "geometry": {
      "type": "Point",
      "coordinates": [
        120.82676,
        24.26256
      ]
    },
    "properties": {
      "id": "2434",
      "name": "東新國中",
      "seq": 3
    }
  },
  {
    "type": "Feature",
    "geometry": {
      "type": "Point",
      "coordinates": [
        120.79593,
        24.21429
      ]
    },
    "properties": {
      "id": "3082",
      "name": "陳厝",
      "seq": 30
    }
  },
  {
    "type": "Feature",
    "geometry": {
      "type": "Point",
      "coordinates": [
        120.79583,
        24.21127
      ]
    },
    "properties": {
      "id": "1123",
      "name": "下中興嶺",
      "seq": 31
    }
  },
  {
    "type": "Feature",
    "geometry": {
      "type": "Point",
      "coordinates": [
        120.79445,
        24.2075
      ]
    },
    "properties": {
      "id": "3885",
      "name": "營區前",
      "seq": 32
    }
  },
  {
    "type": "Feature",
    "geometry": {
      "type": "Point",
      "coordinates": [
        120.79406,
        24.20579
      ]
    },
    "properties": {
      "id": "0437",
      "name": "中興嶺",
      "seq": 33
    }
  },
  {
    "type": "Feature",
    "geometry": {
      "type": "Point",
      "coordinates": [
        120.79725,
        24.20328
      ]
    },
    "properties": {
      "id": "1224",
      "name": "上中興嶺",
      "seq": 34
    }
  },
  {
    "type": "Feature",
    "geometry": {
      "type": "Point",
      "coordinates": [
        120.80023,
        24.19925
      ]
    },
    "properties": {
      "id": "3825",
      "name": "頭嵙口",
      "seq": 35
    }
  },
  {
    "type": "Feature",
    "geometry": {
      "type": "Point",
      "coordinates": [
        120.80283,
        24.19719
      ]
    },
    "properties": {
      "id": "1849",
      "name": "四村口",
      "seq": 36
    }
  },
  {
    "type": "Feature",
    "geometry": {
      "type": "Point",
      "coordinates": [
        120.80492,
        24.19549
      ]
    },
    "properties": {
      "id": "3372",
      "name": "新四村",
      "seq": 37
    }
  },
  {
    "type": "Feature",
    "geometry": {
      "type": "Point",
      "coordinates": [
        120.80661,
        24.19425
      ]
    },
    "properties": {
      "id": "1095",
      "name": "三嵙口",
      "seq": 38
    }
  },
  {
    "type": "Feature",
    "geometry": {
      "type": "Point",
      "coordinates": [
        120.80927,
        24.19202
      ]
    },
    "properties": {
      "id": "1354",
      "name": "大嵙口",
      "seq": 39
    }
  },
  {
    "type": "Feature",
    "geometry": {
      "type": "Point",
      "coordinates": [
        120.82464,
        24.26264
      ]
    },
    "properties": {
      "id": "4494",
      "name": "新豐新寧街口",
      "seq": 4
    }
  },
  {
    "type": "Feature",
    "geometry": {
      "type": "Point",
      "coordinates": [
        120.81147,
        24.19043
      ]
    },
    "properties": {
      "id": "3368",
      "name": "新五村",
      "seq": 40
    }
  },
  {
    "type": "Feature",
    "geometry": {
      "type": "Point",
      "coordinates": [
        120.81558,
        24.18477
      ]
    },
    "properties": {
      "id": "2705",
      "name": "茅埔角",
      "seq": 41
    }
  },
  {
    "type": "Feature",
    "geometry": {
      "type": "Point",
      "coordinates": [
        120.81594,
        24.17801
      ]
    },
    "properties": {
      "id": "4206",
      "name": "食水井",
      "seq": 42
    }
  },
  {
    "type": "Feature",
    "geometry": {
      "type": "Point",
      "coordinates": [
        120.81494,
        24.17592
      ]
    },
    "properties": {
      "id": "2604",
      "name": "南華莊",
      "seq": 43
    }
  },
  {
    "type": "Feature",
    "geometry": {
      "type": "Point",
      "coordinates": [
        120.81009,
        24.17426
      ]
    },
    "properties": {
      "id": "6037",
      "name": "崎頂(南華街)",
      "seq": 44
    }
  },
  {
    "type": "Feature",
    "geometry": {
      "type": "Point",
      "coordinates": [
        120.8126,
        24.16064
      ]
    },
    "properties": {
      "id": "3006",
      "name": "梅園",
      "seq": 48
    }
  },
  {
    "type": "Feature",
    "geometry": {
      "type": "Point",
      "coordinates": [
        120.81362,
        24.15705
      ]
    },
    "properties": {
      "id": "2131",
      "name": "池上",
      "seq": 49
    }
  },
  {
    "type": "Feature",
    "geometry": {
      "type": "Point",
      "coordinates": [
        120.81565,
        24.25913
      ]
    },
    "properties": {
      "id": "4650",
      "name": "土牛(和盛街)",
      "seq": 5
    }
  },
  {
    "type": "Feature",
    "geometry": {
      "type": "Point",
      "coordinates": [
        120.81321,
        24.15462
      ]
    },
    "properties": {
      "id": "3855",
      "name": "龍泉",
      "seq": 50
    }
  },
  {
    "type": "Feature",
    "geometry": {
      "type": "Point",
      "coordinates": [
        120.81248,
        24.15316
      ]
    },
    "properties": {
      "id": "3856",
      "name": "龍泉下",
      "seq": 51
    }
  },
  {
    "type": "Feature",
    "geometry": {
      "type": "Point",
      "coordinates": [
        120.81057,
        24.15176
      ]
    },
    "properties": {
      "id": "2218",
      "name": "伯公前",
      "seq": 52
    }
  },
  {
    "type": "Feature",
    "geometry": {
      "type": "Point",
      "coordinates": [
        120.80589,
        24.15078
      ]
    },
    "properties": {
      "id": "2714",
      "name": "茄苳寮",
      "seq": 53
    }
  },
  {
    "type": "Feature",
    "geometry": {
      "type": "Point",
      "coordinates": [
        120.81402,
        24.25639
      ]
    },
    "properties": {
      "id": "2593",
      "name": "南眉",
      "seq": 6
    }
  },
  {
    "type": "Feature",
    "geometry": {
      "type": "Point",
      "coordinates": [
        120.80775,
        24.25706
      ]
    },
    "properties": {
      "id": "2446",
      "name": "果菜市場",
      "seq": 9
    }
  }
]
