<?xml version="1.0" encoding="UTF-8" standalone="yes"?>
<BusDynInfo><EssentialInfo><Location><name>TCBUS</name><CenterName>Maxwin</CenterName></Location><UpdateTime>2014-12-20 08:06:48</UpdateTime><CoordinateSystem/></EssentialInfo>
<BusInfo><Stop Id="4136" routeId="169區3" nameZh="祿清宮" seqNo="1" pgp="0" terminal="0" districtId="1" GoBack="1" latitude="24.2102" longitude="120.5815" inDis="50" outDis="50" oid="14266" /><Stop Id="4124" routeId="169區3" nameZh="頂六路" seqNo="2" pgp="0" terminal="0" districtId="1" GoBack="1" latitude="24.21332" longitude="120.58114" inDis="50" outDis="50" oid="17376" /><Stop Id="4386" routeId="169區3" nameZh="弘光科技大學" seqNo="3" pgp="0" terminal="0" districtId="1" GoBack="1" latitude="24.2166" longitude="120.5808" inDis="50" outDis="50" oid="17377" /><Stop Id="4111" routeId="169區3" nameZh="晉江里" seqNo="4" pgp="0" terminal="0" districtId="1" GoBack="1" latitude="24.2219" longitude="120.5794" inDis="50" outDis="50" oid="17529" /><Stop Id="4062" routeId="169區3" nameZh="下晉江" seqNo="5" pgp="0" terminal="0" districtId="1" GoBack="1" latitude="24.22326" longitude="120.57859" inDis="50" outDis="50" oid="17379" /><Stop Id="4147" routeId="169區3" nameZh="靜宜大學" seqNo="6" pgp="0" terminal="0" districtId="1" GoBack="1" latitude="24.22623" longitude="120.57673" inDis="50" outDis="50" oid="17380" /><Stop Id="4086" routeId="169區3" nameZh="臺灣大道北勢路口" seqNo="7" pgp="0" terminal="0" districtId="1" GoBack="1" latitude="24.23015" longitude="120.57421" inDis="50" outDis="50" oid="17381" /><Stop Id="4392" routeId="169區3" nameZh="紅竹巷" seqNo="8" pgp="0" terminal="0" districtId="1" GoBack="1" latitude="24.23365" longitude="120.57201" inDis="50" outDis="50" oid="17382" /><Stop Id="5221" routeId="169區3" nameZh="中山臺灣大道口" seqNo="9" pgp="0" terminal="0" districtId="1" GoBack="1" latitude="24.2371" longitude="120.56918" inDis="50" outDis="50" oid="310787748" /><Stop Id="5222" routeId="169區3" nameZh="中山鎮政路口" seqNo="10" pgp="0" terminal="0" districtId="1" GoBack="1" latitude="24.23698" longitude="120.56673" inDis="50" outDis="50" oid="310787750" /><Stop Id="4390" routeId="169區3" nameZh="沙鹿高工(中山路)" seqNo="11" pgp="0" terminal="0" districtId="1" GoBack="1" latitude="24.23726" longitude="120.56491" inDis="50" outDis="50" oid="17385" /><Stop Id="2682" routeId="169區3" nameZh="洛泉里" seqNo="12" pgp="0" terminal="0" districtId="1" GoBack="1" latitude="24.23768" longitude="120.56236" inDis="50" outDis="50" oid="312574878" /><Stop Id="2248" routeId="169區3" nameZh="沙鹿站" seqNo="13" pgp="0" terminal="0" districtId="1" GoBack="1" latitude="24.23792" longitude="120.56104" inDis="50" outDis="50" oid="17387" /><Stop Id="5135" routeId="169區3" nameZh="第一銀行(沙鹿分行)" seqNo="14" pgp="0" terminal="0" districtId="1" GoBack="1" latitude="24.23932" longitude="120.56" inDis="50" outDis="50" oid="14046" /><Stop Id="1482" routeId="169區3" nameZh="中港國小" seqNo="15" pgp="0" terminal="0" districtId="1" GoBack="1" latitude="24.24273" longitude="120.55659" inDis="50" outDis="50" oid="17389" /><Stop Id="1088" routeId="169區3" nameZh="三條圳" seqNo="16" pgp="0" terminal="0" districtId="1" GoBack="1" latitude="24.24548" longitude="120.54911" inDis="50" outDis="50" oid="17390" /><Stop Id="4822" routeId="169區3" nameZh="東大庄" seqNo="17" pgp="0" terminal="0" districtId="1" GoBack="1" latitude="24.24643" longitude="120.54653" inDis="50" outDis="50" oid="17391" /><Stop Id="4007" routeId="169區3" nameZh="體育館前" seqNo="18" pgp="0" terminal="0" districtId="1" GoBack="1" latitude="24.2471" longitude="120.54472" inDis="50" outDis="50" oid="17392" /><Stop Id="4041" routeId="169區3" nameZh="童綜合醫院(梧棲院區)" seqNo="19" pgp="0" terminal="0" districtId="1" GoBack="1" latitude="24.24757" longitude="120.54319" inDis="50" outDis="50" oid="17393" /><Stop Id="4824" routeId="169區3" nameZh="邱厝庄" seqNo="20" pgp="0" terminal="0" districtId="1" GoBack="1" latitude="24.24818" longitude="120.54117" inDis="50" outDis="50" oid="17394" /><Stop Id="1334" routeId="169區3" nameZh="大庄" seqNo="21" pgp="0" terminal="0" districtId="1" GoBack="1" latitude="24.24908" longitude="120.53916" inDis="50" outDis="50" oid="17395" /><Stop Id="3250" routeId="169區3" nameZh="臺灣大道港埠路口" seqNo="22" pgp="0" terminal="0" districtId="1" GoBack="1" latitude="24.25083" longitude="120.53444" inDis="50" outDis="50" oid="17396" /><Stop Id="2999" routeId="169區3" nameZh="梧棲國小" seqNo="23" pgp="0" terminal="0" districtId="1" GoBack="1" latitude="24.25232" longitude="120.53036" inDis="50" outDis="50" oid="17397" /><Stop Id="2107" routeId="169區3" nameZh="安仁里" seqNo="24" pgp="0" terminal="0" districtId="1" GoBack="1" latitude="24.25366" longitude="120.5286" inDis="50" outDis="50" oid="17400" /><Stop Id="2997" routeId="169區3" nameZh="梧棲(梧棲路)" seqNo="25" pgp="0" terminal="0" districtId="1" GoBack="1" latitude="24.25658" longitude="120.52957" inDis="50" outDis="50" oid="17401" /><Stop Id="1208" routeId="169區3" nameZh="下寮社區" seqNo="26" pgp="0" terminal="0" districtId="1" GoBack="1" latitude="24.25856" longitude="120.53009" inDis="50" outDis="50" oid="17402" /><Stop Id="4783" routeId="169區3" nameZh="下寮里(富美宮)" seqNo="27" pgp="0" terminal="0" districtId="1" GoBack="1" latitude="24.26079" longitude="120.53035" inDis="50" outDis="50" oid="15224" /><Stop Id="4668" routeId="169區3" nameZh="頂寮里" seqNo="28" pgp="0" terminal="0" districtId="1" GoBack="1" latitude="24.26037" longitude="120.53229" inDis="50" outDis="50" oid="17403" /><Stop Id="4840" routeId="169區3" nameZh="國都飯店" seqNo="29" pgp="0" terminal="0" districtId="1" GoBack="1" latitude="24.25932" longitude="120.53495" inDis="50" outDis="50" oid="17404" /><Stop Id="5065" routeId="169區3" nameZh="臺銀中港分行" seqNo="30" pgp="0" terminal="0" districtId="1" GoBack="1" latitude="24.25995" longitude="120.53662" inDis="50" outDis="50" oid="17405" /><Stop Id="5064" routeId="169區3" nameZh="臺中港郵局" seqNo="31" pgp="0" terminal="0" districtId="1" GoBack="1" latitude="24.26193" longitude="120.53741" inDis="50" outDis="50" oid="17406" /><Stop Id="4810" routeId="169區3" nameZh="竹圍(港埠路)" seqNo="32" pgp="0" terminal="0" districtId="1" GoBack="1" latitude="24.2618" longitude="120.54158" inDis="50" outDis="50" oid="17407" /><Stop Id="3895" routeId="169區3" nameZh="糠榔" seqNo="33" pgp="0" terminal="0" districtId="1" GoBack="1" latitude="24.26342" longitude="120.54513" inDis="50" outDis="50" oid="17408" /><Stop Id="2444" routeId="169區3" nameZh="東糠榔" seqNo="34" pgp="0" terminal="0" districtId="1" GoBack="1" latitude="24.26431" longitude="120.54853" inDis="50" outDis="50" oid="17409" /><Stop Id="2177" routeId="169區3" nameZh="西牛埔" seqNo="35" pgp="0" terminal="0" districtId="1" GoBack="1" latitude="24.26504" longitude="120.55146" inDis="50" outDis="50" oid="17410" /><Stop Id="1732" routeId="169區3" nameZh="牛埔" seqNo="36" pgp="0" terminal="0" districtId="1" GoBack="1" latitude="24.26601" longitude="120.55556" inDis="50" outDis="50" oid="17411" /><Stop Id="2588" routeId="169區3" nameZh="南社里" seqNo="37" pgp="0" terminal="0" districtId="1" GoBack="1" latitude="24.26715" longitude="120.56046" inDis="50" outDis="50" oid="17412" /><Stop Id="3017" routeId="169區3" nameZh="清水國中" seqNo="38" pgp="0" terminal="0" districtId="1" GoBack="1" latitude="24.26778" longitude="120.56271" inDis="50" outDis="50" oid="17414" /><Stop Id="3700" routeId="169區3" nameZh="銀聯二村" seqNo="39" pgp="0" terminal="0" districtId="1" GoBack="1" latitude="24.26832" longitude="120.5648" inDis="50" outDis="50" oid="17415" /><Stop Id="2486" routeId="169區3" nameZh="社口" seqNo="40" pgp="0" terminal="0" districtId="1" GoBack="1" latitude="24.26845" longitude="120.56825" inDis="50" outDis="50" oid="17416" /><Stop Id="5655" routeId="169區3" nameZh="鰲峰西社路口" seqNo="41" pgp="0" terminal="0" districtId="1" GoBack="1" latitude="24.26923" longitude="120.57004" inDis="50" outDis="50" oid="317714376" /><Stop Id="1615" routeId="169區3" nameZh="分局前" seqNo="42" pgp="0" terminal="0" districtId="1" GoBack="1" latitude="24.26919" longitude="120.57531" inDis="50" outDis="50" oid="17418" /><Stop Id="3013" routeId="169區3" nameZh="清水" seqNo="43" pgp="0" terminal="0" districtId="1" GoBack="1" latitude="24.2703" longitude="120.57594" inDis="50" outDis="50" oid="10843" /></BusInfo></BusDynInfo>