<?xml version="1.0" encoding="UTF-8" standalone="yes"?>
<BusDynInfo><EssentialInfo><Location><name>TCBUS</name><CenterName>Maxwin</CenterName></Location><UpdateTime>2014-12-20 08:25:42</UpdateTime><CoordinateSystem/></EssentialInfo>
<BusInfo><Stop Id="2300" routeId="256" nameZh="卓蘭" seqNo="1" pgp="0" terminal="0" districtId="1" GoBack="1" latitude="24.3143" longitude="120.8238" inDis="50" outDis="50" oid="5825" /><Stop Id="3296" routeId="256" nameZh="郵局前" seqNo="2" pgp="0" terminal="0" districtId="1" GoBack="1" latitude="24.31332" longitude="120.82445" inDis="50" outDis="50" oid="6378" /><Stop Id="3917" routeId="256" nameZh="舊站" seqNo="3" pgp="0" terminal="0" districtId="1" GoBack="1" latitude="24.31227" longitude="120.82533" inDis="50" outDis="50" oid="6686" /><Stop Id="1488" routeId="256" nameZh="中街" seqNo="4" pgp="0" terminal="0" districtId="1" GoBack="1" latitude="24.3109" longitude="120.82557" inDis="50" outDis="50" oid="5343" /><Stop Id="3472" routeId="256" nameZh="溪洲" seqNo="5" pgp="0" terminal="0" districtId="1" GoBack="1" latitude="24.31046" longitude="120.8246" inDis="50" outDis="50" oid="6484" /><Stop Id="2123" routeId="256" nameZh="收費站" seqNo="6" pgp="0" terminal="0" districtId="1" GoBack="1" latitude="24.31026" longitude="120.8222" inDis="50" outDis="50" oid="5727" /><Stop Id="1290" routeId="256" nameZh="大安溪" seqNo="8" pgp="0" terminal="0" districtId="1" GoBack="1" latitude="24.30356" longitude="120.81133" inDis="50" outDis="50" oid="5224" /><Stop Id="1248" routeId="256" nameZh="上圓屯" seqNo="9" pgp="0" terminal="0" districtId="1" GoBack="1" latitude="24.30544" longitude="120.80725" inDis="50" outDis="50" oid="5189" /><Stop Id="3382" routeId="256" nameZh="新田口" seqNo="10" pgp="0" terminal="0" districtId="1" GoBack="1" latitude="24.30682" longitude="120.7999" inDis="50" outDis="50" oid="6420" /><Stop Id="1195" routeId="256" nameZh="下圓屯" seqNo="11" pgp="0" terminal="0" districtId="1" GoBack="1" latitude="24.30906" longitude="120.79434" inDis="50" outDis="50" oid="5148" /><Stop Id="2358" routeId="256" nameZh="明正國小" seqNo="12" pgp="0" terminal="0" districtId="1" GoBack="1" latitude="24.3102" longitude="120.79124" inDis="50" outDis="50" oid="5866" /><Stop Id="2359" routeId="256" nameZh="明正里" seqNo="13" pgp="0" terminal="0" districtId="1" GoBack="1" latitude="24.31174" longitude="120.78571" inDis="50" outDis="50" oid="5868" /><Stop Id="3393" routeId="256" nameZh="新村" seqNo="14" pgp="0" terminal="0" districtId="1" GoBack="1" latitude="24.3117" longitude="120.78365" inDis="50" outDis="50" oid="6429" /><Stop Id="2360" routeId="256" nameZh="明安橋" seqNo="15" pgp="0" terminal="0" districtId="1" GoBack="1" latitude="24.31293" longitude="120.78095" inDis="50" outDis="50" oid="5869" /><Stop Id="2321" routeId="256" nameZh="和興" seqNo="16" pgp="0" terminal="0" districtId="1" GoBack="1" latitude="24.31341" longitude="120.77928" inDis="50" outDis="50" oid="5840" /><Stop Id="3432" routeId="256" nameZh="新興" seqNo="17" pgp="0" terminal="0" districtId="1" GoBack="1" latitude="24.31473" longitude="120.77702" inDis="50" outDis="50" oid="6453" /><Stop Id="1702" routeId="256" nameZh="水尾" seqNo="18" pgp="0" terminal="0" districtId="1" GoBack="1" latitude="24.31489" longitude="120.77528" inDis="50" outDis="50" oid="5480" /><Stop Id="1702" routeId="256" nameZh="水尾" seqNo="1" pgp="0" terminal="0" districtId="1" GoBack="2" latitude="24.31489" longitude="120.77528" inDis="50" outDis="50" oid="5480" /><Stop Id="3432" routeId="256" nameZh="新興" seqNo="2" pgp="0" terminal="0" districtId="1" GoBack="2" latitude="24.31473" longitude="120.77702" inDis="50" outDis="50" oid="6453" /><Stop Id="2321" routeId="256" nameZh="和興" seqNo="3" pgp="0" terminal="0" districtId="1" GoBack="2" latitude="24.31341" longitude="120.77928" inDis="50" outDis="50" oid="5840" /><Stop Id="2360" routeId="256" nameZh="明安橋" seqNo="4" pgp="0" terminal="0" districtId="1" GoBack="2" latitude="24.31293" longitude="120.78095" inDis="50" outDis="50" oid="5869" /><Stop Id="3393" routeId="256" nameZh="新村" seqNo="5" pgp="0" terminal="0" districtId="1" GoBack="2" latitude="24.3117" longitude="120.78365" inDis="50" outDis="50" oid="6429" /><Stop Id="2359" routeId="256" nameZh="明正里" seqNo="6" pgp="0" terminal="0" districtId="1" GoBack="2" latitude="24.31174" longitude="120.78571" inDis="50" outDis="50" oid="5868" /><Stop Id="2358" routeId="256" nameZh="明正國小" seqNo="7" pgp="0" terminal="0" districtId="1" GoBack="2" latitude="24.3102" longitude="120.79124" inDis="50" outDis="50" oid="5866" /><Stop Id="1195" routeId="256" nameZh="下圓屯" seqNo="8" pgp="0" terminal="0" districtId="1" GoBack="2" latitude="24.30906" longitude="120.79434" inDis="50" outDis="50" oid="5148" /><Stop Id="3382" routeId="256" nameZh="新田口" seqNo="9" pgp="0" terminal="0" districtId="1" GoBack="2" latitude="24.30682" longitude="120.7999" inDis="50" outDis="50" oid="6420" /><Stop Id="1248" routeId="256" nameZh="上圓屯" seqNo="10" pgp="0" terminal="0" districtId="1" GoBack="2" latitude="24.30544" longitude="120.80725" inDis="50" outDis="50" oid="5189" /><Stop Id="1290" routeId="256" nameZh="大安溪" seqNo="11" pgp="0" terminal="0" districtId="1" GoBack="2" latitude="24.30356" longitude="120.81133" inDis="50" outDis="50" oid="5224" /><Stop Id="2123" routeId="256" nameZh="收費站" seqNo="13" pgp="0" terminal="0" districtId="1" GoBack="2" latitude="24.31026" longitude="120.8222" inDis="50" outDis="50" oid="5727" /><Stop Id="3472" routeId="256" nameZh="溪洲" seqNo="14" pgp="0" terminal="0" districtId="1" GoBack="2" latitude="24.31046" longitude="120.8246" inDis="50" outDis="50" oid="6484" /><Stop Id="1488" routeId="256" nameZh="中街" seqNo="15" pgp="0" terminal="0" districtId="1" GoBack="2" latitude="24.3109" longitude="120.82557" inDis="50" outDis="50" oid="5343" /><Stop Id="3917" routeId="256" nameZh="舊站" seqNo="16" pgp="0" terminal="0" districtId="1" GoBack="2" latitude="24.31227" longitude="120.82533" inDis="50" outDis="50" oid="6686" /><Stop Id="3296" routeId="256" nameZh="郵局前" seqNo="17" pgp="0" terminal="0" districtId="1" GoBack="2" latitude="24.31332" longitude="120.82445" inDis="50" outDis="50" oid="6378" /><Stop Id="2300" routeId="256" nameZh="卓蘭" seqNo="18" pgp="0" terminal="0" districtId="1" GoBack="2" latitude="24.3143" longitude="120.8238" inDis="50" outDis="50" oid="5825" /></BusInfo></BusDynInfo>