<?xml version="1.0" encoding="UTF-8" standalone="yes"?>
<BusDynInfo><EssentialInfo><Location><name>TCBUS</name><CenterName>Maxwin</CenterName></Location><UpdateTime>2014-12-20 07:35:23</UpdateTime><CoordinateSystem/></EssentialInfo>
<BusInfo><Stop Id="4270" routeId="53區" nameZh="文心市政路口" seqNo="1" pgp="0" terminal="0" districtId="1" GoBack="1" latitude="24.15461" longitude="120.64672" inDis="50" outDis="50" oid="13270" /><Stop Id="4268" routeId="53區" nameZh="文心公益路口" seqNo="2" pgp="0" terminal="0" districtId="1" GoBack="1" latitude="24.15048" longitude="120.64669" inDis="50" outDis="50" oid="13268" /><Stop Id="5477" routeId="53區" nameZh="文心大墩七街口" seqNo="3" pgp="0" terminal="0" districtId="1" GoBack="1" latitude="24.14419" longitude="120.6466" inDis="50" outDis="50" oid="13279" /><Stop Id="4272" routeId="53區" nameZh="文心向心路口" seqNo="4" pgp="0" terminal="0" districtId="1" GoBack="1" latitude="24.14243" longitude="120.64662" inDis="50" outDis="50" oid="13272" /><Stop Id="4267" routeId="53區" nameZh="文心五權西路口" seqNo="5" pgp="0" terminal="0" districtId="1" GoBack="1" latitude="24.13968" longitude="120.64653" inDis="50" outDis="50" oid="13119" /><Stop Id="5098" routeId="53區" nameZh="文心南南屯路口" seqNo="6" pgp="0" terminal="0" districtId="1" GoBack="1" latitude="24.13657" longitude="120.64659" inDis="50" outDis="50" oid="13276" /><Stop Id="5097" routeId="53區" nameZh="文心南永春東路口" seqNo="7" pgp="0" terminal="0" districtId="1" GoBack="1" latitude="24.13441" longitude="120.64633" inDis="50" outDis="50" oid="13121" /><Stop Id="0026" routeId="53區" nameZh="豐樂公園" seqNo="8" pgp="0" terminal="0" districtId="1" GoBack="1" latitude="24.13032" longitude="120.64634" inDis="50" outDis="50" oid="13340" /><Stop Id="4034" routeId="53區" nameZh="中山醫學大學" seqNo="10" pgp="0" terminal="0" districtId="1" GoBack="1" latitude="24.12297" longitude="120.64848" inDis="50" outDis="50" oid="13254" /><Stop Id="4363" routeId="53區" nameZh="特力屋(臺中店)" seqNo="11" pgp="0" terminal="0" districtId="1" GoBack="1" latitude="24.11593" longitude="120.65434" inDis="50" outDis="50" oid="13191" /><Stop Id="4354" routeId="53區" nameZh="文心南大慶街口" seqNo="12" pgp="0" terminal="0" districtId="1" GoBack="1" latitude="24.11419" longitude="120.656" inDis="50" outDis="50" oid="13123" /><Stop Id="4289" routeId="53區" nameZh="高工文心南路口" seqNo="13" pgp="0" terminal="0" districtId="1" GoBack="1" latitude="24.11321" longitude="120.65814" inDis="50" outDis="50" oid="13199" /><Stop Id="4537" routeId="53區" nameZh="臺中高工(高工路)" seqNo="14" pgp="0" terminal="0" districtId="1" GoBack="1" latitude="24.11325" longitude="120.66241" inDis="50" outDis="50" oid="13141" /><Stop Id="4258" routeId="53區" nameZh="工學一街口" seqNo="15" pgp="0" terminal="0" districtId="1" GoBack="1" latitude="24.11385" longitude="120.66499" inDis="50" outDis="50" oid="13085" /><Stop Id="4367" routeId="53區" nameZh="僑泰中學(高工路)" seqNo="16" pgp="0" terminal="0" districtId="1" GoBack="1" latitude="24.11442" longitude="120.66796" inDis="50" outDis="50" oid="F31176F499D2426C84080D3B88E9B284" /><Stop Id="4305" routeId="53區" nameZh="積善公園" seqNo="17" pgp="0" terminal="0" districtId="1" GoBack="1" latitude="24.11474" longitude="120.67142" inDis="50" outDis="50" oid="13235" /><Stop Id="4257" routeId="53區" nameZh="大明爽文路口" seqNo="18" pgp="0" terminal="0" districtId="1" GoBack="1" latitude="24.11495" longitude="120.67478" inDis="50" outDis="50" oid="13079" /><Stop Id="4256" routeId="53區" nameZh="大明國光路口" seqNo="19" pgp="0" terminal="0" districtId="1" GoBack="1" latitude="24.11488" longitude="120.67797" inDis="50" outDis="50" oid="13077" /><Stop Id="4255" routeId="53區" nameZh="大明益民路口" seqNo="20" pgp="0" terminal="0" districtId="1" GoBack="1" latitude="24.11523" longitude="120.68269" inDis="50" outDis="50" oid="13075" /><Stop Id="4295" routeId="53區" nameZh="崇光國小" seqNo="21" pgp="0" terminal="0" districtId="1" GoBack="1" latitude="24.11366" longitude="120.68389" inDis="50" outDis="50" oid="13315" /><Stop Id="5626" routeId="53區" nameZh="興大附中(益民路)" seqNo="22" pgp="0" terminal="0" districtId="1" GoBack="1" latitude="24.10988" longitude="120.684" inDis="50" outDis="50" oid="139064869" /><Stop Id="4288" routeId="53區" nameZh="益民德芳路口" seqNo="23" pgp="0" terminal="0" districtId="1" GoBack="1" latitude="24.10694" longitude="120.68572" inDis="50" outDis="50" oid="13195" /><Stop Id="4287" routeId="53區" nameZh="益民國小" seqNo="24" pgp="0" terminal="0" districtId="1" GoBack="1" latitude="24.10649" longitude="120.68866" inDis="50" outDis="50" oid="13193" /><Stop Id="2026" routeId="53區" nameZh="立人高中" seqNo="25" pgp="0" terminal="0" districtId="1" GoBack="1" latitude="24.10479" longitude="120.68915" inDis="50" outDis="50" oid="13149" /><Stop Id="1126" routeId="53區" nameZh="下內新" seqNo="26" pgp="0" terminal="0" districtId="1" GoBack="1" latitude="24.10263" longitude="120.68851" inDis="50" outDis="50" oid="13066" /><Stop Id="5151" routeId="53區" nameZh="兒童藝術館(中興路)" seqNo="27" pgp="0" terminal="0" districtId="1" GoBack="1" latitude="24.10058" longitude="120.68631" inDis="50" outDis="50" oid="13166" /><Stop Id="1322" routeId="53區" nameZh="大突寮(中興路)" seqNo="28" pgp="0" terminal="0" districtId="1" GoBack="1" latitude="24.09735" longitude="120.68694" inDis="50" outDis="50" oid="309974047" /><Stop Id="4661" routeId="53區" nameZh="中興仁化路口" seqNo="29" pgp="0" terminal="0" districtId="1" GoBack="1" latitude="24.09148" longitude="120.69172" inDis="50" outDis="50" oid="13101" /><Stop Id="4286" routeId="53區" nameZh="青年高中" seqNo="30" pgp="0" terminal="0" districtId="1" GoBack="1" latitude="24.0897" longitude="120.69385" inDis="50" outDis="50" oid="13181" /><Stop Id="4253" routeId="53區" nameZh="大里圖書館(中興路)" seqNo="31" pgp="0" terminal="0" districtId="1" GoBack="1" latitude="24.08743" longitude="120.69593" inDis="50" outDis="50" oid="13071" /><Stop Id="5034" routeId="53區" nameZh="財政部印刷廠" seqNo="32" pgp="0" terminal="0" districtId="1" GoBack="1" latitude="24.08663" longitude="120.69635" inDis="50" outDis="50" oid="309557183" /><Stop Id="2866" routeId="53區" nameZh="草湖" seqNo="33" pgp="0" terminal="0" districtId="1" GoBack="1" latitude="24.08362" longitude="120.69713" inDis="50" outDis="50" oid="13197" /><Stop Id="4349" routeId="53區" nameZh="中興東南路口" seqNo="34" pgp="0" terminal="0" districtId="1" GoBack="1" latitude="24.08012" longitude="120.69825" inDis="50" outDis="50" oid="13099" /><Stop Id="2062" routeId="53區" nameZh="中正吉峰路口" seqNo="35" pgp="0" terminal="0" districtId="1" GoBack="1" latitude="24.0765" longitude="120.69947" inDis="50" outDis="50" oid="13155" /><Stop Id="3980" routeId="53區" nameZh="霧峰農工" seqNo="36" pgp="0" terminal="0" districtId="1" GoBack="1" latitude="24.07308" longitude="120.69968" inDis="50" outDis="50" oid="13249" /><Stop Id="1994" routeId="53區" nameZh="甲寅" seqNo="37" pgp="0" terminal="0" districtId="1" GoBack="1" latitude="24.0697" longitude="120.69928" inDis="50" outDis="50" oid="13147" /><Stop Id="4972" routeId="53區" nameZh="中正草湖路口" seqNo="38" pgp="0" terminal="0" districtId="1" GoBack="1" latitude="24.06822" longitude="120.69908" inDis="50" outDis="50" oid="309120171" /><Stop Id="3972" routeId="53區" nameZh="霧峰" seqNo="39" pgp="0" terminal="0" districtId="1" GoBack="1" latitude="24.06383" longitude="120.69852" inDis="50" outDis="50" oid="13245" /><Stop Id="3978" routeId="53區" nameZh="霧峰郵局" seqNo="40" pgp="0" terminal="0" districtId="1" GoBack="1" latitude="24.06197" longitude="120.69829" inDis="50" outDis="50" oid="8108" /><Stop Id="5546" routeId="53區" nameZh="教育部國教署" seqNo="41" pgp="0" terminal="0" districtId="1" GoBack="1" latitude="24.05932" longitude="120.69799" inDis="50" outDis="50" oid="316462697" /><Stop Id="3976" routeId="53區" nameZh="霧峰國小" seqNo="42" pgp="0" terminal="0" districtId="1" GoBack="1" latitude="24.05745" longitude="120.6977" inDis="50" outDis="50" oid="13247" /><Stop Id="2692" routeId="53區" nameZh="省議會" seqNo="43" pgp="0" terminal="0" districtId="1" GoBack="1" latitude="24.05527" longitude="120.69688" inDis="50" outDis="50" oid="13185" /><Stop Id="2692" routeId="53區" nameZh="省議會" seqNo="1" pgp="0" terminal="0" districtId="1" GoBack="2" latitude="24.05527" longitude="120.69688" inDis="50" outDis="50" oid="13185" /><Stop Id="3976" routeId="53區" nameZh="霧峰國小" seqNo="2" pgp="0" terminal="0" districtId="1" GoBack="2" latitude="24.05745" longitude="120.6977" inDis="50" outDis="50" oid="13247" /><Stop Id="5546" routeId="53區" nameZh="教育部國教署" seqNo="3" pgp="0" terminal="0" districtId="1" GoBack="2" latitude="24.05932" longitude="120.69799" inDis="50" outDis="50" oid="316462697" /><Stop Id="3978" routeId="53區" nameZh="霧峰郵局" seqNo="4" pgp="0" terminal="0" districtId="1" GoBack="2" latitude="24.06197" longitude="120.69829" inDis="50" outDis="50" oid="8108" /><Stop Id="3972" routeId="53區" nameZh="霧峰" seqNo="5" pgp="0" terminal="0" districtId="1" GoBack="2" latitude="24.06383" longitude="120.69852" inDis="50" outDis="50" oid="13245" /><Stop Id="4972" routeId="53區" nameZh="中正草湖路口" seqNo="6" pgp="0" terminal="0" districtId="1" GoBack="2" latitude="24.06822" longitude="120.69908" inDis="50" outDis="50" oid="309120171" /><Stop Id="1994" routeId="53區" nameZh="甲寅" seqNo="7" pgp="0" terminal="0" districtId="1" GoBack="2" latitude="24.0697" longitude="120.69928" inDis="50" outDis="50" oid="13147" /><Stop Id="3980" routeId="53區" nameZh="霧峰農工" seqNo="8" pgp="0" terminal="0" districtId="1" GoBack="2" latitude="24.07308" longitude="120.69968" inDis="50" outDis="50" oid="13249" /><Stop Id="2062" routeId="53區" nameZh="中正吉峰路口" seqNo="9" pgp="0" terminal="0" districtId="1" GoBack="2" latitude="24.0765" longitude="120.69947" inDis="50" outDis="50" oid="13155" /><Stop Id="4349" routeId="53區" nameZh="中興東南路口" seqNo="10" pgp="0" terminal="0" districtId="1" GoBack="2" latitude="24.08012" longitude="120.69825" inDis="50" outDis="50" oid="13099" /><Stop Id="2866" routeId="53區" nameZh="草湖" seqNo="11" pgp="0" terminal="0" districtId="1" GoBack="2" latitude="24.08362" longitude="120.69713" inDis="50" outDis="50" oid="13197" /><Stop Id="5034" routeId="53區" nameZh="財政部印刷廠" seqNo="12" pgp="0" terminal="0" districtId="1" GoBack="2" latitude="24.08663" longitude="120.69635" inDis="50" outDis="50" oid="309557183" /><Stop Id="4253" routeId="53區" nameZh="大里圖書館(中興路)" seqNo="13" pgp="0" terminal="0" districtId="1" GoBack="2" latitude="24.08867" longitude="120.69536" inDis="50" outDis="50" oid="13072" /><Stop Id="4286" routeId="53區" nameZh="青年高中" seqNo="14" pgp="0" terminal="0" districtId="1" GoBack="2" latitude="24.0897" longitude="120.69385" inDis="50" outDis="50" oid="13181" /><Stop Id="4661" routeId="53區" nameZh="中興仁化路口" seqNo="15" pgp="0" terminal="0" districtId="1" GoBack="2" latitude="24.09148" longitude="120.69172" inDis="50" outDis="50" oid="13101" /><Stop Id="1322" routeId="53區" nameZh="大突寮(中興路)" seqNo="16" pgp="0" terminal="0" districtId="1" GoBack="2" latitude="24.09735" longitude="120.68694" inDis="50" outDis="50" oid="309974047" /><Stop Id="5151" routeId="53區" nameZh="兒童藝術館(中興路)" seqNo="17" pgp="0" terminal="0" districtId="1" GoBack="2" latitude="24.10058" longitude="120.68631" inDis="50" outDis="50" oid="13166" /><Stop Id="1126" routeId="53區" nameZh="下內新" seqNo="18" pgp="0" terminal="0" districtId="1" GoBack="2" latitude="24.10263" longitude="120.68851" inDis="50" outDis="50" oid="13066" /><Stop Id="2026" routeId="53區" nameZh="立人高中" seqNo="19" pgp="0" terminal="0" districtId="1" GoBack="2" latitude="24.10479" longitude="120.68915" inDis="50" outDis="50" oid="13149" /><Stop Id="4287" routeId="53區" nameZh="益民國小" seqNo="20" pgp="0" terminal="0" districtId="1" GoBack="2" latitude="24.10649" longitude="120.68866" inDis="50" outDis="50" oid="13193" /><Stop Id="4288" routeId="53區" nameZh="益民德芳路口" seqNo="21" pgp="0" terminal="0" districtId="1" GoBack="2" latitude="24.10694" longitude="120.68572" inDis="50" outDis="50" oid="13195" /><Stop Id="5626" routeId="53區" nameZh="興大附中(益民路)" seqNo="22" pgp="0" terminal="0" districtId="1" GoBack="2" latitude="24.10988" longitude="120.684" inDis="50" outDis="50" oid="139064869" /><Stop Id="4295" routeId="53區" nameZh="崇光國小" seqNo="23" pgp="0" terminal="0" districtId="1" GoBack="2" latitude="24.11366" longitude="120.68389" inDis="50" outDis="50" oid="13315" /><Stop Id="4255" routeId="53區" nameZh="大明益民路口" seqNo="24" pgp="0" terminal="0" districtId="1" GoBack="2" latitude="24.11523" longitude="120.68269" inDis="50" outDis="50" oid="13075" /><Stop Id="4256" routeId="53區" nameZh="大明國光路口" seqNo="25" pgp="0" terminal="0" districtId="1" GoBack="2" latitude="24.11488" longitude="120.67797" inDis="50" outDis="50" oid="13077" /><Stop Id="4257" routeId="53區" nameZh="大明爽文路口" seqNo="26" pgp="0" terminal="0" districtId="1" GoBack="2" latitude="24.11495" longitude="120.67478" inDis="50" outDis="50" oid="13079" /><Stop Id="4305" routeId="53區" nameZh="積善公園" seqNo="27" pgp="0" terminal="0" districtId="1" GoBack="2" latitude="24.11474" longitude="120.67142" inDis="50" outDis="50" oid="13235" /><Stop Id="4367" routeId="53區" nameZh="僑泰中學(高工路)" seqNo="28" pgp="0" terminal="0" districtId="1" GoBack="2" latitude="24.11442" longitude="120.66796" inDis="50" outDis="50" oid="F31176F499D2426C84080D3B88E9B284" /><Stop Id="4258" routeId="53區" nameZh="工學一街口" seqNo="29" pgp="0" terminal="0" districtId="1" GoBack="2" latitude="24.11385" longitude="120.66499" inDis="50" outDis="50" oid="13085" /><Stop Id="4537" routeId="53區" nameZh="臺中高工(高工路)" seqNo="30" pgp="0" terminal="0" districtId="1" GoBack="2" latitude="24.11325" longitude="120.66241" inDis="50" outDis="50" oid="13141" /><Stop Id="4289" routeId="53區" nameZh="高工文心南路口" seqNo="31" pgp="0" terminal="0" districtId="1" GoBack="2" latitude="24.11321" longitude="120.65814" inDis="50" outDis="50" oid="13199" /><Stop Id="4354" routeId="53區" nameZh="文心南大慶街口" seqNo="32" pgp="0" terminal="0" districtId="1" GoBack="2" latitude="24.11419" longitude="120.656" inDis="50" outDis="50" oid="13123" /><Stop Id="4363" routeId="53區" nameZh="特力屋(臺中店)" seqNo="33" pgp="0" terminal="0" districtId="1" GoBack="2" latitude="24.11593" longitude="120.65434" inDis="50" outDis="50" oid="13191" /><Stop Id="4034" routeId="53區" nameZh="中山醫學大學" seqNo="34" pgp="0" terminal="0" districtId="1" GoBack="2" latitude="24.12297" longitude="120.64848" inDis="50" outDis="50" oid="13254" /><Stop Id="0026" routeId="53區" nameZh="豐樂公園" seqNo="37" pgp="0" terminal="0" districtId="1" GoBack="2" latitude="24.13032" longitude="120.64634" inDis="50" outDis="50" oid="13340" /><Stop Id="5097" routeId="53區" nameZh="文心南永春東路口" seqNo="38" pgp="0" terminal="0" districtId="1" GoBack="2" latitude="24.13441" longitude="120.64633" inDis="50" outDis="50" oid="13121" /><Stop Id="5098" routeId="53區" nameZh="文心南南屯路口" seqNo="39" pgp="0" terminal="0" districtId="1" GoBack="2" latitude="24.13657" longitude="120.64659" inDis="50" outDis="50" oid="13276" /><Stop Id="4267" routeId="53區" nameZh="文心五權西路口" seqNo="40" pgp="0" terminal="0" districtId="1" GoBack="2" latitude="24.13968" longitude="120.64653" inDis="50" outDis="50" oid="13119" /><Stop Id="4272" routeId="53區" nameZh="文心向心路口" seqNo="41" pgp="0" terminal="0" districtId="1" GoBack="2" latitude="24.14243" longitude="120.64662" inDis="50" outDis="50" oid="13272" /><Stop Id="5477" routeId="53區" nameZh="文心大墩七街口" seqNo="42" pgp="0" terminal="0" districtId="1" GoBack="2" latitude="24.14419" longitude="120.6466" inDis="50" outDis="50" oid="13279" /><Stop Id="4268" routeId="53區" nameZh="文心公益路口" seqNo="43" pgp="0" terminal="0" districtId="1" GoBack="2" latitude="24.15048" longitude="120.64669" inDis="50" outDis="50" oid="13268" /><Stop Id="4270" routeId="53區" nameZh="文心市政路口" seqNo="44" pgp="0" terminal="0" districtId="1" GoBack="2" latitude="24.15461" longitude="120.64672" inDis="50" outDis="50" oid="13270" /></BusInfo></BusDynInfo>