[
  {
    "type": "Feature",
    "geometry": {
      "type": "Point",
      "coordinates": [
        120.5998,
        24.14202
      ]
    },
    "properties": {
      "id": "5390",
      "name": "臺中監獄",
      "seq": 1
    }
  },
  {
    "type": "Feature",
    "geometry": {
      "type": "Point",
      "coordinates": [
        120.63715,
        24.13653
      ]
    },
    "properties": {
      "id": "0695",
      "name": "南屯國小",
      "seq": 10
    }
  },
  {
    "type": "Feature",
    "geometry": {
      "type": "Point",
      "coordinates": [
        120.6384,
        24.14033
      ]
    },
    "properties": {
      "id": "5156",
      "name": "黎明南屯路口",
      "seq": 11
    }
  },
  {
    "type": "Feature",
    "geometry": {
      "type": "Point",
      "coordinates": [
        120.63717,
        24.14405
      ]
    },
    "properties": {
      "id": "4245",
      "name": "黎明五權西路口",
      "seq": 12
    }
  },
  {
    "type": "Feature",
    "geometry": {
      "type": "Point",
      "coordinates": [
        120.63577,
        24.14824
      ]
    },
    "properties": {
      "id": "0060",
      "name": "三厝里",
      "seq": 13
    }
  },
  {
    "type": "Feature",
    "geometry": {
      "type": "Point",
      "coordinates": [
        120.63542,
        24.15054
      ]
    },
    "properties": {
      "id": "0059",
      "name": "黎明公益路口",
      "seq": 14
    }
  },
  {
    "type": "Feature",
    "geometry": {
      "type": "Point",
      "coordinates": [
        120.6315,
        24.15214
      ]
    },
    "properties": {
      "id": "1410",
      "name": "干城三站",
      "seq": 15
    }
  },
  {
    "type": "Feature",
    "geometry": {
      "type": "Point",
      "coordinates": [
        120.62914,
        24.15255
      ]
    },
    "properties": {
      "id": "0401",
      "name": "干城二站",
      "seq": 16
    }
  },
  {
    "type": "Feature",
    "geometry": {
      "type": "Point",
      "coordinates": [
        120.62869,
        24.15447
      ]
    },
    "properties": {
      "id": "0553",
      "name": "幼稚園",
      "seq": 17
    }
  },
  {
    "type": "Feature",
    "geometry": {
      "type": "Point",
      "coordinates": [
        120.63086,
        24.15551
      ]
    },
    "properties": {
      "id": "4178",
      "name": "干城一站",
      "seq": 18
    }
  },
  {
    "type": "Feature",
    "geometry": {
      "type": "Point",
      "coordinates": [
        120.63425,
        24.15747
      ]
    },
    "properties": {
      "id": "0056",
      "name": "黎明國小",
      "seq": 19
    }
  },
  {
    "type": "Feature",
    "geometry": {
      "type": "Point",
      "coordinates": [
        120.60064,
        24.13934
      ]
    },
    "properties": {
      "id": "5796",
      "name": "仁友停車場",
      "seq": 2
    }
  },
  {
    "type": "Feature",
    "geometry": {
      "type": "Point",
      "coordinates": [
        120.63384,
        24.16105
      ]
    },
    "properties": {
      "id": "5155",
      "name": "黎明市政路口",
      "seq": 20
    }
  },
  {
    "type": "Feature",
    "geometry": {
      "type": "Point",
      "coordinates": [
        120.63392,
        24.16294
      ]
    },
    "properties": {
      "id": "5748",
      "name": "黎明龍門路口",
      "seq": 21
    }
  },
  {
    "type": "Feature",
    "geometry": {
      "type": "Point",
      "coordinates": [
        120.63434,
        24.16407
      ]
    },
    "properties": {
      "id": "4645",
      "name": "西屯區公所",
      "seq": 22
    }
  },
  {
    "type": "Feature",
    "geometry": {
      "type": "Point",
      "coordinates": [
        120.63555,
        24.16768
      ]
    },
    "properties": {
      "id": "5158",
      "name": "黎明環河路口",
      "seq": 23
    }
  },
  {
    "type": "Feature",
    "geometry": {
      "type": "Point",
      "coordinates": [
        120.63692,
        24.17183
      ]
    },
    "properties": {
      "id": "0013",
      "name": "朝馬(黎明路)",
      "seq": 24
    }
  },
  {
    "type": "Feature",
    "geometry": {
      "type": "Point",
      "coordinates": [
        120.63751,
        24.17653
      ]
    },
    "properties": {
      "id": "0238",
      "name": "西屯郵局",
      "seq": 25
    }
  },
  {
    "type": "Feature",
    "geometry": {
      "type": "Point",
      "coordinates": [
        120.63752,
        24.17959
      ]
    },
    "properties": {
      "id": "5853",
      "name": "黎明福科路口",
      "seq": 26
    }
  },
  {
    "type": "Feature",
    "geometry": {
      "type": "Point",
      "coordinates": [
        120.63827,
        24.18121
      ]
    },
    "properties": {
      "id": "2175",
      "name": "西屯派出所",
      "seq": 27
    }
  },
  {
    "type": "Feature",
    "geometry": {
      "type": "Point",
      "coordinates": [
        120.64024,
        24.18614
      ]
    },
    "properties": {
      "id": "2192",
      "name": "西苑高中",
      "seq": 28
    }
  },
  {
    "type": "Feature",
    "geometry": {
      "type": "Point",
      "coordinates": [
        120.64441,
        24.18662
      ]
    },
    "properties": {
      "id": "4327",
      "name": "僑光科技大學",
      "seq": 29
    }
  },
  {
    "type": "Feature",
    "geometry": {
      "type": "Point",
      "coordinates": [
        120.60906,
        24.13851
      ]
    },
    "properties": {
      "id": "5162",
      "name": "嶺東科技大學(永春南路)",
      "seq": 3
    }
  },
  {
    "type": "Feature",
    "geometry": {
      "type": "Point",
      "coordinates": [
        120.64473,
        24.18387
      ]
    },
    "properties": {
      "id": "5658",
      "name": "漢翔公司(星享道)",
      "seq": 30
    }
  },
  {
    "type": "Feature",
    "geometry": {
      "type": "Point",
      "coordinates": [
        120.64498,
        24.18152
      ]
    },
    "properties": {
      "id": "4334",
      "name": "福星西安街口",
      "seq": 31
    }
  },
  {
    "type": "Feature",
    "geometry": {
      "type": "Point",
      "coordinates": [
        120.64523,
        24.17923
      ]
    },
    "properties": {
      "id": "4586",
      "name": "逢甲大學(福星路)",
      "seq": 32
    }
  },
  {
    "type": "Feature",
    "geometry": {
      "type": "Point",
      "coordinates": [
        120.64427,
        24.17879
      ]
    },
    "properties": {
      "id": "4585",
      "name": "逢甲大學(逢甲路)",
      "seq": 33
    }
  },
  {
    "type": "Feature",
    "geometry": {
      "type": "Point",
      "coordinates": [
        120.64263,
        24.1774
      ]
    },
    "properties": {
      "id": "0361",
      "name": "大魚池",
      "seq": 34
    }
  },
  {
    "type": "Feature",
    "geometry": {
      "type": "Point",
      "coordinates": [
        120.64359,
        24.17644
      ]
    },
    "properties": {
      "id": "0337",
      "name": "下湳仔",
      "seq": 35
    }
  },
  {
    "type": "Feature",
    "geometry": {
      "type": "Point",
      "coordinates": [
        120.64446,
        24.17439
      ]
    },
    "properties": {
      "id": "0803",
      "name": "頂湳仔",
      "seq": 36
    }
  },
  {
    "type": "Feature",
    "geometry": {
      "type": "Point",
      "coordinates": [
        120.64494,
        24.17317
      ]
    },
    "properties": {
      "id": "4600",
      "name": "西屯河南路口",
      "seq": 37
    }
  },
  {
    "type": "Feature",
    "geometry": {
      "type": "Point",
      "coordinates": [
        120.64638,
        24.17143
      ]
    },
    "properties": {
      "id": "0274",
      "name": "西屯上石路口",
      "seq": 38
    }
  },
  {
    "type": "Feature",
    "geometry": {
      "type": "Point",
      "coordinates": [
        120.64735,
        24.1703
      ]
    },
    "properties": {
      "id": "0273",
      "name": "上石里",
      "seq": 39
    }
  },
  {
    "type": "Feature",
    "geometry": {
      "type": "Point",
      "coordinates": [
        120.61125,
        24.13845
      ]
    },
    "properties": {
      "id": "3874",
      "name": "嶺東高中",
      "seq": 4
    }
  },
  {
    "type": "Feature",
    "geometry": {
      "type": "Point",
      "coordinates": [
        120.64909,
        24.17103
      ]
    },
    "properties": {
      "id": "5711",
      "name": "福星公園",
      "seq": 40
    }
  },
  {
    "type": "Feature",
    "geometry": {
      "type": "Point",
      "coordinates": [
        120.65229,
        24.16963
      ]
    },
    "properties": {
      "id": "5710",
      "name": "長安國小",
      "seq": 41
    }
  },
  {
    "type": "Feature",
    "geometry": {
      "type": "Point",
      "coordinates": [
        120.65579,
        24.16914
      ]
    },
    "properties": {
      "id": "4271",
      "name": "文心甘肅路口",
      "seq": 42
    }
  },
  {
    "type": "Feature",
    "geometry": {
      "type": "Point",
      "coordinates": [
        120.65936,
        24.17099
      ]
    },
    "properties": {
      "id": "4612",
      "name": "文華高中(文心路)",
      "seq": 43
    }
  },
  {
    "type": "Feature",
    "geometry": {
      "type": "Point",
      "coordinates": [
        120.66069,
        24.17149
      ]
    },
    "properties": {
      "id": "4275",
      "name": "文心河南路口",
      "seq": 44
    }
  },
  {
    "type": "Feature",
    "geometry": {
      "type": "Point",
      "coordinates": [
        120.66361,
        24.17237
      ]
    },
    "properties": {
      "id": "0230",
      "name": "重慶國小",
      "seq": 45
    }
  },
  {
    "type": "Feature",
    "geometry": {
      "type": "Point",
      "coordinates": [
        120.6659,
        24.17287
      ]
    },
    "properties": {
      "id": "0229",
      "name": "臺灣日報",
      "seq": 46
    }
  },
  {
    "type": "Feature",
    "geometry": {
      "type": "Point",
      "coordinates": [
        120.66853,
        24.17328
      ]
    },
    "properties": {
      "id": "4355",
      "name": "文心陜西路口",
      "seq": 47
    }
  },
  {
    "type": "Feature",
    "geometry": {
      "type": "Point",
      "coordinates": [
        120.6719,
        24.17142
      ]
    },
    "properties": {
      "id": "0805",
      "name": "頂賴厝",
      "seq": 48
    }
  },
  {
    "type": "Feature",
    "geometry": {
      "type": "Point",
      "coordinates": [
        120.67225,
        24.16994
      ]
    },
    "properties": {
      "id": "1629",
      "name": "天津路商圈",
      "seq": 49
    }
  },
  {
    "type": "Feature",
    "geometry": {
      "type": "Point",
      "coordinates": [
        120.61325,
        24.13881
      ]
    },
    "properties": {
      "id": "4598",
      "name": "春社里(永春路)",
      "seq": 5
    }
  },
  {
    "type": "Feature",
    "geometry": {
      "type": "Point",
      "coordinates": [
        120.67301,
        24.16848
      ]
    },
    "properties": {
      "id": "5737",
      "name": "曉明女中(中清路)",
      "seq": 50
    }
  },
  {
    "type": "Feature",
    "geometry": {
      "type": "Point",
      "coordinates": [
        120.67347,
        24.1664
      ]
    },
    "properties": {
      "id": "5736",
      "name": "中清漢口路口",
      "seq": 51
    }
  },
  {
    "type": "Feature",
    "geometry": {
      "type": "Point",
      "coordinates": [
        120.67415,
        24.16426
      ]
    },
    "properties": {
      "id": "5735",
      "name": "中清太原路口",
      "seq": 52
    }
  },
  {
    "type": "Feature",
    "geometry": {
      "type": "Point",
      "coordinates": [
        120.67495,
        24.16197
      ]
    },
    "properties": {
      "id": "5734",
      "name": "中清忠明路口",
      "seq": 53
    }
  },
  {
    "type": "Feature",
    "geometry": {
      "type": "Point",
      "coordinates": [
        120.67535,
        24.1607
      ]
    },
    "properties": {
      "id": "5733",
      "name": "大道公廟(中清路)",
      "seq": 54
    }
  },
  {
    "type": "Feature",
    "geometry": {
      "type": "Point",
      "coordinates": [
        120.67595,
        24.15858
      ]
    },
    "properties": {
      "id": "5732",
      "name": "中清健行路口",
      "seq": 55
    }
  },
  {
    "type": "Feature",
    "geometry": {
      "type": "Point",
      "coordinates": [
        120.67647,
        24.15693
      ]
    },
    "properties": {
      "id": "0092",
      "name": "邱厝里",
      "seq": 56
    }
  },
  {
    "type": "Feature",
    "geometry": {
      "type": "Point",
      "coordinates": [
        120.67701,
        24.15512
      ]
    },
    "properties": {
      "id": "0481",
      "name": "文莊里",
      "seq": 57
    }
  },
  {
    "type": "Feature",
    "geometry": {
      "type": "Point",
      "coordinates": [
        120.67732,
        24.1525
      ]
    },
    "properties": {
      "id": "0503",
      "name": "臺中二中",
      "seq": 58
    }
  },
  {
    "type": "Feature",
    "geometry": {
      "type": "Point",
      "coordinates": [
        120.67869,
        24.15182
      ]
    },
    "properties": {
      "id": "0145",
      "name": "光大里",
      "seq": 59
    }
  },
  {
    "type": "Feature",
    "geometry": {
      "type": "Point",
      "coordinates": [
        120.62193,
        24.14011
      ]
    },
    "properties": {
      "id": "0910",
      "name": "劉厝里",
      "seq": 6
    }
  },
  {
    "type": "Feature",
    "geometry": {
      "type": "Point",
      "coordinates": [
        120.6802,
        24.15236
      ]
    },
    "properties": {
      "id": "0146",
      "name": "五常里",
      "seq": 60
    }
  },
  {
    "type": "Feature",
    "geometry": {
      "type": "Point",
      "coordinates": [
        120.68396,
        24.15362
      ]
    },
    "properties": {
      "id": "3772",
      "name": "五權學士路口",
      "seq": 61
    }
  },
  {
    "type": "Feature",
    "geometry": {
      "type": "Point",
      "coordinates": [
        120.68569,
        24.15387
      ]
    },
    "properties": {
      "id": "0047",
      "name": "一心市場",
      "seq": 62
    }
  },
  {
    "type": "Feature",
    "geometry": {
      "type": "Point",
      "coordinates": [
        120.68484,
        24.15177
      ]
    },
    "properties": {
      "id": "0046",
      "name": "中友百貨",
      "seq": 63
    }
  },
  {
    "type": "Feature",
    "geometry": {
      "type": "Point",
      "coordinates": [
        120.68377,
        24.14926
      ]
    },
    "properties": {
      "id": "0045",
      "name": "國立臺中科技大學",
      "seq": 64
    }
  },
  {
    "type": "Feature",
    "geometry": {
      "type": "Point",
      "coordinates": [
        120.68226,
        24.1456
      ]
    },
    "properties": {
      "id": "4543",
      "name": "臺中公園(三民路)",
      "seq": 65
    }
  },
  {
    "type": "Feature",
    "geometry": {
      "type": "Point",
      "coordinates": [
        120.68391,
        24.14266
      ]
    },
    "properties": {
      "id": "5670",
      "name": "公園自由路口",
      "seq": 66
    }
  },
  {
    "type": "Feature",
    "geometry": {
      "type": "Point",
      "coordinates": [
        120.68568,
        24.14124
      ]
    },
    "properties": {
      "id": "0402",
      "name": "干城站",
      "seq": 67
    }
  },
  {
    "type": "Feature",
    "geometry": {
      "type": "Point",
      "coordinates": [
        120.68447,
        24.13909
      ]
    },
    "properties": {
      "id": "0443",
      "name": "仁友東站",
      "seq": 68
    }
  },
  {
    "type": "Feature",
    "geometry": {
      "type": "Point",
      "coordinates": [
        120.62653,
        24.14043
      ]
    },
    "properties": {
      "id": "0338",
      "name": "下新生里",
      "seq": 7
    }
  },
  {
    "type": "Feature",
    "geometry": {
      "type": "Point",
      "coordinates": [
        120.63023,
        24.13912
      ]
    },
    "properties": {
      "id": "0198",
      "name": "永定里二站(永春東路)",
      "seq": 8
    }
  },
  {
    "type": "Feature",
    "geometry": {
      "type": "Point",
      "coordinates": [
        120.6324,
        24.13759
      ]
    },
    "properties": {
      "id": "5463",
      "name": "永定里(永春東路)",
      "seq": 9
    }
  }
]
