<?xml version="1.0" encoding="UTF-8" standalone="yes"?>
<BusDynInfo><EssentialInfo><Location><name>TCBUS</name><CenterName>Maxwin</CenterName></Location><UpdateTime>2014-12-20 07:53:57</UpdateTime><CoordinateSystem/></EssentialInfo>
<BusInfo><Stop Id="0827" routeId="108" nameZh="港尾" seqNo="1" pgp="0" terminal="0" districtId="1" GoBack="1" latitude="24.20105" longitude="120.65481" inDis="50" outDis="50" oid="7836" /><Stop Id="1475" routeId="108" nameZh="中清環中路口" seqNo="2" pgp="0" terminal="0" districtId="1" GoBack="1" latitude="24.19826" longitude="120.65636" inDis="40" outDis="40" oid="3573" /><Stop Id="0136" routeId="108" nameZh="下港尾" seqNo="3" pgp="0" terminal="0" districtId="1" GoBack="1" latitude="24.19522" longitude="120.6585" inDis="50" outDis="50" oid="7207" /><Stop Id="2069" routeId="108" nameZh="中清同榮路口" seqNo="4" pgp="0" terminal="0" districtId="1" GoBack="1" latitude="24.19374" longitude="120.65934" inDis="50" outDis="50" oid="13480" /><Stop Id="3293" routeId="108" nameZh="貿易三村" seqNo="5" pgp="0" terminal="0" districtId="1" GoBack="1" latitude="24.19313" longitude="120.65978" inDis="50" outDis="50" oid="3675" /><Stop Id="0708" routeId="108" nameZh="后庄國宅" seqNo="6" pgp="0" terminal="0" districtId="1" GoBack="1" latitude="24.1901" longitude="120.66161" inDis="50" outDis="50" oid="3795" /><Stop Id="0989" routeId="108" nameZh="中清后庄路口" seqNo="7" pgp="0" terminal="0" districtId="1" GoBack="1" latitude="24.18802" longitude="120.66282" inDis="50" outDis="50" oid="3794" /><Stop Id="2638" routeId="108" nameZh="后庄仔" seqNo="8" pgp="0" terminal="0" districtId="1" GoBack="1" latitude="24.18601" longitude="120.66396" inDis="50" outDis="50" oid="311087546" /><Stop Id="0801" routeId="108" nameZh="頂陳平" seqNo="9" pgp="0" terminal="0" districtId="1" GoBack="1" latitude="24.18437" longitude="120.66496" inDis="50" outDis="50" oid="3679" /><Stop Id="0789" routeId="108" nameZh="陳平" seqNo="10" pgp="0" terminal="0" districtId="1" GoBack="1" latitude="24.18285" longitude="120.66571" inDis="50" outDis="50" oid="7452" /><Stop Id="0593" routeId="108" nameZh="全民醫院" seqNo="11" pgp="0" terminal="0" districtId="1" GoBack="1" latitude="24.18129" longitude="120.66638" inDis="50" outDis="50" oid="7059" /><Stop Id="0385" routeId="108" nameZh="大德國中" seqNo="12" pgp="0" terminal="0" districtId="1" GoBack="1" latitude="24.17873" longitude="120.66818" inDis="50" outDis="50" oid="7239" /><Stop Id="5100" routeId="108" nameZh="水湳市場(中清路)" seqNo="13" pgp="0" terminal="0" districtId="1" GoBack="1" latitude="24.17756" longitude="120.66916" inDis="50" outDis="50" oid="319227555" /><Stop Id="0486" routeId="108" nameZh="水湳" seqNo="14" pgp="0" terminal="0" districtId="1" GoBack="1" latitude="24.17636" longitude="120.67008" inDis="30" outDis="30" oid="319227554" /><Stop Id="0334" routeId="108" nameZh="下水湳" seqNo="15" pgp="0" terminal="0" districtId="1" GoBack="1" latitude="24.17553" longitude="120.67078" inDis="50" outDis="50" oid="D69AC0FA54AD4C7599C77BACA548875B" /><Stop Id="0805" routeId="108" nameZh="頂賴厝" seqNo="16" pgp="0" terminal="0" districtId="1" GoBack="1" latitude="24.17202" longitude="120.67156" inDis="50" outDis="50" oid="7464" /><Stop Id="1629" routeId="108" nameZh="天津路商圈" seqNo="17" pgp="0" terminal="0" districtId="1" GoBack="1" latitude="24.17052" longitude="120.67231" inDis="50" outDis="50" oid="3628" /><Stop Id="5737" routeId="108" nameZh="曉明女中(中清路)" seqNo="18" pgp="0" terminal="0" districtId="1" GoBack="1" latitude="24.16755" longitude="120.67314" inDis="50" outDis="50" oid="320660555" /><Stop Id="5736" routeId="108" nameZh="中清漢口路口" seqNo="19" pgp="0" terminal="0" districtId="1" GoBack="1" latitude="24.16643" longitude="120.67329" inDis="50" outDis="50" oid="7554" /><Stop Id="5735" routeId="108" nameZh="中清太原路口" seqNo="20" pgp="0" terminal="0" districtId="1" GoBack="1" latitude="24.16381" longitude="120.6741" inDis="50" outDis="50" oid="7319" /><Stop Id="5734" routeId="108" nameZh="中清忠明路口" seqNo="21" pgp="0" terminal="0" districtId="1" GoBack="1" latitude="24.1623" longitude="120.67483" inDis="50" outDis="50" oid="33F6AB3B4017402F81CDF40E4C53F958" /><Stop Id="5733" routeId="108" nameZh="大道公廟(中清路)" seqNo="22" pgp="0" terminal="0" districtId="1" GoBack="1" latitude="24.16061" longitude="120.67533" inDis="50" outDis="50" oid="913DE806DEE146C38BE56C32FEC939B6" /><Stop Id="5732" routeId="108" nameZh="中清健行路口" seqNo="23" pgp="0" terminal="0" districtId="1" GoBack="1" latitude="24.15875" longitude="120.67591" inDis="50" outDis="50" oid="7393" /><Stop Id="0092" routeId="108" nameZh="邱厝里" seqNo="24" pgp="0" terminal="0" districtId="1" GoBack="1" latitude="24.15651" longitude="120.67678" inDis="50" outDis="50" oid="7142" /><Stop Id="0481" routeId="108" nameZh="文莊里" seqNo="25" pgp="0" terminal="0" districtId="1" GoBack="1" latitude="24.15433" longitude="120.67737" inDis="50" outDis="50" oid="7328" /><Stop Id="0503" routeId="108" nameZh="臺中二中" seqNo="26" pgp="0" terminal="0" districtId="1" GoBack="1" latitude="24.15243" longitude="120.6773" inDis="50" outDis="50" oid="E1B6DA23FAD64304BB4C88B430F99349" /><Stop Id="0145" routeId="108" nameZh="光大里" seqNo="27" pgp="0" terminal="0" districtId="1" GoBack="1" latitude="24.15201" longitude="120.67901" inDis="50" outDis="50" oid="7731" /><Stop Id="0146" routeId="108" nameZh="五常里" seqNo="28" pgp="0" terminal="0" districtId="1" GoBack="1" latitude="24.15249" longitude="120.68031" inDis="50" outDis="50" oid="10735" /><Stop Id="3772" routeId="108" nameZh="五權學士路口" seqNo="29" pgp="0" terminal="0" districtId="1" GoBack="1" latitude="24.15386" longitude="120.68375" inDis="50" outDis="50" oid="11182" /><Stop Id="0047" routeId="108" nameZh="一心市場" seqNo="30" pgp="0" terminal="0" districtId="1" GoBack="1" latitude="24.1541" longitude="120.68578" inDis="50" outDis="50" oid="7185" /><Stop Id="0046" routeId="108" nameZh="中友百貨" seqNo="31" pgp="0" terminal="0" districtId="1" GoBack="1" latitude="24.15198" longitude="120.68502" inDis="50" outDis="50" oid="7252" /><Stop Id="0045" routeId="108" nameZh="國立臺中科技大學" seqNo="32" pgp="0" terminal="0" districtId="1" GoBack="1" latitude="24.14893" longitude="120.68372" inDis="50" outDis="50" oid="7354" /><Stop Id="4543" routeId="108" nameZh="臺中公園(三民路)" seqNo="33" pgp="0" terminal="0" districtId="1" GoBack="1" latitude="24.14507" longitude="120.68212" inDis="50" outDis="50" oid="7313" /><Stop Id="5506" routeId="108" nameZh="光復國小(三民路)" seqNo="34" pgp="0" terminal="0" districtId="1" GoBack="1" latitude="24.14411" longitude="120.6814" inDis="50" outDis="50" oid="91837E9FC9B247A08387B0A29626EDC9" /><Stop Id="4609" routeId="108" nameZh="第二市場(三民路)" seqNo="35" pgp="0" terminal="0" districtId="1" GoBack="1" latitude="24.14287" longitude="120.67999" inDis="50" outDis="50" oid="5763C3AD6F414066A086CA2BD9FBF7BA" /><Stop Id="5026" routeId="108" nameZh="美榮藥局" seqNo="36" pgp="0" terminal="0" districtId="1" GoBack="1" latitude="24.14131" longitude="120.67838" inDis="50" outDis="50" oid="309504377" /><Stop Id="4416" routeId="108" nameZh="臺中州廳" seqNo="37" pgp="0" terminal="0" districtId="1" GoBack="1" latitude="24.1391" longitude="120.67848" inDis="50" outDis="50" oid="6DA05825CE704FBB9B2BF69FECA70245" /><Stop Id="0215" routeId="108" nameZh="合作金庫" seqNo="38" pgp="0" terminal="0" districtId="1" GoBack="1" latitude="24.13835" longitude="120.68043" inDis="50" outDis="50" oid="8159" /><Stop Id="0216" routeId="108" nameZh="彰化銀行(自由路)" seqNo="39" pgp="0" terminal="0" districtId="1" GoBack="1" latitude="24.1397" longitude="120.68172" inDis="50" outDis="50" oid="6ADAC683C94A4B6CA183F1DF21164DBB" /><Stop Id="0041" routeId="108" nameZh="臺中火車站" seqNo="40" pgp="0" terminal="0" districtId="1" GoBack="1" latitude="24.13726" longitude="120.6846" inDis="50" outDis="50" oid="10F4F024E5254045AE0911F852803D41" /><Stop Id="0049" routeId="108" nameZh="第三市場(臺中家商)" seqNo="41" pgp="0" terminal="0" districtId="1" GoBack="1" latitude="24.13256" longitude="120.68392" inDis="50" outDis="50" oid="7448" /><Stop Id="0257" routeId="108" nameZh="臺中國小" seqNo="42" pgp="0" terminal="0" districtId="1" GoBack="1" latitude="24.13026" longitude="120.68502" inDis="50" outDis="50" oid="7005" /><Stop Id="5607" routeId="108" nameZh="興大附農(臺中路)" seqNo="43" pgp="0" terminal="0" districtId="1" GoBack="1" latitude="24.12749" longitude="120.6844" inDis="50" outDis="50" oid="5559" /><Stop Id="0255" routeId="108" nameZh="南門仔" seqNo="44" pgp="0" terminal="0" districtId="1" GoBack="1" latitude="24.1254" longitude="120.68421" inDis="50" outDis="50" oid="7415" /><Stop Id="0254" routeId="108" nameZh="明德高中" seqNo="45" pgp="0" terminal="0" districtId="1" GoBack="1" latitude="24.12291" longitude="120.68412" inDis="50" outDis="50" oid="7117" /><Stop Id="2591" routeId="108" nameZh="南門橋頭" seqNo="46" pgp="0" terminal="0" districtId="1" GoBack="1" latitude="24.1212" longitude="120.68664" inDis="50" outDis="50" oid="7156" /><Stop Id="3281" routeId="108" nameZh="菸葉廠" seqNo="47" pgp="0" terminal="0" districtId="1" GoBack="1" latitude="24.11794" longitude="120.68957" inDis="50" outDis="50" oid="7493" /><Stop Id="3280" routeId="108" nameZh="菩提醫院" seqNo="48" pgp="0" terminal="0" districtId="1" GoBack="1" latitude="24.11508" longitude="120.68958" inDis="50" outDis="50" oid="7490" /><Stop Id="5485" routeId="108" nameZh="中興內新街口" seqNo="49" pgp="0" terminal="0" districtId="1" GoBack="1" latitude="24.11408" longitude="120.68974" inDis="50" outDis="50" oid="314655296" /><Stop Id="2691" routeId="108" nameZh="省農會" seqNo="50" pgp="0" terminal="0" districtId="1" GoBack="1" latitude="24.1125" longitude="120.68986" inDis="50" outDis="50" oid="7173" /><Stop Id="1576" routeId="108" nameZh="內新市場" seqNo="51" pgp="0" terminal="0" districtId="1" GoBack="1" latitude="24.11107" longitude="120.68993" inDis="50" outDis="50" oid="7298" /><Stop Id="1363" routeId="108" nameZh="中興大里路口" seqNo="52" pgp="0" terminal="0" districtId="1" GoBack="1" latitude="24.10863" longitude="120.69003" inDis="50" outDis="50" oid="7237" /><Stop Id="2026" routeId="108" nameZh="立人高中" seqNo="53" pgp="0" terminal="0" districtId="1" GoBack="1" latitude="24.10584" longitude="120.68941" inDis="50" outDis="50" oid="7054" /><Stop Id="1126" routeId="108" nameZh="下內新" seqNo="54" pgp="0" terminal="0" districtId="1" GoBack="1" latitude="24.10257" longitude="120.68864" inDis="50" outDis="50" oid="7202" /><Stop Id="5151" routeId="108" nameZh="兒童藝術館(中興路)" seqNo="55" pgp="0" terminal="0" districtId="1" GoBack="1" latitude="24.10002" longitude="120.6879" inDis="50" outDis="50" oid="12580" /><Stop Id="1322" routeId="108" nameZh="大突寮(中興路)" seqNo="56" pgp="0" terminal="0" districtId="1" GoBack="1" latitude="24.09735" longitude="120.68694" inDis="50" outDis="50" oid="309974047" /><Stop Id="4661" routeId="108" nameZh="中興仁化路口" seqNo="57" pgp="0" terminal="0" districtId="1" GoBack="1" latitude="24.09192" longitude="120.69146" inDis="50" outDis="50" oid="7291" /><Stop Id="4286" routeId="108" nameZh="青年高中" seqNo="58" pgp="0" terminal="0" districtId="1" GoBack="1" latitude="24.08994" longitude="120.69371" inDis="50" outDis="50" oid="7143" /><Stop Id="4253" routeId="108" nameZh="大里圖書館(中興路)" seqNo="59" pgp="0" terminal="0" districtId="1" GoBack="1" latitude="24.08754" longitude="120.69597" inDis="50" outDis="50" oid="7170" /><Stop Id="2866" routeId="108" nameZh="草湖" seqNo="60" pgp="0" terminal="0" districtId="1" GoBack="1" latitude="24.08404" longitude="120.69725" inDis="50" outDis="50" oid="7384" /><Stop Id="4349" routeId="108" nameZh="中興東南路口" seqNo="61" pgp="0" terminal="0" districtId="1" GoBack="1" latitude="24.08061" longitude="120.69827" inDis="50" outDis="50" oid="7386" /><Stop Id="2062" routeId="108" nameZh="中正吉峰路口" seqNo="62" pgp="0" terminal="0" districtId="1" GoBack="1" latitude="24.07654" longitude="120.69952" inDis="50" outDis="50" oid="7066" /><Stop Id="3980" routeId="108" nameZh="霧峰農工" seqNo="63" pgp="0" terminal="0" districtId="1" GoBack="1" latitude="24.07332" longitude="120.69986" inDis="50" outDis="50" oid="7632" /><Stop Id="1994" routeId="108" nameZh="甲寅" seqNo="64" pgp="0" terminal="0" districtId="1" GoBack="1" latitude="24.0697" longitude="120.69928" inDis="50" outDis="50" oid="311784445" /><Stop Id="4972" routeId="108" nameZh="中正草湖路口" seqNo="65" pgp="0" terminal="0" districtId="1" GoBack="1" latitude="24.067" longitude="120.6989" inDis="50" outDis="50" oid="7027" /><Stop Id="4930" routeId="108" nameZh="霧峰農會" seqNo="66" pgp="0" terminal="0" districtId="1" GoBack="1" latitude="24.06471" longitude="120.69797" inDis="50" outDis="50" oid="308835185" /><Stop Id="5754" routeId="108" nameZh="林森育賢路口" seqNo="67" pgp="0" terminal="0" districtId="1" GoBack="1" latitude="24.06142" longitude="120.69518" inDis="50" outDis="50" oid="320825245" /><Stop Id="5200" routeId="108" nameZh="福新柳豐路口" seqNo="68" pgp="0" terminal="0" districtId="1" GoBack="1" latitude="24.05166" longitude="120.68497" inDis="50" outDis="50" oid="310785356" /><Stop Id="5529" routeId="108" nameZh="亞洲大學安藤館" seqNo="69" pgp="0" terminal="0" districtId="1" GoBack="1" latitude="24.04725" longitude="120.68727" inDis="50" outDis="50" oid="303699003" /><Stop Id="4413" routeId="108" nameZh="王厝" seqNo="70" pgp="0" terminal="0" districtId="1" GoBack="1" latitude="24.04377" longitude="120.6886" inDis="50" outDis="50" oid="304270266" /><Stop Id="4629" routeId="108" nameZh="光復國中小(柳豐路)" seqNo="71" pgp="0" terminal="0" districtId="1" GoBack="1" latitude="24.04362" longitude="120.68868" inDis="50" outDis="50" oid="304270268" /><Stop Id="1588" routeId="108" nameZh="六股" seqNo="72" pgp="0" terminal="0" districtId="1" GoBack="1" latitude="24.04138" longitude="120.69181" inDis="50" outDis="50" oid="7300" /><Stop Id="1400" routeId="108" nameZh="山腳巷" seqNo="73" pgp="0" terminal="0" districtId="1" GoBack="1" latitude="24.03852" longitude="120.69304" inDis="50" outDis="50" oid="7929" /><Stop Id="2304" routeId="108" nameZh="味全工廠" seqNo="74" pgp="0" terminal="0" districtId="1" GoBack="1" latitude="24.0341" longitude="120.69407" inDis="50" outDis="50" oid="7101" /><Stop Id="3533" routeId="108" nameZh="農試所" seqNo="75" pgp="0" terminal="0" districtId="1" GoBack="1" latitude="24.02948" longitude="120.69681" inDis="50" outDis="50" oid="9898" /><Stop Id="3504" routeId="108" nameZh="萬豐" seqNo="76" pgp="0" terminal="0" districtId="1" GoBack="1" latitude="24.0259" longitude="120.6967" inDis="50" outDis="50" oid="7534" /><Stop Id="4410" routeId="108" nameZh="全家福社區" seqNo="77" pgp="0" terminal="0" districtId="1" GoBack="1" latitude="24.02414" longitude="120.69653" inDis="50" outDis="50" oid="304286679" /><Stop Id="3944" routeId="108" nameZh="豐營" seqNo="78" pgp="0" terminal="0" districtId="1" GoBack="1" latitude="24.02091" longitude="120.69632" inDis="50" outDis="50" oid="311348105" /><Stop Id="3534" routeId="108" nameZh="農試所宿舍" seqNo="79" pgp="0" terminal="0" districtId="1" GoBack="1" latitude="24.0173" longitude="120.69604" inDis="50" outDis="50" oid="6505" /><Stop Id="0061" routeId="108" nameZh="舊正" seqNo="80" pgp="0" terminal="0" districtId="1" GoBack="1" latitude="24.01476" longitude="120.6957" inDis="50" outDis="50" oid="311087547" /><Stop Id="2585" routeId="108" nameZh="南岸" seqNo="81" pgp="0" terminal="0" districtId="1" GoBack="1" latitude="24.00531" longitude="120.69472" inDis="50" outDis="50" oid="10310" /><Stop Id="2072" routeId="108" nameZh="同德家商" seqNo="82" pgp="0" terminal="0" districtId="1" GoBack="1" latitude="24.00217" longitude="120.69169" inDis="50" outDis="50" oid="10296" /><Stop Id="4729" routeId="108" nameZh="中正御富路口" seqNo="83" pgp="0" terminal="0" districtId="1" GoBack="1" latitude="23.99762" longitude="120.68953" inDis="50" outDis="50" oid="306695414" /><Stop Id="3437" routeId="108" nameZh="新豐" seqNo="84" pgp="0" terminal="0" districtId="1" GoBack="1" latitude="23.99426" longitude="120.6885" inDis="50" outDis="50" oid="7529" /><Stop Id="3798" routeId="108" nameZh="御史里" seqNo="85" pgp="0" terminal="0" districtId="1" GoBack="1" latitude="23.99065" longitude="120.68787" inDis="50" outDis="50" oid="6627" /><Stop Id="4730" routeId="108" nameZh="惠和醫院" seqNo="86" pgp="0" terminal="0" districtId="1" GoBack="1" latitude="23.98492" longitude="120.68657" inDis="50" outDis="50" oid="306695510" /><Stop Id="1381" routeId="108" nameZh="大觀" seqNo="87" pgp="0" terminal="0" districtId="1" GoBack="1" latitude="23.98166" longitude="120.68473" inDis="50" outDis="50" oid="8476" /><Stop Id="4731" routeId="108" nameZh="草屯第一銀行" seqNo="88" pgp="0" terminal="0" districtId="1" GoBack="1" latitude="23.97659" longitude="120.68386" inDis="50" outDis="50" oid="306695511" /><Stop Id="4731" routeId="108" nameZh="草屯第一銀行" seqNo="1" pgp="0" terminal="0" districtId="1" GoBack="2" latitude="23.97659" longitude="120.68386" inDis="50" outDis="50" oid="306695511" /><Stop Id="1381" routeId="108" nameZh="大觀" seqNo="2" pgp="0" terminal="0" districtId="1" GoBack="2" latitude="23.98166" longitude="120.68473" inDis="50" outDis="50" oid="8476" /><Stop Id="4730" routeId="108" nameZh="惠和醫院" seqNo="3" pgp="0" terminal="0" districtId="1" GoBack="2" latitude="23.98492" longitude="120.68657" inDis="50" outDis="50" oid="306695510" /><Stop Id="3798" routeId="108" nameZh="御史里" seqNo="4" pgp="0" terminal="0" districtId="1" GoBack="2" latitude="23.99065" longitude="120.68787" inDis="50" outDis="50" oid="6627" /><Stop Id="3437" routeId="108" nameZh="新豐" seqNo="5" pgp="0" terminal="0" districtId="1" GoBack="2" latitude="23.99426" longitude="120.6885" inDis="50" outDis="50" oid="7529" /><Stop Id="4729" routeId="108" nameZh="中正御富路口" seqNo="6" pgp="0" terminal="0" districtId="1" GoBack="2" latitude="23.99762" longitude="120.68953" inDis="50" outDis="50" oid="306695414" /><Stop Id="2072" routeId="108" nameZh="同德家商" seqNo="7" pgp="0" terminal="0" districtId="1" GoBack="2" latitude="24.00217" longitude="120.69169" inDis="50" outDis="50" oid="10296" /><Stop Id="2585" routeId="108" nameZh="南岸" seqNo="8" pgp="0" terminal="0" districtId="1" GoBack="2" latitude="24.00531" longitude="120.69472" inDis="50" outDis="50" oid="10310" /><Stop Id="0061" routeId="108" nameZh="舊正" seqNo="9" pgp="0" terminal="0" districtId="1" GoBack="2" latitude="24.01476" longitude="120.6957" inDis="50" outDis="50" oid="311087547" /><Stop Id="3534" routeId="108" nameZh="農試所宿舍" seqNo="10" pgp="0" terminal="0" districtId="1" GoBack="2" latitude="24.0173" longitude="120.69604" inDis="50" outDis="50" oid="6505" /><Stop Id="3944" routeId="108" nameZh="豐營" seqNo="11" pgp="0" terminal="0" districtId="1" GoBack="2" latitude="24.02091" longitude="120.69632" inDis="50" outDis="50" oid="311348105" /><Stop Id="4410" routeId="108" nameZh="全家福社區" seqNo="12" pgp="0" terminal="0" districtId="1" GoBack="2" latitude="24.02414" longitude="120.69653" inDis="50" outDis="50" oid="304286679" /><Stop Id="3504" routeId="108" nameZh="萬豐" seqNo="13" pgp="0" terminal="0" districtId="1" GoBack="2" latitude="24.0259" longitude="120.6967" inDis="50" outDis="50" oid="7534" /><Stop Id="3533" routeId="108" nameZh="農試所" seqNo="14" pgp="0" terminal="0" districtId="1" GoBack="2" latitude="24.02934" longitude="120.6968" inDis="50" outDis="50" oid="6504" /><Stop Id="2304" routeId="108" nameZh="味全工廠" seqNo="15" pgp="0" terminal="0" districtId="1" GoBack="2" latitude="24.0341" longitude="120.69407" inDis="50" outDis="50" oid="7101" /><Stop Id="1400" routeId="108" nameZh="山腳巷" seqNo="16" pgp="0" terminal="0" districtId="1" GoBack="2" latitude="24.03852" longitude="120.69304" inDis="50" outDis="50" oid="5295" /><Stop Id="1588" routeId="108" nameZh="六股" seqNo="17" pgp="0" terminal="0" districtId="1" GoBack="2" latitude="24.04138" longitude="120.69181" inDis="50" outDis="50" oid="7300" /><Stop Id="4629" routeId="108" nameZh="光復國中小(柳豐路)" seqNo="18" pgp="0" terminal="0" districtId="1" GoBack="2" latitude="24.04362" longitude="120.68868" inDis="50" outDis="50" oid="304270268" /><Stop Id="4413" routeId="108" nameZh="王厝" seqNo="19" pgp="0" terminal="0" districtId="1" GoBack="2" latitude="24.04377" longitude="120.6886" inDis="50" outDis="50" oid="304270266" /><Stop Id="5529" routeId="108" nameZh="亞洲大學安藤館" seqNo="20" pgp="0" terminal="0" districtId="1" GoBack="2" latitude="24.04725" longitude="120.68727" inDis="50" outDis="50" oid="303699003" /><Stop Id="5200" routeId="108" nameZh="福新柳豐路口" seqNo="21" pgp="0" terminal="0" districtId="1" GoBack="2" latitude="24.05166" longitude="120.68497" inDis="50" outDis="50" oid="310785357" /><Stop Id="5754" routeId="108" nameZh="林森育賢路口" seqNo="22" pgp="0" terminal="0" districtId="1" GoBack="2" latitude="24.06133" longitude="120.6954" inDis="50" outDis="50" oid="320825246" /><Stop Id="4930" routeId="108" nameZh="霧峰農會" seqNo="23" pgp="0" terminal="0" districtId="1" GoBack="2" latitude="24.06465" longitude="120.69791" inDis="50" outDis="50" oid="308835186" /><Stop Id="4972" routeId="108" nameZh="中正草湖路口" seqNo="24" pgp="0" terminal="0" districtId="1" GoBack="2" latitude="24.067" longitude="120.6989" inDis="50" outDis="50" oid="7027" /><Stop Id="1994" routeId="108" nameZh="甲寅" seqNo="25" pgp="0" terminal="0" districtId="1" GoBack="2" latitude="24.07032" longitude="120.69939" inDis="50" outDis="50" oid="7048" /><Stop Id="3980" routeId="108" nameZh="霧峰農工" seqNo="26" pgp="0" terminal="0" districtId="1" GoBack="2" latitude="24.07332" longitude="120.69986" inDis="50" outDis="50" oid="7632" /><Stop Id="2062" routeId="108" nameZh="中正吉峰路口" seqNo="27" pgp="0" terminal="0" districtId="1" GoBack="2" latitude="24.07654" longitude="120.69952" inDis="50" outDis="50" oid="7066" /><Stop Id="4349" routeId="108" nameZh="中興東南路口" seqNo="28" pgp="0" terminal="0" districtId="1" GoBack="2" latitude="24.08061" longitude="120.69827" inDis="50" outDis="50" oid="7386" /><Stop Id="2866" routeId="108" nameZh="草湖" seqNo="29" pgp="0" terminal="0" districtId="1" GoBack="2" latitude="24.08404" longitude="120.69725" inDis="50" outDis="50" oid="7384" /><Stop Id="5034" routeId="108" nameZh="財政部印刷廠" seqNo="30" pgp="0" terminal="0" districtId="1" GoBack="2" latitude="24.08663" longitude="120.69635" inDis="50" outDis="50" oid="309557183" /><Stop Id="4253" routeId="108" nameZh="大里圖書館(中興路)" seqNo="31" pgp="0" terminal="0" districtId="1" GoBack="2" latitude="24.08862" longitude="120.6954" inDis="50" outDis="50" oid="7169" /><Stop Id="4286" routeId="108" nameZh="青年高中" seqNo="32" pgp="0" terminal="0" districtId="1" GoBack="2" latitude="24.08994" longitude="120.69371" inDis="50" outDis="50" oid="7143" /><Stop Id="4661" routeId="108" nameZh="中興仁化路口" seqNo="33" pgp="0" terminal="0" districtId="1" GoBack="2" latitude="24.09192" longitude="120.69146" inDis="50" outDis="50" oid="7291" /><Stop Id="1322" routeId="108" nameZh="大突寮(中興路)" seqNo="34" pgp="0" terminal="0" districtId="1" GoBack="2" latitude="24.09735" longitude="120.68694" inDis="50" outDis="50" oid="309974047" /><Stop Id="5151" routeId="108" nameZh="兒童藝術館(中興路)" seqNo="35" pgp="0" terminal="0" districtId="1" GoBack="2" latitude="24.10002" longitude="120.6879" inDis="50" outDis="50" oid="12580" /><Stop Id="1126" routeId="108" nameZh="下內新" seqNo="36" pgp="0" terminal="0" districtId="1" GoBack="2" latitude="24.10257" longitude="120.68864" inDis="50" outDis="50" oid="7202" /><Stop Id="2026" routeId="108" nameZh="立人高中" seqNo="37" pgp="0" terminal="0" districtId="1" GoBack="2" latitude="24.10584" longitude="120.68941" inDis="50" outDis="50" oid="7054" /><Stop Id="1363" routeId="108" nameZh="中興大里路口" seqNo="38" pgp="0" terminal="0" districtId="1" GoBack="2" latitude="24.10863" longitude="120.69003" inDis="50" outDis="50" oid="7237" /><Stop Id="1576" routeId="108" nameZh="內新市場" seqNo="39" pgp="0" terminal="0" districtId="1" GoBack="2" latitude="24.11107" longitude="120.68993" inDis="50" outDis="50" oid="7298" /><Stop Id="2691" routeId="108" nameZh="省農會" seqNo="40" pgp="0" terminal="0" districtId="1" GoBack="2" latitude="24.1125" longitude="120.68986" inDis="50" outDis="50" oid="7173" /><Stop Id="5485" routeId="108" nameZh="中興內新街口" seqNo="41" pgp="0" terminal="0" districtId="1" GoBack="2" latitude="24.11408" longitude="120.68974" inDis="50" outDis="50" oid="314655296" /><Stop Id="3280" routeId="108" nameZh="菩提醫院" seqNo="42" pgp="0" terminal="0" districtId="1" GoBack="2" latitude="24.11508" longitude="120.68958" inDis="50" outDis="50" oid="7490" /><Stop Id="3281" routeId="108" nameZh="菸葉廠" seqNo="43" pgp="0" terminal="0" districtId="1" GoBack="2" latitude="24.11794" longitude="120.68957" inDis="50" outDis="50" oid="7493" /><Stop Id="2591" routeId="108" nameZh="南門橋頭" seqNo="44" pgp="0" terminal="0" districtId="1" GoBack="2" latitude="24.1212" longitude="120.68664" inDis="50" outDis="50" oid="7156" /><Stop Id="0254" routeId="108" nameZh="明德高中" seqNo="45" pgp="0" terminal="0" districtId="1" GoBack="2" latitude="24.12291" longitude="120.68412" inDis="50" outDis="50" oid="7117" /><Stop Id="0255" routeId="108" nameZh="南門仔" seqNo="46" pgp="0" terminal="0" districtId="1" GoBack="2" latitude="24.1254" longitude="120.68421" inDis="50" outDis="50" oid="7415" /><Stop Id="5607" routeId="108" nameZh="興大附農(臺中路)" seqNo="47" pgp="0" terminal="0" districtId="1" GoBack="2" latitude="24.12981" longitude="120.68556" inDis="50" outDis="50" oid="313888518" /><Stop Id="0257" routeId="108" nameZh="臺中國小" seqNo="48" pgp="0" terminal="0" districtId="1" GoBack="2" latitude="24.13026" longitude="120.68502" inDis="50" outDis="50" oid="7005" /><Stop Id="0049" routeId="108" nameZh="第三市場(臺中家商)" seqNo="49" pgp="0" terminal="0" districtId="1" GoBack="2" latitude="24.13256" longitude="120.68392" inDis="50" outDis="50" oid="7448" /><Stop Id="0041" routeId="108" nameZh="臺中火車站" seqNo="50" pgp="0" terminal="0" districtId="1" GoBack="2" latitude="24.13726" longitude="120.6846" inDis="50" outDis="50" oid="10F4F024E5254045AE0911F852803D41" /><Stop Id="0151" routeId="108" nameZh="第一廣場" seqNo="51" pgp="0" terminal="0" districtId="1" GoBack="2" latitude="24.13897" longitude="120.68358" inDis="50" outDis="50" oid="7436" /><Stop Id="4401" routeId="108" nameZh="彰化銀行(臺灣大道)" seqNo="52" pgp="0" terminal="0" districtId="1" GoBack="2" latitude="24.13985" longitude="120.68261" inDis="50" outDis="30" oid="AD006E5F67DD4A0AB2BF329BE61E5289" /><Stop Id="0206" routeId="108" nameZh="第一信用" seqNo="53" pgp="0" terminal="0" districtId="1" GoBack="2" latitude="24.14036" longitude="120.68202" inDis="50" outDis="50" oid="7432" /><Stop Id="4395" routeId="108" nameZh="第二市場(臺灣大道)" seqNo="54" pgp="0" terminal="0" districtId="1" GoBack="2" latitude="24.14193" longitude="120.67991" inDis="50" outDis="50" oid="591F9DC7715E426C9BB691D4D62260D3" /><Stop Id="5506" routeId="108" nameZh="光復國小(三民路)" seqNo="55" pgp="0" terminal="0" districtId="1" GoBack="2" latitude="24.14368" longitude="120.68091" inDis="50" outDis="50" oid="8A3D17D8A606447DAE64873A8642C36F" /><Stop Id="4543" routeId="108" nameZh="臺中公園(三民路)" seqNo="56" pgp="0" terminal="0" districtId="1" GoBack="2" latitude="24.14507" longitude="120.68212" inDis="50" outDis="50" oid="7313" /><Stop Id="0045" routeId="108" nameZh="國立臺中科技大學" seqNo="57" pgp="0" terminal="0" districtId="1" GoBack="2" latitude="24.14893" longitude="120.68372" inDis="50" outDis="50" oid="7354" /><Stop Id="0046" routeId="108" nameZh="中友百貨" seqNo="58" pgp="0" terminal="0" districtId="1" GoBack="2" latitude="24.15198" longitude="120.68502" inDis="50" outDis="50" oid="7252" /><Stop Id="3772" routeId="108" nameZh="五權學士路口" seqNo="59" pgp="0" terminal="0" districtId="1" GoBack="2" latitude="24.15372" longitude="120.68385" inDis="50" outDis="50" oid="13334" /><Stop Id="0146" routeId="108" nameZh="五常里" seqNo="60" pgp="0" terminal="0" districtId="1" GoBack="2" latitude="24.15249" longitude="120.68031" inDis="50" outDis="50" oid="10735" /><Stop Id="0145" routeId="108" nameZh="光大里" seqNo="61" pgp="0" terminal="0" districtId="1" GoBack="2" latitude="24.15201" longitude="120.67901" inDis="50" outDis="50" oid="7731" /><Stop Id="0503" routeId="108" nameZh="臺中二中" seqNo="62" pgp="0" terminal="0" districtId="1" GoBack="2" latitude="24.15234" longitude="120.6774" inDis="50" outDis="50" oid="8244" /><Stop Id="0481" routeId="108" nameZh="文莊里" seqNo="63" pgp="0" terminal="0" districtId="1" GoBack="2" latitude="24.15433" longitude="120.67737" inDis="50" outDis="50" oid="7328" /><Stop Id="0092" routeId="108" nameZh="邱厝里" seqNo="64" pgp="0" terminal="0" districtId="1" GoBack="2" latitude="24.15651" longitude="120.67678" inDis="50" outDis="50" oid="7142" /><Stop Id="5732" routeId="108" nameZh="中清健行路口" seqNo="65" pgp="0" terminal="0" districtId="1" GoBack="2" latitude="24.15875" longitude="120.67591" inDis="50" outDis="50" oid="7393" /><Stop Id="5733" routeId="108" nameZh="大道公廟(中清路)" seqNo="66" pgp="0" terminal="0" districtId="1" GoBack="2" latitude="24.16061" longitude="120.67533" inDis="50" outDis="50" oid="913DE806DEE146C38BE56C32FEC939B6" /><Stop Id="5734" routeId="108" nameZh="中清忠明路口" seqNo="67" pgp="0" terminal="0" districtId="1" GoBack="2" latitude="24.1623" longitude="120.67483" inDis="50" outDis="50" oid="33F6AB3B4017402F81CDF40E4C53F958" /><Stop Id="5735" routeId="108" nameZh="中清太原路口" seqNo="68" pgp="0" terminal="0" districtId="1" GoBack="2" latitude="24.16381" longitude="120.6741" inDis="50" outDis="50" oid="7319" /><Stop Id="5736" routeId="108" nameZh="中清漢口路口" seqNo="69" pgp="0" terminal="0" districtId="1" GoBack="2" latitude="24.16643" longitude="120.67329" inDis="50" outDis="50" oid="7554" /><Stop Id="5737" routeId="108" nameZh="曉明女中(中清路)" seqNo="70" pgp="0" terminal="0" districtId="1" GoBack="2" latitude="24.16755" longitude="120.67314" inDis="50" outDis="50" oid="320660555" /><Stop Id="1629" routeId="108" nameZh="天津路商圈" seqNo="71" pgp="0" terminal="0" districtId="1" GoBack="2" latitude="24.16994" longitude="120.67225" inDis="50" outDis="50" oid="A19B9A6531364F6685DE0857F44C0D1F" /><Stop Id="0805" routeId="108" nameZh="頂賴厝" seqNo="72" pgp="0" terminal="0" districtId="1" GoBack="2" latitude="24.17202" longitude="120.67156" inDis="50" outDis="50" oid="7464" /><Stop Id="0334" routeId="108" nameZh="下水湳" seqNo="73" pgp="0" terminal="0" districtId="1" GoBack="2" latitude="24.17535" longitude="120.67095" inDis="50" outDis="50" oid="6B4F9E33C8B446F0B9B8A76F51303F0C" /><Stop Id="0486" routeId="108" nameZh="水湳" seqNo="74" pgp="0" terminal="0" districtId="1" GoBack="2" latitude="24.17636" longitude="120.67008" inDis="30" outDis="30" oid="308022314" /><Stop Id="5100" routeId="108" nameZh="水湳市場(中清路)" seqNo="75" pgp="0" terminal="0" districtId="1" GoBack="2" latitude="24.17756" longitude="120.66916" inDis="50" outDis="50" oid="319227555" /><Stop Id="0385" routeId="108" nameZh="大德國中" seqNo="76" pgp="0" terminal="0" districtId="1" GoBack="2" latitude="24.17873" longitude="120.66818" inDis="50" outDis="50" oid="7239" /><Stop Id="0593" routeId="108" nameZh="全民醫院" seqNo="77" pgp="0" terminal="0" districtId="1" GoBack="2" latitude="24.18129" longitude="120.66638" inDis="50" outDis="50" oid="7059" /><Stop Id="0789" routeId="108" nameZh="陳平" seqNo="78" pgp="0" terminal="0" districtId="1" GoBack="2" latitude="24.18285" longitude="120.66571" inDis="50" outDis="50" oid="7452" /><Stop Id="0801" routeId="108" nameZh="頂陳平" seqNo="79" pgp="0" terminal="0" districtId="1" GoBack="2" latitude="24.18437" longitude="120.66496" inDis="50" outDis="50" oid="3679" /><Stop Id="2638" routeId="108" nameZh="后庄仔" seqNo="80" pgp="0" terminal="0" districtId="1" GoBack="2" latitude="24.18601" longitude="120.66396" inDis="50" outDis="50" oid="311087546" /><Stop Id="0989" routeId="108" nameZh="中清后庄路口" seqNo="81" pgp="0" terminal="0" districtId="1" GoBack="2" latitude="24.18802" longitude="120.66282" inDis="50" outDis="50" oid="3794" /><Stop Id="0708" routeId="108" nameZh="后庄國宅" seqNo="82" pgp="0" terminal="0" districtId="1" GoBack="2" latitude="24.1901" longitude="120.66161" inDis="50" outDis="50" oid="3795" /><Stop Id="3293" routeId="108" nameZh="貿易三村" seqNo="83" pgp="0" terminal="0" districtId="1" GoBack="2" latitude="24.19313" longitude="120.65978" inDis="50" outDis="50" oid="3675" /><Stop Id="2069" routeId="108" nameZh="中清同榮路口" seqNo="84" pgp="0" terminal="0" districtId="1" GoBack="2" latitude="24.19374" longitude="120.65934" inDis="50" outDis="50" oid="13480" /><Stop Id="0136" routeId="108" nameZh="下港尾" seqNo="85" pgp="0" terminal="0" districtId="1" GoBack="2" latitude="24.19522" longitude="120.6585" inDis="50" outDis="50" oid="7207" /><Stop Id="1475" routeId="108" nameZh="中清環中路口" seqNo="86" pgp="0" terminal="0" districtId="1" GoBack="2" latitude="24.19898" longitude="120.65619" inDis="50" outDis="50" oid="0964360A5479493CAC91437973FCB313" /><Stop Id="0827" routeId="108" nameZh="港尾" seqNo="87" pgp="0" terminal="0" districtId="1" GoBack="2" latitude="24.20105" longitude="120.65481" inDis="50" outDis="50" oid="7836" /></BusInfo></BusDynInfo>