[
  {
    "type": "Feature",
    "geometry": {
      "type": "Point",
      "coordinates": [
        120.59899,
        24.25348
      ]
    },
    "properties": {
      "id": "0135",
      "name": "臺中航空站",
      "seq": 1
    }
  },
  {
    "type": "Feature",
    "geometry": {
      "type": "Point",
      "coordinates": [
        120.60825,
        24.24659
      ]
    },
    "properties": {
      "id": "1604",
      "name": "公明里",
      "seq": 2
    }
  },
  {
    "type": "Feature",
    "geometry": {
      "type": "Point",
      "coordinates": [
        120.61478,
        24.24428
      ]
    },
    "properties": {
      "id": "3023",
      "name": "清泉里",
      "seq": 3
    }
  },
  {
    "type": "Feature",
    "geometry": {
      "type": "Point",
      "coordinates": [
        120.61754,
        24.24333
      ]
    },
    "properties": {
      "id": "4960",
      "name": "中清清泉路口",
      "seq": 4
    }
  },
  {
    "type": "Feature",
    "geometry": {
      "type": "Point",
      "coordinates": [
        120.63113,
        24.2401
      ]
    },
    "properties": {
      "id": "1591",
      "name": "六張犁",
      "seq": 5
    }
  },
  {
    "type": "Feature",
    "geometry": {
      "type": "Point",
      "coordinates": [
        120.6429,
        24.22864
      ]
    },
    "properties": {
      "id": "4651",
      "name": "大明國小(中清路)",
      "seq": 6
    }
  },
  {
    "type": "Feature",
    "geometry": {
      "type": "Point",
      "coordinates": [
        120.64673,
        24.22478
      ]
    },
    "properties": {
      "id": "1620",
      "name": "大雅分駐所",
      "seq": 7
    }
  },
  {
    "type": "Feature",
    "geometry": {
      "type": "Point",
      "coordinates": [
        120.64803,
        24.2228
      ]
    },
    "properties": {
      "id": "1346",
      "name": "大雅",
      "seq": 8
    }
  },
  {
    "type": "Feature",
    "geometry": {
      "type": "Point",
      "coordinates": [
        120.64843,
        24.21925
      ]
    },
    "properties": {
      "id": "4306",
      "name": "中清雅潭路口",
      "seq": 9
    }
  },
  {
    "type": "Feature",
    "geometry": {
      "type": "Point",
      "coordinates": [
        120.64923,
        24.21697
      ]
    },
    "properties": {
      "id": "2558",
      "name": "南大雅",
      "seq": 10
    }
  },
  {
    "type": "Feature",
    "geometry": {
      "type": "Point",
      "coordinates": [
        120.64947,
        24.21497
      ]
    },
    "properties": {
      "id": "1345",
      "name": "大華國中",
      "seq": 11
    }
  },
  {
    "type": "Feature",
    "geometry": {
      "type": "Point",
      "coordinates": [
        120.65253,
        24.20563
      ]
    },
    "properties": {
      "id": "0936",
      "name": "頭張(中清路)",
      "seq": 12
    }
  },
  {
    "type": "Feature",
    "geometry": {
      "type": "Point",
      "coordinates": [
        120.65493,
        24.20096
      ]
    },
    "properties": {
      "id": "0827",
      "name": "港尾",
      "seq": 13
    }
  },
  {
    "type": "Feature",
    "geometry": {
      "type": "Point",
      "coordinates": [
        120.61433,
        24.11704
      ]
    },
    "properties": {
      "id": "5003",
      "name": "國際會展中心",
      "seq": 14
    }
  },
  {
    "type": "Feature",
    "geometry": {
      "type": "Point",
      "coordinates": [
        120.61536,
        24.11399
      ]
    },
    "properties": {
      "id": "2907",
      "name": "高鐵臺中站",
      "seq": 15
    }
  },
  {
    "type": "Feature",
    "geometry": {
      "type": "Point",
      "coordinates": [
        120.61536,
        24.11399
      ]
    },
    "properties": {
      "id": "2907",
      "name": "高鐵臺中站",
      "seq": 1
    }
  },
  {
    "type": "Feature",
    "geometry": {
      "type": "Point",
      "coordinates": [
        120.61433,
        24.11704
      ]
    },
    "properties": {
      "id": "5003",
      "name": "國際會展中心",
      "seq": 2
    }
  },
  {
    "type": "Feature",
    "geometry": {
      "type": "Point",
      "coordinates": [
        120.65493,
        24.20096
      ]
    },
    "properties": {
      "id": "0827",
      "name": "港尾",
      "seq": 3
    }
  },
  {
    "type": "Feature",
    "geometry": {
      "type": "Point",
      "coordinates": [
        120.65253,
        24.20563
      ]
    },
    "properties": {
      "id": "0936",
      "name": "頭張(中清路)",
      "seq": 4
    }
  },
  {
    "type": "Feature",
    "geometry": {
      "type": "Point",
      "coordinates": [
        120.64947,
        24.21497
      ]
    },
    "properties": {
      "id": "1345",
      "name": "大華國中",
      "seq": 5
    }
  },
  {
    "type": "Feature",
    "geometry": {
      "type": "Point",
      "coordinates": [
        120.64909,
        24.21724
      ]
    },
    "properties": {
      "id": "2558",
      "name": "南大雅",
      "seq": 6
    }
  },
  {
    "type": "Feature",
    "geometry": {
      "type": "Point",
      "coordinates": [
        120.64843,
        24.21925
      ]
    },
    "properties": {
      "id": "4306",
      "name": "中清雅潭路口",
      "seq": 7
    }
  },
  {
    "type": "Feature",
    "geometry": {
      "type": "Point",
      "coordinates": [
        120.64803,
        24.2228
      ]
    },
    "properties": {
      "id": "1346",
      "name": "大雅",
      "seq": 8
    }
  },
  {
    "type": "Feature",
    "geometry": {
      "type": "Point",
      "coordinates": [
        120.64673,
        24.22478
      ]
    },
    "properties": {
      "id": "1620",
      "name": "大雅分駐所",
      "seq": 9
    }
  },
  {
    "type": "Feature",
    "geometry": {
      "type": "Point",
      "coordinates": [
        120.64284,
        24.22844
      ]
    },
    "properties": {
      "id": "4651",
      "name": "大明國小(中清路)",
      "seq": 10
    }
  },
  {
    "type": "Feature",
    "geometry": {
      "type": "Point",
      "coordinates": [
        120.63126,
        24.24003
      ]
    },
    "properties": {
      "id": "1591",
      "name": "六張犁",
      "seq": 11
    }
  },
  {
    "type": "Feature",
    "geometry": {
      "type": "Point",
      "coordinates": [
        120.61757,
        24.24336
      ]
    },
    "properties": {
      "id": "4960",
      "name": "中清清泉路口",
      "seq": 12
    }
  },
  {
    "type": "Feature",
    "geometry": {
      "type": "Point",
      "coordinates": [
        120.61478,
        24.24428
      ]
    },
    "properties": {
      "id": "3023",
      "name": "清泉里",
      "seq": 13
    }
  },
  {
    "type": "Feature",
    "geometry": {
      "type": "Point",
      "coordinates": [
        120.60825,
        24.24659
      ]
    },
    "properties": {
      "id": "1604",
      "name": "公明里",
      "seq": 14
    }
  },
  {
    "type": "Feature",
    "geometry": {
      "type": "Point",
      "coordinates": [
        120.59899,
        24.25348
      ]
    },
    "properties": {
      "id": "0135",
      "name": "臺中航空站",
      "seq": 15
    }
  }
]
