<?xml version="1.0" encoding="UTF-8" standalone="yes"?>
<BusDynInfo><EssentialInfo><Location><name>TCBUS</name><CenterName>Maxwin</CenterName></Location><UpdateTime>2014-12-20 07:28:17</UpdateTime><CoordinateSystem/></EssentialInfo>
<BusInfo><Stop Id="1824" routeId="27" nameZh="臺中火車站" seqNo="1" pgp="0" terminal="0" districtId="1" GoBack="1" latitude="24.13726" longitude="120.6846" inDis="50" outDis="50" oid="7358" /><Stop Id="4284" routeId="27" nameZh="民權繼光街口" seqNo="2" pgp="0" terminal="0" districtId="1" GoBack="1" latitude="24.13706" longitude="120.68095" inDis="50" outDis="50" oid="10258" /><Stop Id="4416" routeId="27" nameZh="臺中州廳" seqNo="3" pgp="0" terminal="0" districtId="1" GoBack="1" latitude="24.13896" longitude="120.67842" inDis="50" outDis="50" oid="7024" /><Stop Id="0208" routeId="27" nameZh="臺中醫院" seqNo="4" pgp="0" terminal="0" districtId="1" GoBack="1" latitude="24.14097" longitude="120.6765" inDis="50" outDis="50" oid="8157" /><Stop Id="4623" routeId="27" nameZh="民權中華路口" seqNo="5" pgp="0" terminal="0" districtId="1" GoBack="1" latitude="24.14257" longitude="120.67464" inDis="50" outDis="50" oid="772FFD21B46D4E16AAC6A8B3CCE38713" /><Stop Id="0513" routeId="27" nameZh="臺中教育大學" seqNo="6" pgp="0" terminal="0" districtId="1" GoBack="1" latitude="24.14517" longitude="120.67153" inDis="50" outDis="50" oid="8155" /><Stop Id="5235" routeId="27" nameZh="向上民權路口" seqNo="7" pgp="0" terminal="0" districtId="1" GoBack="1" latitude="24.14673" longitude="120.66934" inDis="50" outDis="50" oid="312172220" /><Stop Id="0725" routeId="27" nameZh="向上英才路口" seqNo="8" pgp="0" terminal="0" districtId="1" GoBack="1" latitude="24.14675" longitude="120.66607" inDis="50" outDis="50" oid="10248" /><Stop Id="2077" routeId="27" nameZh="英才向上北路口" seqNo="9" pgp="0" terminal="0" districtId="1" GoBack="1" latitude="24.14789" longitude="120.66539" inDis="50" outDis="50" oid="10244" /><Stop Id="0276" routeId="27" nameZh="草悟道(市民廣場)" seqNo="10" pgp="0" terminal="0" districtId="1" GoBack="1" latitude="24.15085" longitude="120.66452" inDis="50" outDis="50" oid="4F2E759BF74D4FACBB506B5534004E99" /><Stop Id="0141" routeId="27" nameZh="公益中美街口" seqNo="11" pgp="0" terminal="0" districtId="1" GoBack="1" latitude="24.15081" longitude="120.66065" inDis="50" outDis="50" oid="7263" /><Stop Id="4587" routeId="27" nameZh="公益公園(公益路)" seqNo="12" pgp="0" terminal="0" districtId="1" GoBack="1" latitude="24.15086" longitude="120.65786" inDis="50" outDis="50" oid="7310" /><Stop Id="0140" routeId="27" nameZh="公益精誠路口" seqNo="13" pgp="0" terminal="0" districtId="1" GoBack="1" latitude="24.15091" longitude="120.65592" inDis="50" outDis="50" oid="7571" /><Stop Id="4553" routeId="27" nameZh="公益東興路口" seqNo="14" pgp="0" terminal="0" districtId="1" GoBack="1" latitude="24.15087" longitude="120.65296" inDis="50" outDis="50" oid="7130" /><Stop Id="0456" routeId="27" nameZh="公益大墩路口" seqNo="15" pgp="0" terminal="0" districtId="1" GoBack="1" latitude="24.1509" longitude="120.64982" inDis="50" outDis="50" oid="7309" /><Stop Id="1607" routeId="27" nameZh="公益文心路口" seqNo="16" pgp="0" terminal="0" districtId="1" GoBack="1" latitude="24.15084" longitude="120.64673" inDis="50" outDis="50" oid="7311" /><Stop Id="5476" routeId="27" nameZh="臺中特殊教育學校" seqNo="17" pgp="0" terminal="0" districtId="1" GoBack="1" latitude="24.15109" longitude="120.6433" inDis="50" outDis="50" oid="7312" /><Stop Id="0814" routeId="27" nameZh="惠文高中(公益路)" seqNo="18" pgp="0" terminal="0" districtId="1" GoBack="1" latitude="24.15129" longitude="120.64007" inDis="50" outDis="50" oid="7471" /><Stop Id="0815" routeId="27" nameZh="惠文國小" seqNo="19" pgp="0" terminal="0" districtId="1" GoBack="1" latitude="24.1514" longitude="120.63788" inDis="50" outDis="50" oid="B37E755C1663481898CD64F989220E3C" /><Stop Id="1356" routeId="27" nameZh="河南大業路口" seqNo="20" pgp="0" terminal="0" districtId="1" GoBack="1" latitude="24.15362" longitude="120.63702" inDis="50" outDis="50" oid="10233" /><Stop Id="1883" routeId="27" nameZh="河南市政南二路口" seqNo="21" pgp="0" terminal="0" districtId="1" GoBack="1" latitude="24.15599" longitude="120.63661" inDis="50" outDis="50" oid="10242" /><Stop Id="0021" routeId="27" nameZh="河南市政路口" seqNo="22" pgp="0" terminal="0" districtId="1" GoBack="1" latitude="24.16059" longitude="120.63644" inDis="50" outDis="50" oid="10243" /><Stop Id="1881" routeId="27" nameZh="河南市政北二路口" seqNo="23" pgp="0" terminal="0" districtId="1" GoBack="1" latitude="24.16296" longitude="120.63785" inDis="50" outDis="50" oid="10241" /><Stop Id="1880" routeId="27" nameZh="河南市政北七路口" seqNo="24" pgp="0" terminal="0" districtId="1" GoBack="1" latitude="24.16527" longitude="120.63933" inDis="50" outDis="50" oid="10240" /><Stop Id="0826" routeId="27" nameZh="秋紅谷(朝陽橋)" seqNo="25" pgp="0" terminal="0" districtId="1" GoBack="1" latitude="24.16882" longitude="120.63951" inDis="50" outDis="50" oid="578A4A7407F241F291B08DCED3F32D07" /><Stop Id="0054" routeId="27" nameZh="朝馬(臺灣大道)" seqNo="26" pgp="0" terminal="0" districtId="1" GoBack="1" latitude="24.17059" longitude="120.63717" inDis="50" outDis="50" oid="313524993" /><Stop Id="1481" routeId="27" nameZh="安和臺灣大道口" seqNo="28" pgp="0" terminal="0" districtId="1" GoBack="1" latitude="24.17838" longitude="120.62438" inDis="50" outDis="50" oid="10235" /><Stop Id="0285" routeId="27" nameZh="安和福玄路口" seqNo="29" pgp="0" terminal="0" districtId="1" GoBack="1" latitude="24.1768" longitude="120.623" inDis="50" outDis="50" oid="319311017" /><Stop Id="5106" routeId="27" nameZh="安和朝馬路口" seqNo="30" pgp="0" terminal="0" districtId="1" GoBack="1" latitude="24.17457" longitude="120.62225" inDis="50" outDis="50" oid="312172221" /><Stop Id="0629" routeId="27" nameZh="協和國小" seqNo="31" pgp="0" terminal="0" districtId="1" GoBack="1" latitude="24.17012" longitude="120.62001" inDis="50" outDis="50" oid="10245" /><Stop Id="0329" routeId="27" nameZh="下七張犁" seqNo="32" pgp="0" terminal="0" districtId="1" GoBack="1" latitude="24.16461" longitude="120.61848" inDis="50" outDis="50" oid="10230" /><Stop Id="0765" routeId="27" nameZh="啟聰學校" seqNo="33" pgp="0" terminal="0" districtId="1" GoBack="1" latitude="24.1615" longitude="120.61786" inDis="50" outDis="50" oid="10249" /><Stop Id="3985" routeId="27" nameZh="寶山里" seqNo="34" pgp="0" terminal="0" districtId="1" GoBack="1" latitude="24.15748" longitude="120.61713" inDis="50" outDis="50" oid="303068250" /><Stop Id="5494" routeId="27" nameZh="忠勇五權西路口" seqNo="35" pgp="0" terminal="0" districtId="1" GoBack="1" latitude="24.15434" longitude="120.61664" inDis="50" outDis="50" oid="314683530" /><Stop Id="5488" routeId="27" nameZh="忠勇寶山東二街口" seqNo="36" pgp="0" terminal="0" districtId="1" GoBack="1" latitude="24.15269" longitude="120.61641" inDis="50" outDis="50" oid="B749E9C5251843EF9B30E5D3BA0A4B92" /><Stop Id="5489" routeId="27" nameZh="寶山里土地公" seqNo="37" pgp="0" terminal="0" districtId="1" GoBack="1" latitude="24.15073" longitude="120.6157" inDis="50" outDis="50" oid="12627" /><Stop Id="0165" routeId="27" nameZh="文山國小(忠勇路)" seqNo="38" pgp="0" terminal="0" districtId="1" GoBack="1" latitude="24.14961" longitude="120.61561" inDis="50" outDis="50" oid="4B90641C67CE406BB199990BA5C02BF6" /><Stop Id="0160" routeId="27" nameZh="文山里" seqNo="39" pgp="0" terminal="0" districtId="1" GoBack="1" latitude="24.14655" longitude="120.61502" inDis="50" outDis="50" oid="10238" /><Stop Id="0159" routeId="27" nameZh="一善堂" seqNo="40" pgp="0" terminal="0" districtId="1" GoBack="1" latitude="24.14489" longitude="120.61473" inDis="50" outDis="50" oid="8B7E1216EDAB4225A53875CE28AD9D10" /><Stop Id="0158" routeId="27" nameZh="下文山" seqNo="41" pgp="0" terminal="0" districtId="1" GoBack="1" latitude="24.14275" longitude="120.61372" inDis="50" outDis="50" oid="10232" /><Stop Id="0157" routeId="27" nameZh="七星橋" seqNo="42" pgp="0" terminal="0" districtId="1" GoBack="1" latitude="24.14074" longitude="120.61318" inDis="50" outDis="50" oid="10229" /><Stop Id="4599" routeId="27" nameZh="春社里(忠勇路)" seqNo="43" pgp="0" terminal="0" districtId="1" GoBack="1" latitude="24.13912" longitude="120.61287" inDis="50" outDis="50" oid="5F65E406123E4647A5674D01E93E5A06" /><Stop Id="3874" routeId="27" nameZh="嶺東高中" seqNo="44" pgp="0" terminal="0" districtId="1" GoBack="1" latitude="24.1385" longitude="120.61119" inDis="50" outDis="50" oid="F2B6FDAAB4C54E57A9C29D90DDEF4F16" /><Stop Id="5319" routeId="27" nameZh="嶺東科技大學(嶺東路)" seqNo="45" pgp="0" terminal="0" districtId="1" GoBack="1" latitude="24.13701" longitude="120.61016" inDis="50" outDis="50" oid="10253" /><Stop Id="1411" routeId="27" nameZh="干城六村" seqNo="46" pgp="0" terminal="0" districtId="1" GoBack="1" latitude="24.13668" longitude="120.60964" inDis="50" outDis="50" oid="10234" /><Stop Id="0941" routeId="27" nameZh="嶺東三站" seqNo="47" pgp="0" terminal="0" districtId="1" GoBack="1" latitude="24.13657" longitude="120.60739" inDis="50" outDis="50" oid="10254" /><Stop Id="5162" routeId="27" nameZh="嶺東科技大學(永春南路)" seqNo="48" pgp="0" terminal="0" districtId="1" GoBack="1" latitude="24.13853" longitude="120.60918" inDis="30" outDis="50" oid="10256" /><Stop Id="5162" routeId="27" nameZh="嶺東科技大學(永春南路)" seqNo="1" pgp="0" terminal="0" districtId="1" GoBack="2" latitude="24.13853" longitude="120.60918" inDis="30" outDis="50" oid="10256" /><Stop Id="3874" routeId="27" nameZh="嶺東高中" seqNo="2" pgp="0" terminal="0" districtId="1" GoBack="2" latitude="24.1385" longitude="120.61119" inDis="50" outDis="50" oid="F2B6FDAAB4C54E57A9C29D90DDEF4F16" /><Stop Id="4599" routeId="27" nameZh="春社里(忠勇路)" seqNo="3" pgp="0" terminal="0" districtId="1" GoBack="2" latitude="24.13912" longitude="120.61287" inDis="50" outDis="50" oid="5F65E406123E4647A5674D01E93E5A06" /><Stop Id="0157" routeId="27" nameZh="七星橋" seqNo="4" pgp="0" terminal="0" districtId="1" GoBack="2" latitude="24.14074" longitude="120.61318" inDis="50" outDis="50" oid="10229" /><Stop Id="0158" routeId="27" nameZh="下文山" seqNo="5" pgp="0" terminal="0" districtId="1" GoBack="2" latitude="24.14275" longitude="120.61372" inDis="50" outDis="50" oid="10232" /><Stop Id="0159" routeId="27" nameZh="一善堂" seqNo="6" pgp="0" terminal="0" districtId="1" GoBack="2" latitude="24.14496" longitude="120.61474" inDis="50" outDis="50" oid="F5FF689F60CF4445930F71E09E0BD7C6" /><Stop Id="0160" routeId="27" nameZh="文山里" seqNo="7" pgp="0" terminal="0" districtId="1" GoBack="2" latitude="24.14588" longitude="120.61497" inDis="50" outDis="50" oid="10237" /><Stop Id="0165" routeId="27" nameZh="文山國小(忠勇路)" seqNo="8" pgp="0" terminal="0" districtId="1" GoBack="2" latitude="24.14938" longitude="120.6156" inDis="50" outDis="50" oid="7CFC43E343584124A6201DA976758821" /><Stop Id="5489" routeId="27" nameZh="寶山里土地公" seqNo="9" pgp="0" terminal="0" districtId="1" GoBack="2" latitude="24.15073" longitude="120.6157" inDis="50" outDis="50" oid="12627" /><Stop Id="5488" routeId="27" nameZh="忠勇寶山東二街口" seqNo="10" pgp="0" terminal="0" districtId="1" GoBack="2" latitude="24.15275" longitude="120.61629" inDis="50" outDis="50" oid="C0EF86DDE2FE4F9691725663784DE5BE" /><Stop Id="5494" routeId="27" nameZh="忠勇五權西路口" seqNo="11" pgp="0" terminal="0" districtId="1" GoBack="2" latitude="24.15434" longitude="120.61664" inDis="50" outDis="50" oid="314683530" /><Stop Id="3985" routeId="27" nameZh="寶山里" seqNo="12" pgp="0" terminal="0" districtId="1" GoBack="2" latitude="24.15748" longitude="120.61713" inDis="50" outDis="50" oid="303068252" /><Stop Id="0765" routeId="27" nameZh="啟聰學校" seqNo="13" pgp="0" terminal="0" districtId="1" GoBack="2" latitude="24.1615" longitude="120.61786" inDis="50" outDis="50" oid="10249" /><Stop Id="0329" routeId="27" nameZh="下七張犁" seqNo="14" pgp="0" terminal="0" districtId="1" GoBack="2" latitude="24.16461" longitude="120.61848" inDis="50" outDis="50" oid="10230" /><Stop Id="0629" routeId="27" nameZh="協和國小" seqNo="15" pgp="0" terminal="0" districtId="1" GoBack="2" latitude="24.17012" longitude="120.62001" inDis="50" outDis="50" oid="10245" /><Stop Id="5106" routeId="27" nameZh="安和朝馬路口" seqNo="16" pgp="0" terminal="0" districtId="1" GoBack="2" latitude="24.17457" longitude="120.62225" inDis="50" outDis="50" oid="312172221" /><Stop Id="0285" routeId="27" nameZh="安和福玄路口" seqNo="17" pgp="0" terminal="0" districtId="1" GoBack="2" latitude="24.1767" longitude="120.62353" inDis="50" outDis="50" oid="319311016" /><Stop Id="1481" routeId="27" nameZh="安和臺灣大道口" seqNo="18" pgp="0" terminal="0" districtId="1" GoBack="2" latitude="24.17838" longitude="120.62438" inDis="50" outDis="50" oid="10235" /><Stop Id="0054" routeId="27" nameZh="朝馬(臺灣大道)" seqNo="20" pgp="0" terminal="0" districtId="1" GoBack="2" latitude="24.17059" longitude="120.63717" inDis="50" outDis="50" oid="313524993" /><Stop Id="0826" routeId="27" nameZh="秋紅谷(朝陽橋)" seqNo="21" pgp="0" terminal="0" districtId="1" GoBack="2" latitude="24.16843" longitude="120.63972" inDis="50" outDis="50" oid="33DDB5EE821B4E73B3A83FC35522CADE" /><Stop Id="4530" routeId="27" nameZh="河南臺灣大道口" seqNo="22" pgp="0" terminal="0" districtId="1" GoBack="2" latitude="24.16724" longitude="120.64049" inDis="50" outDis="50" oid="5207E1CA0C5548B59073BF4D1BC5C04A" /><Stop Id="1880" routeId="27" nameZh="河南市政北七路口" seqNo="23" pgp="0" terminal="0" districtId="1" GoBack="2" latitude="24.16527" longitude="120.63933" inDis="50" outDis="50" oid="10240" /><Stop Id="1881" routeId="27" nameZh="河南市政北二路口" seqNo="24" pgp="0" terminal="0" districtId="1" GoBack="2" latitude="24.16296" longitude="120.63785" inDis="50" outDis="50" oid="10241" /><Stop Id="0021" routeId="27" nameZh="河南市政路口" seqNo="25" pgp="0" terminal="0" districtId="1" GoBack="2" latitude="24.16059" longitude="120.63644" inDis="50" outDis="50" oid="10243" /><Stop Id="1883" routeId="27" nameZh="河南市政南二路口" seqNo="26" pgp="0" terminal="0" districtId="1" GoBack="2" latitude="24.15599" longitude="120.63661" inDis="50" outDis="50" oid="10242" /><Stop Id="1356" routeId="27" nameZh="河南大業路口" seqNo="27" pgp="0" terminal="0" districtId="1" GoBack="2" latitude="24.15362" longitude="120.63702" inDis="50" outDis="50" oid="10233" /><Stop Id="0815" routeId="27" nameZh="惠文國小" seqNo="28" pgp="0" terminal="0" districtId="1" GoBack="2" latitude="24.15154" longitude="120.63779" inDis="50" outDis="50" oid="8ABE6D33AFA440CFB23CDA40D5C9AAB8" /><Stop Id="0814" routeId="27" nameZh="惠文高中(公益路)" seqNo="29" pgp="0" terminal="0" districtId="1" GoBack="2" latitude="24.15129" longitude="120.64007" inDis="50" outDis="50" oid="7471" /><Stop Id="5476" routeId="27" nameZh="臺中特殊教育學校" seqNo="30" pgp="0" terminal="0" districtId="1" GoBack="2" latitude="24.15109" longitude="120.6433" inDis="50" outDis="50" oid="7312" /><Stop Id="1607" routeId="27" nameZh="公益文心路口" seqNo="31" pgp="0" terminal="0" districtId="1" GoBack="2" latitude="24.15084" longitude="120.64673" inDis="50" outDis="50" oid="7311" /><Stop Id="0456" routeId="27" nameZh="公益大墩路口" seqNo="32" pgp="0" terminal="0" districtId="1" GoBack="2" latitude="24.1509" longitude="120.64982" inDis="50" outDis="50" oid="7309" /><Stop Id="4553" routeId="27" nameZh="公益東興路口" seqNo="33" pgp="0" terminal="0" districtId="1" GoBack="2" latitude="24.15087" longitude="120.65296" inDis="50" outDis="50" oid="7130" /><Stop Id="0140" routeId="27" nameZh="公益精誠路口" seqNo="34" pgp="0" terminal="0" districtId="1" GoBack="2" latitude="24.15091" longitude="120.65592" inDis="50" outDis="50" oid="7571" /><Stop Id="4587" routeId="27" nameZh="公益公園(公益路)" seqNo="35" pgp="0" terminal="0" districtId="1" GoBack="2" latitude="24.15086" longitude="120.65786" inDis="50" outDis="50" oid="7310" /><Stop Id="0141" routeId="27" nameZh="公益中美街口" seqNo="36" pgp="0" terminal="0" districtId="1" GoBack="2" latitude="24.15081" longitude="120.66065" inDis="50" outDis="50" oid="7263" /><Stop Id="0276" routeId="27" nameZh="草悟道(市民廣場)" seqNo="37" pgp="0" terminal="0" districtId="1" GoBack="2" latitude="24.15085" longitude="120.66452" inDis="50" outDis="50" oid="4F2E759BF74D4FACBB506B5534004E99" /><Stop Id="2077" routeId="27" nameZh="英才向上北路口" seqNo="38" pgp="0" terminal="0" districtId="1" GoBack="2" latitude="24.14789" longitude="120.66539" inDis="50" outDis="50" oid="10244" /><Stop Id="0725" routeId="27" nameZh="向上英才路口" seqNo="39" pgp="0" terminal="0" districtId="1" GoBack="2" latitude="24.14675" longitude="120.66607" inDis="50" outDis="50" oid="10248" /><Stop Id="5235" routeId="27" nameZh="向上民權路口" seqNo="40" pgp="0" terminal="0" districtId="1" GoBack="2" latitude="24.14673" longitude="120.66934" inDis="50" outDis="50" oid="312172220" /><Stop Id="0513" routeId="27" nameZh="臺中教育大學" seqNo="41" pgp="0" terminal="0" districtId="1" GoBack="2" latitude="24.14517" longitude="120.67153" inDis="50" outDis="50" oid="8155" /><Stop Id="4623" routeId="27" nameZh="民權中華路口" seqNo="42" pgp="0" terminal="0" districtId="1" GoBack="2" latitude="24.14257" longitude="120.67464" inDis="50" outDis="50" oid="772FFD21B46D4E16AAC6A8B3CCE38713" /><Stop Id="0208" routeId="27" nameZh="臺中醫院" seqNo="43" pgp="0" terminal="0" districtId="1" GoBack="2" latitude="24.14097" longitude="120.6765" inDis="50" outDis="50" oid="8157" /><Stop Id="4416" routeId="27" nameZh="臺中州廳" seqNo="44" pgp="0" terminal="0" districtId="1" GoBack="2" latitude="24.13918" longitude="120.67847" inDis="50" outDis="50" oid="8158" /><Stop Id="0215" routeId="27" nameZh="合作金庫" seqNo="45" pgp="0" terminal="0" districtId="1" GoBack="2" latitude="24.13808" longitude="120.68037" inDis="50" outDis="50" oid="7068" /><Stop Id="0216" routeId="27" nameZh="彰化銀行(自由路)" seqNo="46" pgp="0" terminal="0" districtId="1" GoBack="2" latitude="24.13972" longitude="120.68183" inDis="50" outDis="50" oid="7548" /><Stop Id="0151" routeId="27" nameZh="第一廣場" seqNo="47" pgp="0" terminal="0" districtId="1" GoBack="2" latitude="24.13897" longitude="120.68358" inDis="50" outDis="50" oid="7436" /><Stop Id="1824" routeId="27" nameZh="臺中火車站" seqNo="48" pgp="0" terminal="0" districtId="1" GoBack="2" latitude="24.13726" longitude="120.6846" inDis="50" outDis="50" oid="7358" /></BusInfo></BusDynInfo>