[
  {
    "type": "Feature",
    "geometry": {
      "type": "Point",
      "coordinates": [
        120.67437,
        24.15394
      ]
    },
    "properties": {
      "id": "5938",
      "name": "臺中二中(梅川東路)",
      "seq": 1
    }
  },
  {
    "type": "Feature",
    "geometry": {
      "type": "Point",
      "coordinates": [
        120.68576,
        24.14087
      ]
    },
    "properties": {
      "id": "0402",
      "name": "干城站",
      "seq": 10
    }
  },
  {
    "type": "Feature",
    "geometry": {
      "type": "Point",
      "coordinates": [
        120.68387,
        24.13663
      ]
    },
    "properties": {
      "id": "1824",
      "name": "臺中火車站",
      "seq": 11
    }
  },
  {
    "type": "Feature",
    "geometry": {
      "type": "Point",
      "coordinates": [
        120.68367,
        24.13473
      ]
    },
    "properties": {
      "id": "0183",
      "name": "臺中家商",
      "seq": 12
    }
  },
  {
    "type": "Feature",
    "geometry": {
      "type": "Point",
      "coordinates": [
        120.68629,
        24.1358
      ]
    },
    "properties": {
      "id": "0184",
      "name": "後火車站",
      "seq": 13
    }
  },
  {
    "type": "Feature",
    "geometry": {
      "type": "Point",
      "coordinates": [
        120.68806,
        24.13603
      ]
    },
    "properties": {
      "id": "0185",
      "name": "新時代購物中心",
      "seq": 14
    }
  },
  {
    "type": "Feature",
    "geometry": {
      "type": "Point",
      "coordinates": [
        120.68984,
        24.1325
      ]
    },
    "properties": {
      "id": "0186",
      "name": "大智忠孝路口",
      "seq": 15
    }
  },
  {
    "type": "Feature",
    "geometry": {
      "type": "Point",
      "coordinates": [
        120.69146,
        24.13218
      ]
    },
    "properties": {
      "id": "4362",
      "name": "建成大振街口",
      "seq": 16
    }
  },
  {
    "type": "Feature",
    "geometry": {
      "type": "Point",
      "coordinates": [
        120.69403,
        24.13289
      ]
    },
    "properties": {
      "id": "4654",
      "name": "大東紡織(振興路)",
      "seq": 17
    }
  },
  {
    "type": "Feature",
    "geometry": {
      "type": "Point",
      "coordinates": [
        120.69636,
        24.13303
      ]
    },
    "properties": {
      "id": "3617",
      "name": "漢聲電臺",
      "seq": 18
    }
  },
  {
    "type": "Feature",
    "geometry": {
      "type": "Point",
      "coordinates": [
        120.6981,
        24.13315
      ]
    },
    "properties": {
      "id": "0190",
      "name": "東門橋",
      "seq": 19
    }
  },
  {
    "type": "Feature",
    "geometry": {
      "type": "Point",
      "coordinates": [
        120.67876,
        24.15571
      ]
    },
    "properties": {
      "id": "0093",
      "name": "五權國中",
      "seq": 2
    }
  },
  {
    "type": "Feature",
    "geometry": {
      "type": "Point",
      "coordinates": [
        120.70261,
        24.13143
      ]
    },
    "properties": {
      "id": "2236",
      "name": "旱溪",
      "seq": 20
    }
  },
  {
    "type": "Feature",
    "geometry": {
      "type": "Point",
      "coordinates": [
        120.70528,
        24.13024
      ]
    },
    "properties": {
      "id": "1642",
      "name": "太平橋前",
      "seq": 21
    }
  },
  {
    "type": "Feature",
    "geometry": {
      "type": "Point",
      "coordinates": [
        120.70883,
        24.1281
      ]
    },
    "properties": {
      "id": "1185",
      "name": "下部仔",
      "seq": 22
    }
  },
  {
    "type": "Feature",
    "geometry": {
      "type": "Point",
      "coordinates": [
        120.71057,
        24.12709
      ]
    },
    "properties": {
      "id": "4218",
      "name": "中油太平站",
      "seq": 23
    }
  },
  {
    "type": "Feature",
    "geometry": {
      "type": "Point",
      "coordinates": [
        120.71239,
        24.12594
      ]
    },
    "properties": {
      "id": "1128",
      "name": "下太平",
      "seq": 24
    }
  },
  {
    "type": "Feature",
    "geometry": {
      "type": "Point",
      "coordinates": [
        120.71481,
        24.12482
      ]
    },
    "properties": {
      "id": "4664",
      "name": "太平農會",
      "seq": 25
    }
  },
  {
    "type": "Feature",
    "geometry": {
      "type": "Point",
      "coordinates": [
        120.71645,
        24.12442
      ]
    },
    "properties": {
      "id": "5009",
      "name": "太平中平路口",
      "seq": 26
    }
  },
  {
    "type": "Feature",
    "geometry": {
      "type": "Point",
      "coordinates": [
        120.7182,
        24.12268
      ]
    },
    "properties": {
      "id": "1436",
      "name": "中平國中",
      "seq": 27
    }
  },
  {
    "type": "Feature",
    "geometry": {
      "type": "Point",
      "coordinates": [
        120.71951,
        24.12153
      ]
    },
    "properties": {
      "id": "3685",
      "name": "精美社區",
      "seq": 28
    }
  },
  {
    "type": "Feature",
    "geometry": {
      "type": "Point",
      "coordinates": [
        120.71824,
        24.12027
      ]
    },
    "properties": {
      "id": "4947",
      "name": "太平游泳池",
      "seq": 29
    }
  },
  {
    "type": "Feature",
    "geometry": {
      "type": "Point",
      "coordinates": [
        120.6818,
        24.15526
      ]
    },
    "properties": {
      "id": "0406",
      "name": "中山堂",
      "seq": 3
    }
  },
  {
    "type": "Feature",
    "geometry": {
      "type": "Point",
      "coordinates": [
        120.71658,
        24.11832
      ]
    },
    "properties": {
      "id": "4948",
      "name": "長億六永成北路口",
      "seq": 30
    }
  },
  {
    "type": "Feature",
    "geometry": {
      "type": "Point",
      "coordinates": [
        120.71947,
        24.11543
      ]
    },
    "properties": {
      "id": "4949",
      "name": "長億六太平一街口",
      "seq": 31
    }
  },
  {
    "type": "Feature",
    "geometry": {
      "type": "Point",
      "coordinates": [
        120.72109,
        24.11396
      ]
    },
    "properties": {
      "id": "4518",
      "name": "長億高中",
      "seq": 32
    }
  },
  {
    "type": "Feature",
    "geometry": {
      "type": "Point",
      "coordinates": [
        120.72273,
        24.11944
      ]
    },
    "properties": {
      "id": "5939",
      "name": "鵬儀太平路口",
      "seq": 33
    }
  },
  {
    "type": "Feature",
    "geometry": {
      "type": "Point",
      "coordinates": [
        120.72425,
        24.12188
      ]
    },
    "properties": {
      "id": "5940",
      "name": "平安里",
      "seq": 34
    }
  },
  {
    "type": "Feature",
    "geometry": {
      "type": "Point",
      "coordinates": [
        120.72675,
        24.1244
      ]
    },
    "properties": {
      "id": "5941",
      "name": "建國里",
      "seq": 35
    }
  },
  {
    "type": "Feature",
    "geometry": {
      "type": "Point",
      "coordinates": [
        120.72603,
        24.12508
      ]
    },
    "properties": {
      "id": "2392",
      "name": "東平社區",
      "seq": 36
    }
  },
  {
    "type": "Feature",
    "geometry": {
      "type": "Point",
      "coordinates": [
        120.68376,
        24.15384
      ]
    },
    "properties": {
      "id": "3772",
      "name": "五權學士路口",
      "seq": 4
    }
  },
  {
    "type": "Feature",
    "geometry": {
      "type": "Point",
      "coordinates": [
        120.68565,
        24.1539
      ]
    },
    "properties": {
      "id": "0047",
      "name": "一心市場",
      "seq": 5
    }
  },
  {
    "type": "Feature",
    "geometry": {
      "type": "Point",
      "coordinates": [
        120.68484,
        24.15177
      ]
    },
    "properties": {
      "id": "0046",
      "name": "中友百貨",
      "seq": 6
    }
  },
  {
    "type": "Feature",
    "geometry": {
      "type": "Point",
      "coordinates": [
        120.6841,
        24.14962
      ]
    },
    "properties": {
      "id": "0045",
      "name": "國立臺中科技大學",
      "seq": 7
    }
  },
  {
    "type": "Feature",
    "geometry": {
      "type": "Point",
      "coordinates": [
        120.68463,
        24.14621
      ]
    },
    "properties": {
      "id": "1513",
      "name": "中興堂",
      "seq": 8
    }
  },
  {
    "type": "Feature",
    "geometry": {
      "type": "Point",
      "coordinates": [
        120.68606,
        24.14416
      ]
    },
    "properties": {
      "id": "4544",
      "name": "臺中公園(雙十路)",
      "seq": 9
    }
  }
]
