<?xml version="1.0" encoding="UTF-8" standalone="yes"?>
<BusDynInfo><EssentialInfo><Location><name>TCBUS</name><CenterName>Maxwin</CenterName></Location><UpdateTime>2014-12-20 08:07:08</UpdateTime><CoordinateSystem/></EssentialInfo>
<BusInfo><Stop Id="4147" routeId="169區4" nameZh="靜宜大學" seqNo="1" pgp="0" terminal="0" districtId="1" GoBack="1" latitude="24.22623" longitude="120.57673" inDis="50" outDis="50" oid="17380" /><Stop Id="4086" routeId="169區4" nameZh="臺灣大道北勢路口" seqNo="2" pgp="0" terminal="0" districtId="1" GoBack="1" latitude="24.23015" longitude="120.57421" inDis="50" outDis="50" oid="17381" /><Stop Id="4392" routeId="169區4" nameZh="紅竹巷" seqNo="3" pgp="0" terminal="0" districtId="1" GoBack="1" latitude="24.23365" longitude="120.57201" inDis="50" outDis="50" oid="17382" /><Stop Id="5221" routeId="169區4" nameZh="中山臺灣大道口" seqNo="4" pgp="0" terminal="0" districtId="1" GoBack="1" latitude="24.2371" longitude="120.56918" inDis="50" outDis="50" oid="310787748" /><Stop Id="5222" routeId="169區4" nameZh="中山鎮政路口" seqNo="5" pgp="0" terminal="0" districtId="1" GoBack="1" latitude="24.23698" longitude="120.56673" inDis="50" outDis="50" oid="310787750" /><Stop Id="4390" routeId="169區4" nameZh="沙鹿高工(中山路)" seqNo="6" pgp="0" terminal="0" districtId="1" GoBack="1" latitude="24.23726" longitude="120.56491" inDis="50" outDis="50" oid="17385" /><Stop Id="2682" routeId="169區4" nameZh="洛泉里" seqNo="7" pgp="0" terminal="0" districtId="1" GoBack="1" latitude="24.23768" longitude="120.56236" inDis="50" outDis="50" oid="312574878" /><Stop Id="2248" routeId="169區4" nameZh="沙鹿站" seqNo="8" pgp="0" terminal="0" districtId="1" GoBack="1" latitude="24.23792" longitude="120.56104" inDis="50" outDis="50" oid="17387" /><Stop Id="5135" routeId="169區4" nameZh="第一銀行(沙鹿分行)" seqNo="9" pgp="0" terminal="0" districtId="1" GoBack="1" latitude="24.23932" longitude="120.56" inDis="50" outDis="50" oid="14046" /><Stop Id="1482" routeId="169區4" nameZh="中港國小" seqNo="10" pgp="0" terminal="0" districtId="1" GoBack="1" latitude="24.24273" longitude="120.55659" inDis="50" outDis="50" oid="17389" /><Stop Id="1088" routeId="169區4" nameZh="三條圳" seqNo="11" pgp="0" terminal="0" districtId="1" GoBack="1" latitude="24.24548" longitude="120.54911" inDis="50" outDis="50" oid="17390" /><Stop Id="4822" routeId="169區4" nameZh="東大庄" seqNo="12" pgp="0" terminal="0" districtId="1" GoBack="1" latitude="24.24643" longitude="120.54653" inDis="50" outDis="50" oid="17391" /><Stop Id="4007" routeId="169區4" nameZh="體育館前" seqNo="13" pgp="0" terminal="0" districtId="1" GoBack="1" latitude="24.2471" longitude="120.54472" inDis="50" outDis="50" oid="17392" /><Stop Id="4041" routeId="169區4" nameZh="童綜合醫院(梧棲院區)" seqNo="14" pgp="0" terminal="0" districtId="1" GoBack="1" latitude="24.24757" longitude="120.54319" inDis="50" outDis="50" oid="17393" /><Stop Id="4824" routeId="169區4" nameZh="邱厝庄" seqNo="15" pgp="0" terminal="0" districtId="1" GoBack="1" latitude="24.24818" longitude="120.54117" inDis="50" outDis="50" oid="17394" /><Stop Id="1334" routeId="169區4" nameZh="大庄" seqNo="16" pgp="0" terminal="0" districtId="1" GoBack="1" latitude="24.24908" longitude="120.53916" inDis="50" outDis="50" oid="17395" /><Stop Id="3250" routeId="169區4" nameZh="臺灣大道港埠路口" seqNo="17" pgp="0" terminal="0" districtId="1" GoBack="1" latitude="24.25083" longitude="120.53444" inDis="50" outDis="50" oid="17396" /><Stop Id="2999" routeId="169區4" nameZh="梧棲國小" seqNo="18" pgp="0" terminal="0" districtId="1" GoBack="1" latitude="24.25232" longitude="120.53036" inDis="50" outDis="50" oid="17397" /><Stop Id="2107" routeId="169區4" nameZh="安仁里" seqNo="19" pgp="0" terminal="0" districtId="1" GoBack="1" latitude="24.25366" longitude="120.5286" inDis="50" outDis="50" oid="17400" /><Stop Id="2997" routeId="169區4" nameZh="梧棲(梧棲路)" seqNo="20" pgp="0" terminal="0" districtId="1" GoBack="1" latitude="24.25658" longitude="120.52957" inDis="50" outDis="50" oid="17401" /><Stop Id="1208" routeId="169區4" nameZh="下寮社區" seqNo="21" pgp="0" terminal="0" districtId="1" GoBack="1" latitude="24.25856" longitude="120.53009" inDis="50" outDis="50" oid="17402" /><Stop Id="4783" routeId="169區4" nameZh="下寮里(富美宮)" seqNo="22" pgp="0" terminal="0" districtId="1" GoBack="1" latitude="24.26079" longitude="120.53035" inDis="50" outDis="50" oid="15224" /><Stop Id="4668" routeId="169區4" nameZh="頂寮里" seqNo="23" pgp="0" terminal="0" districtId="1" GoBack="1" latitude="24.26037" longitude="120.53229" inDis="50" outDis="50" oid="17403" /><Stop Id="4840" routeId="169區4" nameZh="國都飯店" seqNo="24" pgp="0" terminal="0" districtId="1" GoBack="1" latitude="24.25932" longitude="120.53495" inDis="50" outDis="50" oid="17404" /><Stop Id="5065" routeId="169區4" nameZh="臺銀中港分行" seqNo="25" pgp="0" terminal="0" districtId="1" GoBack="1" latitude="24.25995" longitude="120.53662" inDis="50" outDis="50" oid="17405" /><Stop Id="5064" routeId="169區4" nameZh="臺中港郵局" seqNo="26" pgp="0" terminal="0" districtId="1" GoBack="1" latitude="24.26193" longitude="120.53741" inDis="50" outDis="50" oid="17406" /><Stop Id="4810" routeId="169區4" nameZh="竹圍(港埠路)" seqNo="27" pgp="0" terminal="0" districtId="1" GoBack="1" latitude="24.2618" longitude="120.54158" inDis="50" outDis="50" oid="17407" /><Stop Id="3895" routeId="169區4" nameZh="糠榔" seqNo="28" pgp="0" terminal="0" districtId="1" GoBack="1" latitude="24.26342" longitude="120.54513" inDis="50" outDis="50" oid="17408" /><Stop Id="2444" routeId="169區4" nameZh="東糠榔" seqNo="29" pgp="0" terminal="0" districtId="1" GoBack="1" latitude="24.26431" longitude="120.54853" inDis="50" outDis="50" oid="17409" /><Stop Id="2177" routeId="169區4" nameZh="西牛埔" seqNo="30" pgp="0" terminal="0" districtId="1" GoBack="1" latitude="24.26504" longitude="120.55146" inDis="50" outDis="50" oid="17410" /><Stop Id="1732" routeId="169區4" nameZh="牛埔" seqNo="31" pgp="0" terminal="0" districtId="1" GoBack="1" latitude="24.26601" longitude="120.55556" inDis="50" outDis="50" oid="17411" /><Stop Id="2588" routeId="169區4" nameZh="南社里" seqNo="32" pgp="0" terminal="0" districtId="1" GoBack="1" latitude="24.26715" longitude="120.56046" inDis="50" outDis="50" oid="17412" /><Stop Id="3017" routeId="169區4" nameZh="清水國中" seqNo="34" pgp="0" terminal="0" districtId="1" GoBack="1" latitude="24.26778" longitude="120.56271" inDis="50" outDis="50" oid="17414" /><Stop Id="3700" routeId="169區4" nameZh="銀聯二村" seqNo="35" pgp="0" terminal="0" districtId="1" GoBack="1" latitude="24.26832" longitude="120.5648" inDis="50" outDis="50" oid="17415" /><Stop Id="2486" routeId="169區4" nameZh="社口" seqNo="36" pgp="0" terminal="0" districtId="1" GoBack="1" latitude="24.26845" longitude="120.56825" inDis="50" outDis="50" oid="17416" /><Stop Id="5655" routeId="169區4" nameZh="鰲峰西社路口" seqNo="37" pgp="0" terminal="0" districtId="1" GoBack="1" latitude="24.26923" longitude="120.57004" inDis="50" outDis="50" oid="317714376" /><Stop Id="1615" routeId="169區4" nameZh="分局前" seqNo="38" pgp="0" terminal="0" districtId="1" GoBack="1" latitude="24.26919" longitude="120.57531" inDis="50" outDis="50" oid="17418" /><Stop Id="3013" routeId="169區4" nameZh="清水" seqNo="39" pgp="0" terminal="0" districtId="1" GoBack="1" latitude="24.2703" longitude="120.57594" inDis="50" outDis="50" oid="10843" /><Stop Id="3013" routeId="169區4" nameZh="清水" seqNo="1" pgp="0" terminal="0" districtId="1" GoBack="2" latitude="24.2703" longitude="120.57594" inDis="50" outDis="50" oid="10843" /><Stop Id="1615" routeId="169區4" nameZh="分局前" seqNo="2" pgp="0" terminal="0" districtId="1" GoBack="2" latitude="24.26919" longitude="120.57531" inDis="50" outDis="50" oid="17421" /><Stop Id="5655" routeId="169區4" nameZh="鰲峰西社路口" seqNo="3" pgp="0" terminal="0" districtId="1" GoBack="2" latitude="24.26923" longitude="120.57004" inDis="50" outDis="50" oid="317714376" /><Stop Id="2486" routeId="169區4" nameZh="社口" seqNo="4" pgp="0" terminal="0" districtId="1" GoBack="2" latitude="24.26845" longitude="120.56825" inDis="50" outDis="50" oid="17423" /><Stop Id="3700" routeId="169區4" nameZh="銀聯二村" seqNo="5" pgp="0" terminal="0" districtId="1" GoBack="2" latitude="24.26832" longitude="120.5648" inDis="50" outDis="50" oid="17424" /><Stop Id="3017" routeId="169區4" nameZh="清水國中" seqNo="6" pgp="0" terminal="0" districtId="1" GoBack="2" latitude="24.26778" longitude="120.56271" inDis="50" outDis="50" oid="17425" /><Stop Id="2588" routeId="169區4" nameZh="南社里" seqNo="8" pgp="0" terminal="0" districtId="1" GoBack="2" latitude="24.26715" longitude="120.56046" inDis="50" outDis="50" oid="17427" /><Stop Id="1732" routeId="169區4" nameZh="牛埔" seqNo="9" pgp="0" terminal="0" districtId="1" GoBack="2" latitude="24.26601" longitude="120.55556" inDis="50" outDis="50" oid="17428" /><Stop Id="2177" routeId="169區4" nameZh="西牛埔" seqNo="10" pgp="0" terminal="0" districtId="1" GoBack="2" latitude="24.26504" longitude="120.55146" inDis="50" outDis="50" oid="17429" /><Stop Id="2444" routeId="169區4" nameZh="東糠榔" seqNo="11" pgp="0" terminal="0" districtId="1" GoBack="2" latitude="24.26431" longitude="120.54853" inDis="50" outDis="50" oid="17430" /><Stop Id="3895" routeId="169區4" nameZh="糠榔" seqNo="12" pgp="0" terminal="0" districtId="1" GoBack="2" latitude="24.26342" longitude="120.54513" inDis="50" outDis="50" oid="17431" /><Stop Id="4810" routeId="169區4" nameZh="竹圍(港埠路)" seqNo="13" pgp="0" terminal="0" districtId="1" GoBack="2" latitude="24.2618" longitude="120.54158" inDis="50" outDis="50" oid="17432" /><Stop Id="5064" routeId="169區4" nameZh="臺中港郵局" seqNo="14" pgp="0" terminal="0" districtId="1" GoBack="2" latitude="24.26193" longitude="120.53741" inDis="50" outDis="50" oid="17433" /><Stop Id="5065" routeId="169區4" nameZh="臺銀中港分行" seqNo="15" pgp="0" terminal="0" districtId="1" GoBack="2" latitude="24.25989" longitude="120.53642" inDis="50" outDis="50" oid="17434" /><Stop Id="4840" routeId="169區4" nameZh="國都飯店" seqNo="16" pgp="0" terminal="0" districtId="1" GoBack="2" latitude="24.2594" longitude="120.5349" inDis="50" outDis="50" oid="17435" /><Stop Id="4668" routeId="169區4" nameZh="頂寮里" seqNo="17" pgp="0" terminal="0" districtId="1" GoBack="2" latitude="24.2604" longitude="120.53231" inDis="50" outDis="50" oid="17436" /><Stop Id="4783" routeId="169區4" nameZh="下寮里(富美宮)" seqNo="18" pgp="0" terminal="0" districtId="1" GoBack="2" latitude="24.26079" longitude="120.53035" inDis="50" outDis="50" oid="15281" /><Stop Id="1208" routeId="169區4" nameZh="下寮社區" seqNo="19" pgp="0" terminal="0" districtId="1" GoBack="2" latitude="24.25874" longitude="120.53002" inDis="50" outDis="50" oid="17437" /><Stop Id="2997" routeId="169區4" nameZh="梧棲(梧棲路)" seqNo="20" pgp="0" terminal="0" districtId="1" GoBack="2" latitude="24.25658" longitude="120.52957" inDis="50" outDis="50" oid="17438" /><Stop Id="2107" routeId="169區4" nameZh="安仁里" seqNo="21" pgp="0" terminal="0" districtId="1" GoBack="2" latitude="24.25361" longitude="120.52855" inDis="50" outDis="50" oid="17439" /><Stop Id="2999" routeId="169區4" nameZh="梧棲國小" seqNo="22" pgp="0" terminal="0" districtId="1" GoBack="2" latitude="24.25212" longitude="120.53032" inDis="50" outDis="50" oid="17442" /><Stop Id="3250" routeId="169區4" nameZh="臺灣大道港埠路口" seqNo="23" pgp="0" terminal="0" districtId="1" GoBack="2" latitude="24.25083" longitude="120.53444" inDis="50" outDis="50" oid="17443" /><Stop Id="1334" routeId="169區4" nameZh="大庄" seqNo="24" pgp="0" terminal="0" districtId="1" GoBack="2" latitude="24.24908" longitude="120.53916" inDis="50" outDis="50" oid="17444" /><Stop Id="4824" routeId="169區4" nameZh="邱厝庄" seqNo="25" pgp="0" terminal="0" districtId="1" GoBack="2" latitude="24.24818" longitude="120.54117" inDis="50" outDis="50" oid="17445" /><Stop Id="4041" routeId="169區4" nameZh="童綜合醫院(梧棲院區)" seqNo="26" pgp="0" terminal="0" districtId="1" GoBack="2" latitude="24.24757" longitude="120.54319" inDis="50" outDis="50" oid="17446" /><Stop Id="4007" routeId="169區4" nameZh="體育館前" seqNo="27" pgp="0" terminal="0" districtId="1" GoBack="2" latitude="24.2471" longitude="120.54472" inDis="50" outDis="50" oid="17447" /><Stop Id="4822" routeId="169區4" nameZh="東大庄" seqNo="28" pgp="0" terminal="0" districtId="1" GoBack="2" latitude="24.24643" longitude="120.54653" inDis="50" outDis="50" oid="17448" /><Stop Id="1088" routeId="169區4" nameZh="三條圳" seqNo="29" pgp="0" terminal="0" districtId="1" GoBack="2" latitude="24.24548" longitude="120.54911" inDis="50" outDis="50" oid="17449" /><Stop Id="1482" routeId="169區4" nameZh="中港國小" seqNo="30" pgp="0" terminal="0" districtId="1" GoBack="2" latitude="24.24273" longitude="120.55659" inDis="50" outDis="50" oid="17450" /><Stop Id="5135" routeId="169區4" nameZh="第一銀行(沙鹿分行)" seqNo="31" pgp="0" terminal="0" districtId="1" GoBack="2" latitude="24.23932" longitude="120.56" inDis="50" outDis="50" oid="14046" /><Stop Id="2248" routeId="169區4" nameZh="沙鹿站" seqNo="32" pgp="0" terminal="0" districtId="1" GoBack="2" latitude="24.23782" longitude="120.561" inDis="50" outDis="50" oid="17452" /><Stop Id="2682" routeId="169區4" nameZh="洛泉里" seqNo="33" pgp="0" terminal="0" districtId="1" GoBack="2" latitude="24.23768" longitude="120.56236" inDis="50" outDis="50" oid="312574878" /><Stop Id="4390" routeId="169區4" nameZh="沙鹿高工(中山路)" seqNo="34" pgp="0" terminal="0" districtId="1" GoBack="2" latitude="24.23722" longitude="120.56494" inDis="50" outDis="50" oid="17454" /><Stop Id="5222" routeId="169區4" nameZh="中山鎮政路口" seqNo="35" pgp="0" terminal="0" districtId="1" GoBack="2" latitude="24.23698" longitude="120.56673" inDis="50" outDis="50" oid="310787750" /><Stop Id="5221" routeId="169區4" nameZh="中山臺灣大道口" seqNo="36" pgp="0" terminal="0" districtId="1" GoBack="2" latitude="24.2371" longitude="120.56918" inDis="50" outDis="50" oid="310787748" /><Stop Id="4389" routeId="169區4" nameZh="竹林里" seqNo="37" pgp="0" terminal="0" districtId="1" GoBack="2" latitude="24.23632" longitude="120.56994" inDis="50" outDis="50" oid="17457" /><Stop Id="4392" routeId="169區4" nameZh="紅竹巷" seqNo="38" pgp="0" terminal="0" districtId="1" GoBack="2" latitude="24.2342" longitude="120.57129" inDis="50" outDis="50" oid="17458" /><Stop Id="4086" routeId="169區4" nameZh="臺灣大道北勢路口" seqNo="39" pgp="0" terminal="0" districtId="1" GoBack="2" latitude="24.23102" longitude="120.57331" inDis="50" outDis="50" oid="17459" /><Stop Id="4147" routeId="169區4" nameZh="靜宜大學" seqNo="40" pgp="0" terminal="0" districtId="1" GoBack="2" latitude="24.22495" longitude="120.5771" inDis="50" outDis="50" oid="17531" /></BusInfo></BusDynInfo>