<?xml version="1.0" encoding="UTF-8" standalone="yes"?>
<BusDynInfo><EssentialInfo><Location><name>TCBUS</name><CenterName>Maxwin</CenterName></Location><UpdateTime>2014-12-20 07:21:52</UpdateTime><CoordinateSystem/></EssentialInfo>
<BusInfo><Stop Id="0041" routeId="6" nameZh="臺中火車站" seqNo="1" pgp="0" terminal="0" districtId="1" GoBack="1" latitude="24.13784" longitude="120.68464" inDis="50" outDis="50" oid="C167CA455EFE4FFCB38588B3A312B63B" /><Stop Id="0151" routeId="6" nameZh="第一廣場" seqNo="2" pgp="0" terminal="0" districtId="1" GoBack="1" latitude="24.13906" longitude="120.68345" inDis="50" outDis="50" oid="C81EADEE4A264A87952E15D4306AB72D" /><Stop Id="4401" routeId="6" nameZh="彰化銀行(臺灣大道)" seqNo="3" pgp="0" terminal="0" districtId="1" GoBack="1" latitude="24.13984" longitude="120.6826" inDis="50" outDis="50" oid="95C23B3D67B441DEA2964A8080ADB25E" /><Stop Id="0206" routeId="6" nameZh="第一信用" seqNo="4" pgp="0" terminal="0" districtId="1" GoBack="1" latitude="24.14046" longitude="120.68212" inDis="50" outDis="50" oid="4F0E625E438442E89D3E7E588EB4E817" /><Stop Id="4395" routeId="6" nameZh="第二市場(臺灣大道)" seqNo="5" pgp="0" terminal="0" districtId="1" GoBack="1" latitude="24.14198" longitude="120.68014" inDis="50" outDis="50" oid="7573151EFC6949B795139FEDD5D0D6A0" /><Stop Id="5506" routeId="6" nameZh="光復國小(三民路)" seqNo="6" pgp="0" terminal="0" districtId="1" GoBack="1" latitude="24.14407" longitude="120.68133" inDis="50" outDis="50" oid="F6FA47A1BA3940DE92C76AA095B5D022" /><Stop Id="4543" routeId="6" nameZh="臺中公園(三民路)" seqNo="7" pgp="0" terminal="0" districtId="1" GoBack="1" latitude="24.14525" longitude="120.68227" inDis="50" outDis="50" oid="3889DA37343F488CA07D04BACAD3EFF3" /><Stop Id="0045" routeId="6" nameZh="國立臺中科技大學" seqNo="8" pgp="0" terminal="0" districtId="1" GoBack="1" latitude="24.14921" longitude="120.68387" inDis="50" outDis="50" oid="994C49E4076C4E45996C70C565FF9B1B" /><Stop Id="0046" routeId="6" nameZh="中友百貨" seqNo="9" pgp="0" terminal="0" districtId="1" GoBack="1" latitude="24.15241" longitude="120.68514" inDis="50" outDis="50" oid="B14D08C718A34651A508B74873213384" /><Stop Id="3772" routeId="6" nameZh="五權學士路口" seqNo="10" pgp="0" terminal="0" districtId="1" GoBack="1" latitude="24.1538" longitude="120.68381" inDis="50" outDis="50" oid="900AB447C1A84ABF9B0307D4C19EF61B" /><Stop Id="0146" routeId="6" nameZh="五常里" seqNo="11" pgp="0" terminal="0" districtId="1" GoBack="1" latitude="24.15236" longitude="120.68025" inDis="50" outDis="50" oid="247487935B4E415DB0F48B572D8D2B2A" /><Stop Id="0145" routeId="6" nameZh="光大里" seqNo="12" pgp="0" terminal="0" districtId="1" GoBack="1" latitude="24.15177" longitude="120.67864" inDis="50" outDis="50" oid="9AEB2335BC2F41BE84BD87430620C4D1" /><Stop Id="0503" routeId="6" nameZh="臺中二中" seqNo="13" pgp="0" terminal="0" districtId="1" GoBack="1" latitude="24.15247" longitude="120.67733" inDis="50" outDis="50" oid="4BF41FD8F19248D1B76E3E931E9CD31C" /><Stop Id="0481" routeId="6" nameZh="文莊里" seqNo="14" pgp="0" terminal="0" districtId="1" GoBack="1" latitude="24.15466" longitude="120.67743" inDis="50" outDis="50" oid="9ED68F3AEB42477E8295E898B94C17C6" /><Stop Id="0092" routeId="6" nameZh="邱厝里" seqNo="15" pgp="0" terminal="0" districtId="1" GoBack="1" latitude="24.15662" longitude="120.67654" inDis="50" outDis="50" oid="1A3F833142E74A8DAD16231165B2490C" /><Stop Id="5732" routeId="6" nameZh="中清健行路口" seqNo="16" pgp="0" terminal="0" districtId="1" GoBack="1" latitude="24.15863" longitude="120.67614" inDis="50" outDis="50" oid="009BE350135A46E7870EC3D6994CA747" /><Stop Id="5733" routeId="6" nameZh="大道公廟(中清路)" seqNo="17" pgp="0" terminal="0" districtId="1" GoBack="1" latitude="24.16061" longitude="120.67533" inDis="50" outDis="50" oid="913DE806DEE146C38BE56C32FEC939B6" /><Stop Id="5734" routeId="6" nameZh="中清忠明路口" seqNo="18" pgp="0" terminal="0" districtId="1" GoBack="1" latitude="24.16233" longitude="120.67484" inDis="50" outDis="50" oid="34ED003637CF441AAA6148A660018C54" /><Stop Id="5735" routeId="6" nameZh="中清太原路口" seqNo="19" pgp="0" terminal="0" districtId="1" GoBack="1" latitude="24.16409" longitude="120.67415" inDis="50" outDis="50" oid="94A3DB58D5D1450FA36E9316B703E759" /><Stop Id="5736" routeId="6" nameZh="中清漢口路口" seqNo="20" pgp="0" terminal="0" districtId="1" GoBack="1" latitude="24.16651" longitude="120.67332" inDis="50" outDis="50" oid="0DFE2E8283F649B89A0BF41A48AB216A" /><Stop Id="5737" routeId="6" nameZh="曉明女中(中清路)" seqNo="21" pgp="0" terminal="0" districtId="1" GoBack="1" latitude="24.16835" longitude="120.67292" inDis="50" outDis="50" oid="E99A845B157C499293492F1879F0D1B0" /><Stop Id="1629" routeId="6" nameZh="天津路商圈" seqNo="22" pgp="0" terminal="0" districtId="1" GoBack="1" latitude="24.17062" longitude="120.67218" inDis="50" outDis="50" oid="CFDB0D0FFB664D12983DAF2181610824" /><Stop Id="0805" routeId="6" nameZh="頂賴厝" seqNo="23" pgp="0" terminal="0" districtId="1" GoBack="1" latitude="24.1721" longitude="120.67181" inDis="50" outDis="50" oid="FBADCB6886F6487DB2C895CC51D221B4" /><Stop Id="0334" routeId="6" nameZh="下水湳" seqNo="24" pgp="0" terminal="0" districtId="1" GoBack="1" latitude="24.17535" longitude="120.67095" inDis="50" outDis="50" oid="6B4F9E33C8B446F0B9B8A76F51303F0C" /><Stop Id="0486" routeId="6" nameZh="水湳" seqNo="25" pgp="0" terminal="0" districtId="1" GoBack="1" latitude="24.17636" longitude="120.67008" inDis="30" outDis="30" oid="319227554" /><Stop Id="5100" routeId="6" nameZh="水湳市場(中清路)" seqNo="26" pgp="0" terminal="0" districtId="1" GoBack="1" latitude="24.17756" longitude="120.66916" inDis="50" outDis="50" oid="319227555" /><Stop Id="0385" routeId="6" nameZh="大德國中" seqNo="27" pgp="0" terminal="0" districtId="1" GoBack="1" latitude="24.17894" longitude="120.66815" inDis="50" outDis="50" oid="2A4AA4ABB45B46D4B2537CD8AE12D26E" /><Stop Id="0593" routeId="6" nameZh="全民醫院" seqNo="28" pgp="0" terminal="0" districtId="1" GoBack="1" latitude="24.18134" longitude="120.66655" inDis="50" outDis="50" oid="01A0B4823FD248B689ED6BC1074682B2" /><Stop Id="0789" routeId="6" nameZh="陳平" seqNo="29" pgp="0" terminal="0" districtId="1" GoBack="1" latitude="24.18302" longitude="120.66559" inDis="50" outDis="50" oid="2986084F1E014F88ACB3E1B7ACF7A86F" /><Stop Id="0801" routeId="6" nameZh="頂陳平" seqNo="30" pgp="0" terminal="0" districtId="1" GoBack="1" latitude="24.1845" longitude="120.66475" inDis="50" outDis="50" oid="19644082D44C422CB4B7EEBD72D7EC2E" /><Stop Id="2638" routeId="6" nameZh="后庄仔" seqNo="31" pgp="0" terminal="0" districtId="1" GoBack="1" latitude="24.1865" longitude="120.66365" inDis="50" outDis="50" oid="C9D6B93CF70B4C628B42468EAA9DA131" /><Stop Id="0989" routeId="6" nameZh="中清后庄路口" seqNo="32" pgp="0" terminal="0" districtId="1" GoBack="1" latitude="24.1883" longitude="120.66262" inDis="50" outDis="50" oid="20960530156A41E9AA06D02EE6479576" /><Stop Id="0708" routeId="6" nameZh="后庄國宅" seqNo="33" pgp="0" terminal="0" districtId="1" GoBack="1" latitude="24.19035" longitude="120.66143" inDis="50" outDis="50" oid="68ED624491414F5D85A6F70EB5A9B678" /><Stop Id="3293" routeId="6" nameZh="貿易三村" seqNo="34" pgp="0" terminal="0" districtId="1" GoBack="1" latitude="24.19228" longitude="120.66029" inDis="50" outDis="50" oid="F98DE0D7EDB345278CD4203455034B62" /><Stop Id="2069" routeId="6" nameZh="中清同榮路口" seqNo="35" pgp="0" terminal="0" districtId="1" GoBack="1" latitude="24.19372" longitude="120.65942" inDis="50" outDis="50" oid="84BAA059AAE94A14AB7023534F276E65" /><Stop Id="0136" routeId="6" nameZh="下港尾" seqNo="36" pgp="0" terminal="0" districtId="1" GoBack="1" latitude="24.19545" longitude="120.65836" inDis="50" outDis="50" oid="BA8F3BA5596C474F958D85417CCFDD3B" /><Stop Id="1475" routeId="6" nameZh="中清環中路口" seqNo="37" pgp="0" terminal="0" districtId="1" GoBack="1" latitude="24.19898" longitude="120.65619" inDis="50" outDis="50" oid="0964360A5479493CAC91437973FCB313" /><Stop Id="0827" routeId="6" nameZh="港尾" seqNo="38" pgp="0" terminal="0" districtId="1" GoBack="1" latitude="24.20036" longitude="120.65532" inDis="50" outDis="50" oid="620D576D65DE47499F84B690D8899282" /><Stop Id="3247" routeId="6" nameZh="港尾橋" seqNo="39" pgp="0" terminal="0" districtId="1" GoBack="1" latitude="24.2034" longitude="120.65363" inDis="50" outDis="50" oid="3645" /><Stop Id="0936" routeId="6" nameZh="頭張(中清路)" seqNo="40" pgp="0" terminal="0" districtId="1" GoBack="1" latitude="24.20594" longitude="120.6524" inDis="50" outDis="50" oid="809039BCD21A45BBBDF522C1CA58F0A5" /><Stop Id="0806" routeId="6" nameZh="頂頭張(中清路)" seqNo="41" pgp="0" terminal="0" districtId="1" GoBack="1" latitude="24.20769" longitude="120.6517" inDis="50" outDis="50" oid="2038DE7FECFE4081A1580357AF0C7092" /><Stop Id="1348" routeId="6" nameZh="大雅交流道" seqNo="42" pgp="0" terminal="0" districtId="1" GoBack="1" latitude="24.20939" longitude="120.6509" inDis="50" outDis="50" oid="308058862" /><Stop Id="0938" routeId="6" nameZh="龍善寺" seqNo="43" pgp="0" terminal="0" districtId="1" GoBack="1" latitude="24.21217" longitude="120.65013" inDis="50" outDis="50" oid="E5137BE06C2A4F24B330DFA8E44609D5" /><Stop Id="1345" routeId="6" nameZh="大華國中" seqNo="44" pgp="0" terminal="0" districtId="1" GoBack="1" latitude="24.21521" longitude="120.64956" inDis="50" outDis="50" oid="5BB4187D820D4757827153749206AB4F" /><Stop Id="2558" routeId="6" nameZh="南大雅" seqNo="45" pgp="0" terminal="0" districtId="1" GoBack="1" latitude="24.21697" longitude="120.64923" inDis="50" outDis="50" oid="9CF9646B1824456FAA6826704A9184AB" /><Stop Id="4306" routeId="6" nameZh="中清雅潭路口" seqNo="46" pgp="0" terminal="0" districtId="1" GoBack="1" latitude="24.2198" longitude="120.64808" inDis="50" outDis="50" oid="2A80E6447DE14104B123FE106E9F5779" /><Stop Id="1346" routeId="6" nameZh="大雅" seqNo="47" pgp="0" terminal="0" districtId="1" GoBack="1" latitude="24.22356" longitude="120.64804" inDis="50" outDis="50" oid="1740F4069EEA45C1864039ACA14B71C3" /><Stop Id="1620" routeId="6" nameZh="大雅分駐所" seqNo="48" pgp="0" terminal="0" districtId="1" GoBack="1" latitude="24.22493" longitude="120.64682" inDis="50" outDis="50" oid="6977D047141849C5BC29B7A698C9CD14" /><Stop Id="5423" routeId="6" nameZh="大雅澄清醫院" seqNo="49" pgp="0" terminal="0" districtId="1" GoBack="1" latitude="24.22699" longitude="120.64457" inDis="50" outDis="50" oid="313288973" /><Stop Id="4651" routeId="6" nameZh="大明國小(中清路)" seqNo="50" pgp="0" terminal="0" districtId="1" GoBack="1" latitude="24.22874" longitude="120.64288" inDis="50" outDis="50" oid="CB64F05774DC419A8B6A40F0B772A32D" /><Stop Id="2253" routeId="6" nameZh="秀山里" seqNo="51" pgp="0" terminal="0" districtId="1" GoBack="1" latitude="24.23034" longitude="120.64131" inDis="50" outDis="50" oid="7CF5A582E68D4FC6A7DCEF938B35031F" /><Stop Id="2798" routeId="6" nameZh="泰聯公司" seqNo="52" pgp="0" terminal="0" districtId="1" GoBack="1" latitude="24.2331" longitude="120.63847" inDis="50" outDis="50" oid="27214FDE7184410ABF972E795AF52CDC" /><Stop Id="1593" routeId="6" nameZh="六寶里" seqNo="53" pgp="0" terminal="0" districtId="1" GoBack="1" latitude="24.23654" longitude="120.63495" inDis="50" outDis="50" oid="DB181C859CD04C3EBDDFC8D051B6959F" /><Stop Id="2289" routeId="6" nameZh="亞東公司" seqNo="54" pgp="0" terminal="0" districtId="1" GoBack="1" latitude="24.23905" longitude="120.63238" inDis="50" outDis="50" oid="41F45D5AF249445FAECF6D6432E2F566" /><Stop Id="1591" routeId="6" nameZh="六張犁" seqNo="55" pgp="0" terminal="0" districtId="1" GoBack="1" latitude="24.24015" longitude="120.63124" inDis="50" outDis="50" oid="EBFADEDA761C48B5A70E45E3540BABF4" /><Stop Id="1660" routeId="6" nameZh="月祥文化路口" seqNo="56" pgp="0" terminal="0" districtId="1" GoBack="1" latitude="24.24067" longitude="120.62876" inDis="50" outDis="50" oid="B422F6F022DE448C9669DB2D7B905C31" /><Stop Id="5030" routeId="6" nameZh="六寶公園" seqNo="57" pgp="0" terminal="0" districtId="1" GoBack="1" latitude="24.23705" longitude="120.62584" inDis="50" outDis="50" oid="309520676" /><Stop Id="2350" routeId="6" nameZh="忠義市場(原民中心)" seqNo="58" pgp="0" terminal="0" districtId="1" GoBack="1" latitude="24.2351" longitude="120.62448" inDis="50" outDis="50" oid="B1002A3DED024F2CAB6289048EA7EDD5" /><Stop Id="5110" routeId="6" nameZh="忠義里(中科實驗高中)" seqNo="60" pgp="0" terminal="1" districtId="1" GoBack="1" latitude="24.23109" longitude="120.62391" inDis="50" outDis="50" oid="60C2BDC8F7364A43AA53713CD57733FC" /><Stop Id="5110" routeId="6" nameZh="忠義里(中科實驗高中)" seqNo="1" pgp="0" terminal="0" districtId="1" GoBack="2" latitude="24.23111" longitude="120.62395" inDis="50" outDis="50" oid="E1463B88D2E3489191E0C59267D20867" /><Stop Id="2350" routeId="6" nameZh="忠義市場(原民中心)" seqNo="2" pgp="0" terminal="0" districtId="1" GoBack="2" latitude="24.23497" longitude="120.62439" inDis="50" outDis="50" oid="7DCCDCB7D19349B3ACA148882BC4490F" /><Stop Id="5030" routeId="6" nameZh="六寶公園" seqNo="3" pgp="0" terminal="0" districtId="1" GoBack="2" latitude="24.23703" longitude="120.62584" inDis="50" outDis="50" oid="309520677" /><Stop Id="1660" routeId="6" nameZh="月祥文化路口" seqNo="4" pgp="0" terminal="0" districtId="1" GoBack="2" latitude="24.24054" longitude="120.62821" inDis="50" outDis="50" oid="FE5C51D0497B4D4CBE89EA0811F1BCE9" /><Stop Id="1591" routeId="6" nameZh="六張犁" seqNo="5" pgp="0" terminal="0" districtId="1" GoBack="2" latitude="24.24016" longitude="120.63098" inDis="50" outDis="50" oid="31AFE6DBC2714D539196C066CBC20B32" /><Stop Id="2289" routeId="6" nameZh="亞東公司" seqNo="6" pgp="0" terminal="0" districtId="1" GoBack="2" latitude="24.23922" longitude="120.63194" inDis="50" outDis="50" oid="E1B6DD4D38FF4C88835DB0226F539050" /><Stop Id="1593" routeId="6" nameZh="六寶里" seqNo="7" pgp="0" terminal="0" districtId="1" GoBack="2" latitude="24.23667" longitude="120.63457" inDis="50" outDis="50" oid="D0D2B2860EE248D9ABC0B61DE7BBF3AB" /><Stop Id="2798" routeId="6" nameZh="泰聯公司" seqNo="8" pgp="0" terminal="0" districtId="1" GoBack="2" latitude="24.2331" longitude="120.63847" inDis="50" outDis="50" oid="1FD6637206FE4B609239D89232100EA6" /><Stop Id="2253" routeId="6" nameZh="秀山里" seqNo="9" pgp="0" terminal="0" districtId="1" GoBack="2" latitude="24.2305" longitude="120.64088" inDis="50" outDis="50" oid="2BEF1238D3C34B9B9432A0D166A06B86" /><Stop Id="4651" routeId="6" nameZh="大明國小(中清路)" seqNo="10" pgp="0" terminal="0" districtId="1" GoBack="2" latitude="24.22846" longitude="120.64296" inDis="50" outDis="50" oid="C7D040ED6E8D4034817CD789AB2C88CB" /><Stop Id="5423" routeId="6" nameZh="大雅澄清醫院" seqNo="11" pgp="0" terminal="0" districtId="1" GoBack="2" latitude="24.22699" longitude="120.64457" inDis="50" outDis="50" oid="313288973" /><Stop Id="1620" routeId="6" nameZh="大雅分駐所" seqNo="12" pgp="0" terminal="0" districtId="1" GoBack="2" latitude="24.22498" longitude="120.64661" inDis="50" outDis="50" oid="4A29C2779B9A40B2BD01F48233D413C2" /><Stop Id="1346" routeId="6" nameZh="大雅" seqNo="13" pgp="0" terminal="0" districtId="1" GoBack="2" latitude="24.22288" longitude="120.64805" inDis="50" outDis="50" oid="B42B6C3875D345B59E0D9759A67CF0C3" /><Stop Id="4306" routeId="6" nameZh="中清雅潭路口" seqNo="14" pgp="0" terminal="0" districtId="1" GoBack="2" latitude="24.21971" longitude="120.64799" inDis="50" outDis="50" oid="D84814BFB3114CDE98A44CE0E4B8673E" /><Stop Id="2558" routeId="6" nameZh="南大雅" seqNo="15" pgp="0" terminal="0" districtId="1" GoBack="2" latitude="24.21724" longitude="120.64909" inDis="50" outDis="50" oid="37B96B8128A84D31AD1EE9AB9ACFECB2" /><Stop Id="1345" routeId="6" nameZh="大華國中" seqNo="16" pgp="0" terminal="0" districtId="1" GoBack="2" latitude="24.21475" longitude="120.64951" inDis="50" outDis="50" oid="3E308F6EEB5242048A3DB23DE7636EFA" /><Stop Id="0938" routeId="6" nameZh="龍善寺" seqNo="17" pgp="0" terminal="0" districtId="1" GoBack="2" latitude="24.21227" longitude="120.64998" inDis="50" outDis="50" oid="9F0E3769148840C6A903A5D08B1E573C" /><Stop Id="1348" routeId="6" nameZh="大雅交流道" seqNo="18" pgp="0" terminal="0" districtId="1" GoBack="2" latitude="24.20979" longitude="120.6507" inDis="50" outDis="50" oid="307750209" /><Stop Id="0806" routeId="6" nameZh="頂頭張(中清路)" seqNo="19" pgp="0" terminal="0" districtId="1" GoBack="2" latitude="24.20754" longitude="120.65156" inDis="50" outDis="50" oid="096D68858861478A886BFDE00D0DB5FF" /><Stop Id="0936" routeId="6" nameZh="頭張(中清路)" seqNo="20" pgp="0" terminal="0" districtId="1" GoBack="2" latitude="24.20598" longitude="120.65233" inDis="50" outDis="50" oid="D8C5975EE971467E83C4024456675837" /><Stop Id="3247" routeId="6" nameZh="港尾橋" seqNo="21" pgp="0" terminal="0" districtId="1" GoBack="2" latitude="24.2034" longitude="120.65363" inDis="50" outDis="50" oid="3645" /><Stop Id="0827" routeId="6" nameZh="港尾" seqNo="22" pgp="0" terminal="0" districtId="1" GoBack="2" latitude="24.20085" longitude="120.65488" inDis="50" outDis="50" oid="80445C09EDBA4FB5AA131E314FA23CB0" /><Stop Id="1475" routeId="6" nameZh="中清環中路口" seqNo="23" pgp="0" terminal="0" districtId="1" GoBack="2" latitude="24.19847" longitude="120.65628" inDis="50" outDis="50" oid="FC9509C594F04EAFA81036266294DD43" /><Stop Id="0136" routeId="6" nameZh="下港尾" seqNo="24" pgp="0" terminal="0" districtId="1" GoBack="2" latitude="24.19519" longitude="120.65828" inDis="50" outDis="50" oid="1E1097C1B28B4D47A0976CA97DC2DE18" /><Stop Id="2069" routeId="6" nameZh="中清同榮路口" seqNo="25" pgp="0" terminal="0" districtId="1" GoBack="2" latitude="24.19357" longitude="120.65938" inDis="50" outDis="50" oid="A4D10D628E924EEABA9DA4F1D5EB856B" /><Stop Id="3293" routeId="6" nameZh="貿易三村" seqNo="26" pgp="0" terminal="0" districtId="1" GoBack="2" latitude="24.19186" longitude="120.6604" inDis="50" outDis="50" oid="CF90FCC2E1514A2F9CC0CB2CD4338C9D" /><Stop Id="0708" routeId="6" nameZh="后庄國宅" seqNo="27" pgp="0" terminal="0" districtId="1" GoBack="2" latitude="24.19024" longitude="120.66144" inDis="50" outDis="50" oid="A10E78082C124078AECBC25E6D875A52" /><Stop Id="0989" routeId="6" nameZh="中清后庄路口" seqNo="28" pgp="0" terminal="0" districtId="1" GoBack="2" latitude="24.18803" longitude="120.66264" inDis="50" outDis="50" oid="7B3AA59DEE9D48C691A727E4135AA11B" /><Stop Id="2638" routeId="6" nameZh="后庄仔" seqNo="29" pgp="0" terminal="0" districtId="1" GoBack="2" latitude="24.18675" longitude="120.66333" inDis="50" outDis="50" oid="C18004E4F82C4932B64DE1E61B29C9A1" /><Stop Id="0801" routeId="6" nameZh="頂陳平" seqNo="30" pgp="0" terminal="0" districtId="1" GoBack="2" latitude="24.1846" longitude="120.66466" inDis="50" outDis="50" oid="776914084DDA4F39BB7305C3B1338D5F" /><Stop Id="0789" routeId="6" nameZh="陳平" seqNo="31" pgp="0" terminal="0" districtId="1" GoBack="2" latitude="24.18201" longitude="120.66619" inDis="50" outDis="50" oid="A79D1A7213DA46D19EEC19EF1152FD4B" /><Stop Id="0593" routeId="6" nameZh="全民醫院" seqNo="32" pgp="0" terminal="0" districtId="1" GoBack="2" latitude="24.1805" longitude="120.6668" inDis="50" outDis="50" oid="4C8C01C35CFE4D818D4D1F7A045528DA" /><Stop Id="0385" routeId="6" nameZh="大德國中" seqNo="33" pgp="0" terminal="0" districtId="1" GoBack="2" latitude="24.17953" longitude="120.66768" inDis="50" outDis="50" oid="9B2EE187D8A04920BE4EB194E36AB894" /><Stop Id="5100" routeId="6" nameZh="水湳市場(中清路)" seqNo="34" pgp="0" terminal="0" districtId="1" GoBack="2" latitude="24.17756" longitude="120.66916" inDis="50" outDis="50" oid="319227555" /><Stop Id="0486" routeId="6" nameZh="水湳" seqNo="35" pgp="0" terminal="0" districtId="1" GoBack="2" latitude="24.17636" longitude="120.67008" inDis="30" outDis="30" oid="308022314" /><Stop Id="0334" routeId="6" nameZh="下水湳" seqNo="36" pgp="0" terminal="0" districtId="1" GoBack="2" latitude="24.17553" longitude="120.67078" inDis="50" outDis="50" oid="D69AC0FA54AD4C7599C77BACA548875B" /><Stop Id="0805" routeId="6" nameZh="頂賴厝" seqNo="37" pgp="0" terminal="0" districtId="1" GoBack="2" latitude="24.17127" longitude="120.67177" inDis="50" outDis="50" oid="965866CC54FF4E268DF9616A05214C1B" /><Stop Id="1629" routeId="6" nameZh="天津路商圈" seqNo="38" pgp="0" terminal="0" districtId="1" GoBack="2" latitude="24.16994" longitude="120.6722" inDis="50" outDis="50" oid="22DFBF09B3AC420A94E90318A07C24F7" /><Stop Id="5737" routeId="6" nameZh="曉明女中(中清路)" seqNo="39" pgp="0" terminal="0" districtId="1" GoBack="2" latitude="24.16844" longitude="120.67277" inDis="50" outDis="50" oid="EEE57A6B18F14F22BCCD9F06A436A8C2" /><Stop Id="5736" routeId="6" nameZh="中清漢口路口" seqNo="40" pgp="0" terminal="0" districtId="1" GoBack="2" latitude="24.16644" longitude="120.67334" inDis="50" outDis="50" oid="2486142F37134281B7568FAB224083FA" /><Stop Id="5735" routeId="6" nameZh="中清太原路口" seqNo="41" pgp="0" terminal="0" districtId="1" GoBack="2" latitude="24.16425" longitude="120.67408" inDis="50" outDis="50" oid="A393C9CEDC4A4351BCC1DDFF4F0F9FE9" /><Stop Id="5734" routeId="6" nameZh="中清忠明路口" seqNo="42" pgp="0" terminal="0" districtId="1" GoBack="2" latitude="24.16206" longitude="120.67515" inDis="50" outDis="50" oid="C02A12E789034E33BD006AAA8ECF76DE" /><Stop Id="5733" routeId="6" nameZh="大道公廟(中清路)" seqNo="43" pgp="0" terminal="0" districtId="1" GoBack="2" latitude="24.16085" longitude="120.6754" inDis="50" outDis="50" oid="EA01A806BCA24D81A505B5416942E240" /><Stop Id="5732" routeId="6" nameZh="中清健行路口" seqNo="44" pgp="0" terminal="0" districtId="1" GoBack="2" latitude="24.15861" longitude="120.67592" inDis="50" outDis="50" oid="B5CA81078560433EA93D6537281AD4DF" /><Stop Id="0092" routeId="6" nameZh="邱厝里" seqNo="45" pgp="0" terminal="0" districtId="1" GoBack="2" latitude="24.15695" longitude="120.67652" inDis="50" outDis="50" oid="356ECA8C94F64527AADB770F3DD3FF93" /><Stop Id="0481" routeId="6" nameZh="文莊里" seqNo="46" pgp="0" terminal="0" districtId="1" GoBack="2" latitude="24.15487" longitude="120.67723" inDis="50" outDis="50" oid="8374448D47B941B78C09BC7A6142916E" /><Stop Id="0503" routeId="6" nameZh="臺中二中" seqNo="47" pgp="0" terminal="0" districtId="1" GoBack="2" latitude="24.15247" longitude="120.67738" inDis="50" outDis="50" oid="508C089B09C9497197A11B24888C9B23" /><Stop Id="0145" routeId="6" nameZh="光大里" seqNo="48" pgp="0" terminal="0" districtId="1" GoBack="2" latitude="24.15179" longitude="120.67863" inDis="50" outDis="50" oid="08CD2F386FA4465DBB661E6A921E43E8" /><Stop Id="0146" routeId="6" nameZh="五常里" seqNo="49" pgp="0" terminal="0" districtId="1" GoBack="2" latitude="24.15229" longitude="120.68016" inDis="50" outDis="50" oid="895187B4012049C8B470121808B5DD0F" /><Stop Id="3772" routeId="6" nameZh="五權學士路口" seqNo="50" pgp="0" terminal="0" districtId="1" GoBack="2" latitude="24.1538" longitude="120.68381" inDis="50" outDis="50" oid="900AB447C1A84ABF9B0307D4C19EF61B" /><Stop Id="0047" routeId="6" nameZh="一心市場" seqNo="51" pgp="0" terminal="0" districtId="1" GoBack="2" latitude="24.15369" longitude="120.68563" inDis="50" outDis="50" oid="8EA5AE8A2A3F4E69A218E9693FC62B61" /><Stop Id="0046" routeId="6" nameZh="中友百貨" seqNo="52" pgp="0" terminal="0" districtId="1" GoBack="2" latitude="24.15131" longitude="120.68469" inDis="50" outDis="50" oid="B366916E0B354E34B7F18272CA61DA53" /><Stop Id="0045" routeId="6" nameZh="國立臺中科技大學" seqNo="53" pgp="0" terminal="0" districtId="1" GoBack="2" latitude="24.14961" longitude="120.68387" inDis="50" outDis="50" oid="7283F03A2BE144B7B72452CD5BD29117" /><Stop Id="4543" routeId="6" nameZh="臺中公園(三民路)" seqNo="54" pgp="0" terminal="0" districtId="1" GoBack="2" latitude="24.14552" longitude="120.68221" inDis="50" outDis="50" oid="9D21DC3A713749ECA6EE2D8C2F29267A" /><Stop Id="5506" routeId="6" nameZh="光復國小(三民路)" seqNo="55" pgp="0" terminal="0" districtId="1" GoBack="2" latitude="24.14414" longitude="120.68129" inDis="50" outDis="50" oid="3C91ADFEFEE54A3783F79F8C2B88375C" /><Stop Id="4609" routeId="6" nameZh="第二市場(三民路)" seqNo="56" pgp="0" terminal="0" districtId="1" GoBack="2" latitude="24.14268" longitude="120.68" inDis="50" outDis="50" oid="026921CF0B754AB68305BC87090839C1" /><Stop Id="5026" routeId="6" nameZh="美榮藥局" seqNo="57" pgp="0" terminal="0" districtId="1" GoBack="2" latitude="24.14131" longitude="120.67838" inDis="50" outDis="50" oid="309504377" /><Stop Id="4416" routeId="6" nameZh="臺中州廳" seqNo="58" pgp="0" terminal="0" districtId="1" GoBack="2" latitude="24.1391" longitude="120.67848" inDis="50" outDis="50" oid="6DA05825CE704FBB9B2BF69FECA70245" /><Stop Id="0215" routeId="6" nameZh="合作金庫" seqNo="59" pgp="0" terminal="0" districtId="1" GoBack="2" latitude="24.13835" longitude="120.68043" inDis="50" outDis="50" oid="8159" /><Stop Id="0216" routeId="6" nameZh="彰化銀行(自由路)" seqNo="60" pgp="0" terminal="0" districtId="1" GoBack="2" latitude="24.1397" longitude="120.6819" inDis="50" outDis="50" oid="E4B570DADCA84FE0A80A498FB8CCFE0E" /><Stop Id="0905" routeId="6" nameZh="綠川東站" seqNo="61" pgp="0" terminal="0" districtId="1" GoBack="2" latitude="24.13822" longitude="120.68351" inDis="50" outDis="50" oid="FAE57250444D477EAC3E5501646FB743" /></BusInfo></BusDynInfo>