<?xml version="1.0" encoding="UTF-8" standalone="yes"?>
<BusDynInfo><EssentialInfo><Location><name>TCBUS</name><CenterName>Maxwin</CenterName></Location><UpdateTime>2014-12-20 07:20:51</UpdateTime><CoordinateSystem/></EssentialInfo>
<BusInfo><Stop Id="0398" routeId="1" nameZh="道禾六藝文化館" seqNo="1" pgp="0" terminal="0" districtId="1" GoBack="1" latitude="24.13478" longitude="120.67383" inDis="50" outDis="50" oid="319060162" /><Stop Id="0210" routeId="1" nameZh="忠孝國小" seqNo="2" pgp="0" terminal="0" districtId="1" GoBack="1" latitude="24.13709" longitude="120.67409" inDis="50" outDis="50" oid="319048635" /><Stop Id="0209" routeId="1" nameZh="臺中科大民生校區" seqNo="3" pgp="0" terminal="0" districtId="1" GoBack="1" latitude="24.139" longitude="120.67604" inDis="50" outDis="50" oid="319048634" /><Stop Id="4416" routeId="1" nameZh="臺中州廳" seqNo="4" pgp="0" terminal="0" districtId="1" GoBack="1" latitude="24.13896" longitude="120.67842" inDis="50" outDis="50" oid="319048630" /><Stop Id="4284" routeId="1" nameZh="民權繼光街口" seqNo="5" pgp="0" terminal="0" districtId="1" GoBack="1" latitude="24.13706" longitude="120.68095" inDis="50" outDis="50" oid="319048631" /><Stop Id="1824" routeId="1" nameZh="臺中火車站" seqNo="6" pgp="0" terminal="0" districtId="1" GoBack="1" latitude="24.13727" longitude="120.68472" inDis="50" outDis="50" oid="5A6FE2DD3324410E9B2AA48D5CFBD2C0" /><Stop Id="0402" routeId="1" nameZh="干城站" seqNo="7" pgp="0" terminal="0" districtId="1" GoBack="1" latitude="24.14102" longitude="120.6861" inDis="50" outDis="50" oid="FDCEB815EA474F10B0743514101E1797" /><Stop Id="4561" routeId="1" nameZh="立體停車場(雙十路)" seqNo="8" pgp="0" terminal="0" districtId="1" GoBack="1" latitude="24.14251" longitude="120.68577" inDis="50" outDis="50" oid="1B8235DB93E745F2863878176D09CE87" /><Stop Id="4544" routeId="1" nameZh="臺中公園(雙十路)" seqNo="9" pgp="0" terminal="0" districtId="1" GoBack="1" latitude="24.14406" longitude="120.68613" inDis="50" outDis="50" oid="CA00CB538DF941558367AFD968290DE4" /><Stop Id="1513" routeId="1" nameZh="中興堂" seqNo="10" pgp="0" terminal="0" districtId="1" GoBack="1" latitude="24.14626" longitude="120.68448" inDis="50" outDis="50" oid="15989" /><Stop Id="0045" routeId="1" nameZh="國立臺中科技大學" seqNo="12" pgp="0" terminal="0" districtId="1" GoBack="1" latitude="24.14947" longitude="120.68393" inDis="50" outDis="50" oid="52574759FAE1418FAD75EDCB5FB7D79A" /><Stop Id="0046" routeId="1" nameZh="中友百貨" seqNo="13" pgp="0" terminal="0" districtId="1" GoBack="1" latitude="24.15255" longitude="120.68515" inDis="50" outDis="50" oid="A646F5AFA9F14D6883067DD2CC5CC06B" /><Stop Id="0047" routeId="1" nameZh="一心市場" seqNo="14" pgp="0" terminal="0" districtId="1" GoBack="1" latitude="24.1542" longitude="120.68587" inDis="50" outDis="50" oid="F4B71140B9D244C68A570881F199A969" /><Stop Id="0934" routeId="1" nameZh="三民錦中街口" seqNo="15" pgp="0" terminal="0" districtId="1" GoBack="1" latitude="24.15528" longitude="120.68695" inDis="50" outDis="50" oid="24FDD6D380A74CE9980A8304EB771234" /><Stop Id="4399" routeId="1" nameZh="新民高中(三民路)" seqNo="16" pgp="0" terminal="0" districtId="1" GoBack="1" latitude="24.1564" longitude="120.68828" inDis="50" outDis="50" oid="15130F716BDE4A43B764179A787739D8" /><Stop Id="0960" routeId="1" nameZh="寶覺寺" seqNo="17" pgp="0" terminal="0" districtId="1" GoBack="1" latitude="24.15782" longitude="120.68995" inDis="50" outDis="50" oid="D544E90A84E24D1C88F05CD9C8D3B331" /><Stop Id="0892" routeId="1" nameZh="監理站" seqNo="18" pgp="0" terminal="0" districtId="1" GoBack="1" latitude="24.16106" longitude="120.69227" inDis="50" outDis="50" oid="194EE42AEFFB4826B48D8A7D6849849F" /><Stop Id="5405" routeId="1" nameZh="北屯國小(北屯路)" seqNo="19" pgp="0" terminal="0" districtId="1" GoBack="1" latitude="24.16309" longitude="120.69324" inDis="50" outDis="50" oid="6211CB101DA846A1A94E80374F5D48E1" /><Stop Id="0492" routeId="1" nameZh="北屯" seqNo="20" pgp="0" terminal="0" districtId="1" GoBack="1" latitude="24.1652" longitude="120.69443" inDis="50" outDis="50" oid="1D4BC145FF614274A69B393CE5886EA4" /><Stop Id="5511" routeId="1" nameZh="三光國中" seqNo="21" pgp="0" terminal="0" districtId="1" GoBack="1" latitude="24.16807" longitude="120.69624" inDis="50" outDis="50" oid="0D4EA7B7ACEA468EB6F381A51F695051" /><Stop Id="0103" routeId="1" nameZh="大坑口" seqNo="22" pgp="0" terminal="0" districtId="1" GoBack="1" latitude="24.16969" longitude="120.69729" inDis="50" outDis="50" oid="BB7197585D8C41418DFF6DD1BDC9C6B4" /><Stop Id="0222" routeId="1" nameZh="聯安醫院" seqNo="23" pgp="0" terminal="0" districtId="1" GoBack="1" latitude="24.17028" longitude="120.69869" inDis="50" outDis="50" oid="7F423A9DC24D4F9E9BDA39EF50725770" /><Stop Id="4312" routeId="1" nameZh="東光國小" seqNo="24" pgp="0" terminal="0" districtId="1" GoBack="1" latitude="24.1697" longitude="120.70282" inDis="50" outDis="50" oid="78E7E750698346BDB9514E9C453D5165" /><Stop Id="5712" routeId="1" nameZh="三和/東光里" seqNo="25" pgp="0" terminal="0" districtId="1" GoBack="1" latitude="24.16954" longitude="120.7048" inDis="50" outDis="50" oid="12466" /><Stop Id="0679" routeId="1" nameZh="玫瑰新村" seqNo="26" pgp="0" terminal="0" districtId="1" GoBack="1" latitude="24.16958" longitude="120.70674" inDis="50" outDis="50" oid="878D27F571974154B9DA6E9375D7FBDD" /><Stop Id="0484" routeId="1" nameZh="水景里" seqNo="27" pgp="0" terminal="0" districtId="1" GoBack="1" latitude="24.17038" longitude="120.70838" inDis="50" outDis="50" oid="25505AA98CB94FA4928B2E3319B72A5F" /><Stop Id="0325" routeId="1" nameZh="三和社區" seqNo="28" pgp="0" terminal="0" districtId="1" GoBack="1" latitude="24.17121" longitude="120.70955" inDis="50" outDis="50" oid="8427BD5659D44F8BA99FBE078460F0EF" /><Stop Id="0485" routeId="1" nameZh="水景頭" seqNo="29" pgp="0" terminal="0" districtId="1" GoBack="1" latitude="24.17208" longitude="120.71109" inDis="50" outDis="50" oid="3F7C78F4B4E246E3A964D3E7B6F24163" /><Stop Id="0365" routeId="1" nameZh="大華新村" seqNo="30" pgp="0" terminal="0" districtId="1" GoBack="1" latitude="24.17379" longitude="120.7144" inDis="50" outDis="50" oid="A508344BBDC2443EB54E43EE8A741FCF" /><Stop Id="0703" routeId="1" nameZh="建功國小" seqNo="31" pgp="0" terminal="0" districtId="1" GoBack="1" latitude="24.17548" longitude="120.71734" inDis="50" outDis="50" oid="604D4550A8A5435BADB4DCA5FD76F0C9" /><Stop Id="0727" routeId="1" nameZh="軍功里" seqNo="32" pgp="0" terminal="0" districtId="1" GoBack="1" latitude="24.17591" longitude="120.71975" inDis="50" outDis="80" oid="C25B0BE6A8B0444BBA34EFE9F31ADF1F" /><Stop Id="4592" routeId="1" nameZh="和平里(東山路)" seqNo="33" pgp="0" terminal="0" districtId="1" GoBack="1" latitude="24.17601" longitude="120.72206" inDis="50" outDis="80" oid="D7C3DCEDE2694C808193199453153C8F" /><Stop Id="0687" routeId="1" nameZh="長興塑膠" seqNo="34" pgp="0" terminal="0" districtId="1" GoBack="1" latitude="24.17614" longitude="120.72452" inDis="30" outDis="80" oid="00FEC32B10604E8F941D034EA82678EA" /><Stop Id="0555" routeId="1" nameZh="正覺寺" seqNo="35" pgp="0" terminal="0" districtId="1" GoBack="1" latitude="24.1765" longitude="120.72721" inDis="50" outDis="80" oid="4A9F9F066C5C43D4A037C2F3FF0146C4" /><Stop Id="0854" routeId="1" nameZh="圓山新村" seqNo="36" pgp="0" terminal="0" districtId="1" GoBack="1" latitude="24.17701" longitude="120.73186" inDis="50" outDis="80" oid="55760E049AD24CCFBBC8478639895C3C" /><Stop Id="0534" routeId="1" nameZh="台電東山所" seqNo="37" pgp="0" terminal="0" districtId="1" GoBack="1" latitude="24.17712" longitude="120.73464" inDis="50" outDis="50" oid="1462E6ACAA2C43469D9DAE4671739058" /><Stop Id="0768" routeId="1" nameZh="梨仔園" seqNo="38" pgp="0" terminal="0" districtId="1" GoBack="1" latitude="24.17767" longitude="120.73565" inDis="50" outDis="50" oid="7526F075EA67423C943EED03B6F9922E" /><Stop Id="0784" routeId="1" nameZh="逢甲橋" seqNo="39" pgp="0" terminal="0" districtId="1" GoBack="1" latitude="24.17842" longitude="120.73721" inDis="50" outDis="50" oid="311262894" /><Stop Id="0350" routeId="1" nameZh="大坑圓環" seqNo="40" pgp="0" terminal="0" districtId="1" GoBack="1" latitude="24.17875" longitude="120.73934" inDis="50" outDis="50" oid="0146A68165D0497E970F964CC2A1603D" /><Stop Id="0351" routeId="1" nameZh="大坑橋" seqNo="41" pgp="0" terminal="0" districtId="1" GoBack="1" latitude="24.17774" longitude="120.73951" inDis="50" outDis="50" oid="19F08B39A579449C9D8650A6E60343B7" /><Stop Id="0917" routeId="1" nameZh="樂達利山莊" seqNo="42" pgp="0" terminal="0" districtId="1" GoBack="1" latitude="24.17622" longitude="120.738" inDis="50" outDis="50" oid="C89FC30E4ED24948822AD794C69DB0D2" /><Stop Id="1429" routeId="1" nameZh="中臺科技大學" seqNo="43" pgp="0" terminal="1" districtId="1" GoBack="1" latitude="24.17432" longitude="120.73549" inDis="50" outDis="50" oid="6B7792AEAD8942F7A0044AEA6C3522F3" /><Stop Id="1429" routeId="1" nameZh="中臺科技大學" seqNo="1" pgp="0" terminal="0" districtId="1" GoBack="2" latitude="24.17441" longitude="120.73545" inDis="50" outDis="50" oid="F69CFD56DF1C4EE4BF22E90ECE979DC5" /><Stop Id="0917" routeId="1" nameZh="樂達利山莊" seqNo="2" pgp="0" terminal="0" districtId="1" GoBack="2" latitude="24.17636" longitude="120.73831" inDis="50" outDis="50" oid="C5D08D8331CF43658034CDE1EA21A956" /><Stop Id="0351" routeId="1" nameZh="大坑橋" seqNo="3" pgp="0" terminal="0" districtId="1" GoBack="2" latitude="24.17765" longitude="120.73956" inDis="50" outDis="50" oid="A4BEB3FE4992493AA450062DE1EEAD14" /><Stop Id="0350" routeId="1" nameZh="大坑圓環" seqNo="4" pgp="0" terminal="0" districtId="1" GoBack="2" latitude="24.17902" longitude="120.73978" inDis="50" outDis="50" oid="7C9AB2F747D54D23B6A01F249E91F013" /><Stop Id="0784" routeId="1" nameZh="逢甲橋" seqNo="5" pgp="0" terminal="0" districtId="1" GoBack="2" latitude="24.17854" longitude="120.73709" inDis="50" outDis="50" oid="311262895" /><Stop Id="0768" routeId="1" nameZh="梨仔園" seqNo="6" pgp="0" terminal="0" districtId="1" GoBack="2" latitude="24.1778" longitude="120.73565" inDis="50" outDis="50" oid="CB4799BF527C458580B69F9F16593671" /><Stop Id="0534" routeId="1" nameZh="台電東山所" seqNo="7" pgp="0" terminal="0" districtId="1" GoBack="2" latitude="24.17726" longitude="120.73467" inDis="50" outDis="50" oid="AF3A1B2F809840CBA83A3911E290F63A" /><Stop Id="0854" routeId="1" nameZh="圓山新村" seqNo="8" pgp="0" terminal="0" districtId="1" GoBack="2" latitude="24.17702" longitude="120.73201" inDis="30" outDis="80" oid="53481E6C23574AC3B22120E846E4859F" /><Stop Id="0555" routeId="1" nameZh="正覺寺" seqNo="9" pgp="0" terminal="0" districtId="1" GoBack="2" latitude="24.17651" longitude="120.72737" inDis="30" outDis="80" oid="DC88850022F444628FC35A67DA65D2AB" /><Stop Id="0687" routeId="1" nameZh="長興塑膠" seqNo="10" pgp="0" terminal="0" districtId="1" GoBack="2" latitude="24.17618" longitude="120.72436" inDis="50" outDis="80" oid="3959BAD3D4B843F6BA998264EA65A6CA" /><Stop Id="4592" routeId="1" nameZh="和平里(東山路)" seqNo="11" pgp="0" terminal="0" districtId="1" GoBack="2" latitude="24.17606" longitude="120.72222" inDis="30" outDis="80" oid="0925361A842C4B0A823EC81894D4CFD3" /><Stop Id="0727" routeId="1" nameZh="軍功里" seqNo="12" pgp="0" terminal="0" districtId="1" GoBack="2" latitude="24.17594" longitude="120.71995" inDis="30" outDis="80" oid="F46C4AEAD9F0457DAB6BA0CC3D541DE2" /><Stop Id="0703" routeId="1" nameZh="建功國小" seqNo="13" pgp="0" terminal="0" districtId="1" GoBack="2" latitude="24.17533" longitude="120.71689" inDis="50" outDis="50" oid="E54002CAC1374DBAB048BA0325619E2B" /><Stop Id="0365" routeId="1" nameZh="大華新村" seqNo="14" pgp="0" terminal="0" districtId="1" GoBack="2" latitude="24.17403" longitude="120.71471" inDis="50" outDis="50" oid="E96B16C6211D4C37A2AEB3B2D6870439" /><Stop Id="0485" routeId="1" nameZh="水景頭" seqNo="15" pgp="0" terminal="0" districtId="1" GoBack="2" latitude="24.17218" longitude="120.71111" inDis="50" outDis="50" oid="DD205C6803BB4DBE9A21C20C5639756A" /><Stop Id="0325" routeId="1" nameZh="三和社區" seqNo="16" pgp="0" terminal="0" districtId="1" GoBack="2" latitude="24.17125" longitude="120.70942" inDis="50" outDis="50" oid="D9F8EB7EC1E245569CDDE6387230C35C" /><Stop Id="0484" routeId="1" nameZh="水景里" seqNo="17" pgp="0" terminal="0" districtId="1" GoBack="2" latitude="24.17055" longitude="120.70844" inDis="50" outDis="50" oid="D1C3FF9BEC0C490EA709D42384E44DFE" /><Stop Id="0679" routeId="1" nameZh="玫瑰新村" seqNo="18" pgp="0" terminal="0" districtId="1" GoBack="2" latitude="24.16965" longitude="120.70691" inDis="50" outDis="50" oid="789291242D084AE79658379D24AC57A9" /><Stop Id="5712" routeId="1" nameZh="三和/東光里" seqNo="19" pgp="0" terminal="0" districtId="1" GoBack="2" latitude="24.16949" longitude="120.70477" inDis="50" outDis="50" oid="12467" /><Stop Id="4312" routeId="1" nameZh="東光國小" seqNo="20" pgp="0" terminal="0" districtId="1" GoBack="2" latitude="24.16981" longitude="120.70257" inDis="50" outDis="50" oid="7E6D4A0AC08A4905AADD792524807BFC" /><Stop Id="0222" routeId="1" nameZh="聯安醫院" seqNo="21" pgp="0" terminal="0" districtId="1" GoBack="2" latitude="24.17031" longitude="120.69892" inDis="50" outDis="50" oid="F607C979BA7245C6B9E750120578D32A" /><Stop Id="0103" routeId="1" nameZh="大坑口" seqNo="22" pgp="0" terminal="0" districtId="1" GoBack="2" latitude="24.16932" longitude="120.69693" inDis="50" outDis="50" oid="A9C835B75EB94641A17EA7307C4E686E" /><Stop Id="5511" routeId="1" nameZh="三光國中" seqNo="23" pgp="0" terminal="0" districtId="1" GoBack="2" latitude="24.1677" longitude="120.69592" inDis="50" outDis="50" oid="BA3B1CACF37C4F149A7FA88E511BD80E" /><Stop Id="0492" routeId="1" nameZh="北屯" seqNo="24" pgp="0" terminal="0" districtId="1" GoBack="2" latitude="24.16527" longitude="120.69435" inDis="50" outDis="50" oid="753EAE9C281B4643ABF76739493DFB9F" /><Stop Id="5405" routeId="1" nameZh="北屯國小(北屯路)" seqNo="25" pgp="0" terminal="0" districtId="1" GoBack="2" latitude="24.16306" longitude="120.69303" inDis="50" outDis="50" oid="44C83E71A190444EA129BE987C4DFF52" /><Stop Id="0892" routeId="1" nameZh="監理站" seqNo="26" pgp="0" terminal="0" districtId="1" GoBack="2" latitude="24.16089" longitude="120.69211" inDis="50" outDis="50" oid="7B73CF565E264B50A87DABA2392CCB10" /><Stop Id="0960" routeId="1" nameZh="寶覺寺" seqNo="27" pgp="0" terminal="0" districtId="1" GoBack="2" latitude="24.158" longitude="120.68985" inDis="50" outDis="50" oid="C012C2D4B41E484590F0FC0BE845DE2E" /><Stop Id="4399" routeId="1" nameZh="新民高中(三民路)" seqNo="28" pgp="0" terminal="0" districtId="1" GoBack="2" latitude="24.15679" longitude="120.68854" inDis="50" outDis="50" oid="769DF88919EB49049A69415A81BB512B" /><Stop Id="0934" routeId="1" nameZh="三民錦中街口" seqNo="29" pgp="0" terminal="0" districtId="1" GoBack="2" latitude="24.15556" longitude="120.6871" inDis="50" outDis="50" oid="934B91B97CB24246870E2B2ABD24CC20" /><Stop Id="0047" routeId="1" nameZh="一心市場" seqNo="30" pgp="0" terminal="0" districtId="1" GoBack="2" latitude="24.15378" longitude="120.68569" inDis="50" outDis="50" oid="67E2AACFE41F463BBF4D9CF73AA32B3B" /><Stop Id="0046" routeId="1" nameZh="中友百貨" seqNo="31" pgp="0" terminal="0" districtId="1" GoBack="2" latitude="24.15129" longitude="120.68467" inDis="50" outDis="50" oid="0B2BD08098B84EDB877CA84F6FA58060" /><Stop Id="0045" routeId="1" nameZh="國立臺中科技大學" seqNo="32" pgp="0" terminal="0" districtId="1" GoBack="2" latitude="24.14936" longitude="120.68396" inDis="50" outDis="50" oid="44C6A2F593D24AA9865FA38948F2EE5E" /><Stop Id="1513" routeId="1" nameZh="中興堂" seqNo="34" pgp="0" terminal="0" districtId="1" GoBack="2" latitude="24.14621" longitude="120.68463" inDis="50" outDis="50" oid="16096" /><Stop Id="4544" routeId="1" nameZh="臺中公園(雙十路)" seqNo="35" pgp="0" terminal="0" districtId="1" GoBack="2" latitude="24.14419" longitude="120.68587" inDis="50" outDis="50" oid="CE4AF75B6A9F457986478F18D506AE24" /><Stop Id="0402" routeId="1" nameZh="干城站" seqNo="36" pgp="0" terminal="0" districtId="1" GoBack="2" latitude="24.14124" longitude="120.68583" inDis="50" outDis="50" oid="069F62698AD54F3E9E0DCA3A62D1E236" /><Stop Id="1824" routeId="1" nameZh="臺中火車站" seqNo="37" pgp="0" terminal="0" districtId="1" GoBack="2" latitude="24.13818" longitude="120.6855" inDis="50" outDis="50" oid="13136" /><Stop Id="4284" routeId="1" nameZh="民權繼光街口" seqNo="38" pgp="0" terminal="0" districtId="1" GoBack="2" latitude="24.13706" longitude="120.68095" inDis="50" outDis="50" oid="319048631" /><Stop Id="4416" routeId="1" nameZh="臺中州廳" seqNo="39" pgp="0" terminal="0" districtId="1" GoBack="2" latitude="24.13918" longitude="120.67847" inDis="50" outDis="50" oid="319048632" /><Stop Id="0209" routeId="1" nameZh="臺中科大民生校區" seqNo="40" pgp="0" terminal="0" districtId="1" GoBack="2" latitude="24.139" longitude="120.67604" inDis="50" outDis="50" oid="319048634" /><Stop Id="0210" routeId="1" nameZh="忠孝國小" seqNo="41" pgp="0" terminal="0" districtId="1" GoBack="2" latitude="24.13709" longitude="120.67409" inDis="50" outDis="50" oid="319048635" /><Stop Id="0398" routeId="1" nameZh="道禾六藝文化館" seqNo="42" pgp="0" terminal="0" districtId="1" GoBack="2" latitude="24.13478" longitude="120.67383" inDis="50" outDis="50" oid="319060162" /></BusInfo></BusDynInfo>