<?xml version="1.0" encoding="UTF-8" standalone="yes"?>
<BusDynInfo><EssentialInfo><Location><name>TCBUS</name><CenterName>Maxwin</CenterName></Location><UpdateTime>2014-12-20 07:48:13</UpdateTime><CoordinateSystem/></EssentialInfo>
<BusInfo><Stop Id="3935" routeId="90" nameZh="豐原" seqNo="1" pgp="0" terminal="0" districtId="1" GoBack="1" latitude="24.25388" longitude="120.72188" inDis="50" outDis="50" oid="8104" /><Stop Id="3157" routeId="90" nameZh="頂街" seqNo="2" pgp="0" terminal="0" districtId="1" GoBack="1" latitude="24.25229" longitude="120.7212" inDis="50" outDis="50" oid="13609" /><Stop Id="4203" routeId="90" nameZh="新都酒店" seqNo="3" pgp="0" terminal="0" districtId="1" GoBack="1" latitude="24.25221" longitude="120.72394" inDis="50" outDis="50" oid="13610" /><Stop Id="4408" routeId="90" nameZh="豐原老人會館" seqNo="4" pgp="0" terminal="0" districtId="1" GoBack="1" latitude="24.25219" longitude="120.72603" inDis="50" outDis="50" oid="13611" /><Stop Id="4457" routeId="90" nameZh="向陽圓環東路口" seqNo="5" pgp="0" terminal="0" districtId="1" GoBack="1" latitude="24.25133" longitude="120.72786" inDis="50" outDis="50" oid="13797" /><Stop Id="5544" routeId="90" nameZh="葫蘆墩文化中心" seqNo="6" pgp="0" terminal="0" districtId="1" GoBack="1" latitude="24.25308" longitude="120.72991" inDis="50" outDis="50" oid="316462695" /><Stop Id="4478" routeId="90" nameZh="圓環東水源路口" seqNo="7" pgp="0" terminal="0" districtId="1" GoBack="1" latitude="24.25577" longitude="120.72975" inDis="50" outDis="50" oid="13802" /><Stop Id="4407" routeId="90" nameZh="永豐原紙廠" seqNo="8" pgp="0" terminal="0" districtId="1" GoBack="1" latitude="24.2587" longitude="120.73227" inDis="50" outDis="50" oid="13615" /><Stop Id="2843" routeId="90" nameZh="翁子" seqNo="9" pgp="0" terminal="0" districtId="1" GoBack="1" latitude="24.26058" longitude="120.73593" inDis="50" outDis="50" oid="13616" /><Stop Id="2844" routeId="90" nameZh="翁子保養場" seqNo="10" pgp="0" terminal="0" districtId="1" GoBack="1" latitude="24.26226" longitude="120.73947" inDis="50" outDis="50" oid="13617" /><Stop Id="2845" routeId="90" nameZh="翁子國小" seqNo="11" pgp="0" terminal="0" districtId="1" GoBack="1" latitude="24.2638" longitude="120.74277" inDis="50" outDis="50" oid="13618" /><Stop Id="1806" routeId="90" nameZh="半張" seqNo="12" pgp="0" terminal="0" districtId="1" GoBack="1" latitude="24.26517" longitude="120.74564" inDis="50" outDis="50" oid="13619" /><Stop Id="4490" routeId="90" nameZh="豐勢國豐路口" seqNo="13" pgp="0" terminal="0" districtId="1" GoBack="1" latitude="24.2678" longitude="120.74924" inDis="50" outDis="50" oid="13805" /><Stop Id="4412" routeId="90" nameZh="國家教育研究院" seqNo="14" pgp="0" terminal="0" districtId="1" GoBack="1" latitude="24.27084" longitude="120.75175" inDis="50" outDis="50" oid="13621" /><Stop Id="2128" routeId="90" nameZh="朴子口" seqNo="15" pgp="0" terminal="0" districtId="1" GoBack="1" latitude="24.27345" longitude="120.75398" inDis="50" outDis="50" oid="13622" /><Stop Id="4454" routeId="90" nameZh="民安" seqNo="16" pgp="0" terminal="0" districtId="1" GoBack="1" latitude="24.27507" longitude="120.75652" inDis="50" outDis="50" oid="13796" /><Stop Id="2947" routeId="90" nameZh="埤頭" seqNo="17" pgp="0" terminal="0" districtId="1" GoBack="1" latitude="24.27657" longitude="120.75916" inDis="50" outDis="50" oid="13624" /><Stop Id="2005" routeId="90" nameZh="石岡水壩" seqNo="18" pgp="0" terminal="0" districtId="1" GoBack="1" latitude="24.27812" longitude="120.76675" inDis="50" outDis="50" oid="13625" /><Stop Id="2337" routeId="90" nameZh="岡尾" seqNo="19" pgp="0" terminal="0" districtId="1" GoBack="1" latitude="24.27755" longitude="120.7719" inDis="50" outDis="50" oid="13626" /><Stop Id="2004" routeId="90" nameZh="石岡" seqNo="20" pgp="0" terminal="0" districtId="1" GoBack="1" latitude="24.27653" longitude="120.77635" inDis="50" outDis="50" oid="13716" /><Stop Id="4456" routeId="90" nameZh="石岡區公所" seqNo="21" pgp="0" terminal="0" districtId="1" GoBack="1" latitude="24.27492" longitude="120.78075" inDis="50" outDis="50" oid="13717" /><Stop Id="0992" routeId="90" nameZh="九房厝" seqNo="22" pgp="0" terminal="0" districtId="1" GoBack="1" latitude="24.27447" longitude="120.78428" inDis="50" outDis="50" oid="13629" /><Stop Id="2983" routeId="90" nameZh="情人木橋" seqNo="23" pgp="0" terminal="0" districtId="1" GoBack="1" latitude="24.27386" longitude="120.78874" inDis="50" outDis="50" oid="13630" /><Stop Id="2496" routeId="90" nameZh="社寮角" seqNo="24" pgp="0" terminal="0" districtId="1" GoBack="1" latitude="24.2726" longitude="120.79172" inDis="50" outDis="50" oid="13631" /><Stop Id="3440" routeId="90" nameZh="新豐冷凍" seqNo="25" pgp="0" terminal="0" districtId="1" GoBack="1" latitude="24.27049" longitude="120.79646" inDis="50" outDis="50" oid="13632" /><Stop Id="3003" routeId="90" nameZh="梅子" seqNo="26" pgp="0" terminal="0" districtId="1" GoBack="1" latitude="24.26864" longitude="120.80127" inDis="50" outDis="50" oid="13633" /><Stop Id="2357" routeId="90" nameZh="明山寺" seqNo="27" pgp="0" terminal="0" districtId="1" GoBack="1" latitude="24.26745" longitude="120.80419" inDis="50" outDis="50" oid="13634" /><Stop Id="1114" routeId="90" nameZh="下土牛" seqNo="28" pgp="0" terminal="0" districtId="1" GoBack="1" latitude="24.26608" longitude="120.80692" inDis="50" outDis="50" oid="13635" /><Stop Id="3074" routeId="90" nameZh="連厝" seqNo="29" pgp="0" terminal="0" districtId="1" GoBack="1" latitude="24.26398" longitude="120.81019" inDis="50" outDis="50" oid="13636" /><Stop Id="3728" routeId="90" nameZh="德興里" seqNo="30" pgp="0" terminal="0" districtId="1" GoBack="1" latitude="24.26237" longitude="120.8127" inDis="50" outDis="50" oid="13637" /><Stop Id="4430" routeId="90" nameZh="土牛(豐勢路)" seqNo="31" pgp="0" terminal="0" districtId="1" GoBack="1" latitude="24.26021" longitude="120.81608" inDis="50" outDis="50" oid="13795" /><Stop Id="4494" routeId="90" nameZh="新豐新寧街口" seqNo="32" pgp="0" terminal="0" districtId="1" GoBack="1" latitude="24.26264" longitude="120.82464" inDis="50" outDis="50" oid="13803" /><Stop Id="2434" routeId="90" nameZh="東新國中" seqNo="33" pgp="0" terminal="0" districtId="1" GoBack="1" latitude="24.26272" longitude="120.82663" inDis="50" outDis="50" oid="13640" /><Stop Id="4500" routeId="90" nameZh="東勢老人會館" seqNo="34" pgp="0" terminal="0" districtId="1" GoBack="1" latitude="24.26104" longitude="120.82695" inDis="50" outDis="50" oid="13641" /><Stop Id="2428" routeId="90" nameZh="東勢" seqNo="35" pgp="0" terminal="0" districtId="1" GoBack="1" latitude="24.2582" longitude="120.82798" inDis="50" outDis="80" oid="13642" /><Stop Id="2570" routeId="90" nameZh="南平里" seqNo="36" pgp="0" terminal="0" districtId="1" GoBack="1" latitude="24.25529" longitude="120.82921" inDis="50" outDis="80" oid="13643" /><Stop Id="1415" routeId="90" nameZh="中嵙口" seqNo="37" pgp="0" terminal="0" districtId="1" GoBack="1" latitude="24.25274" longitude="120.8299" inDis="50" outDis="80" oid="13644" /><Stop Id="4409" routeId="90" nameZh="東勢南站" seqNo="38" pgp="0" terminal="0" districtId="1" GoBack="1" latitude="24.24998" longitude="120.83063" inDis="50" outDis="80" oid="5889" /><Stop Id="2002" routeId="90" nameZh="石角口" seqNo="39" pgp="0" terminal="0" districtId="1" GoBack="1" latitude="24.24822" longitude="120.8317" inDis="50" outDis="80" oid="13646" /><Stop Id="0312" routeId="90" nameZh="新盛里(東勢高工)" seqNo="40" pgp="0" terminal="0" districtId="1" GoBack="1" latitude="24.24339" longitude="120.83329" inDis="50" outDis="50" oid="13647" /><Stop Id="2229" routeId="90" nameZh="尾社" seqNo="41" pgp="0" terminal="0" districtId="1" GoBack="1" latitude="24.23876" longitude="120.83439" inDis="50" outDis="50" oid="13648" /><Stop Id="1107" routeId="90" nameZh="三鑫公司" seqNo="42" pgp="0" terminal="0" districtId="1" GoBack="1" latitude="24.23498" longitude="120.83546" inDis="50" outDis="50" oid="13649" /><Stop Id="4466" routeId="90" nameZh="東關福山路口" seqNo="43" pgp="0" terminal="0" districtId="1" GoBack="1" latitude="24.23179" longitude="120.83637" inDis="50" outDis="50" oid="13801" /><Stop Id="3391" routeId="90" nameZh="新伯公" seqNo="44" pgp="0" terminal="0" districtId="1" GoBack="1" latitude="24.22845" longitude="120.83723" inDis="50" outDis="50" oid="13651" /><Stop Id="3329" routeId="90" nameZh="詒新" seqNo="45" pgp="0" terminal="0" districtId="1" GoBack="1" latitude="24.22503" longitude="120.83827" inDis="50" outDis="50" oid="13652" /><Stop Id="1167" routeId="90" nameZh="下城里" seqNo="46" pgp="0" terminal="0" districtId="1" GoBack="1" latitude="24.22229" longitude="120.83849" inDis="50" outDis="50" oid="13653" /><Stop Id="1238" routeId="90" nameZh="上城里" seqNo="47" pgp="0" terminal="0" districtId="1" GoBack="1" latitude="24.21803" longitude="120.83825" inDis="50" outDis="50" oid="13654" /><Stop Id="3828" routeId="90" nameZh="頭汴角" seqNo="48" pgp="0" terminal="0" districtId="1" GoBack="1" latitude="24.21252" longitude="120.83881" inDis="50" outDis="50" oid="13655" /><Stop Id="2118" routeId="90" nameZh="成功新村" seqNo="49" pgp="0" terminal="0" districtId="1" GoBack="1" latitude="24.20619" longitude="120.83937" inDis="50" outDis="50" oid="13656" /><Stop Id="1326" routeId="90" nameZh="大茅埔" seqNo="50" pgp="0" terminal="0" districtId="1" GoBack="1" latitude="24.20401" longitude="120.83965" inDis="50" outDis="50" oid="13657" /><Stop Id="3730" routeId="90" nameZh="慶福里" seqNo="51" pgp="0" terminal="0" districtId="1" GoBack="1" latitude="24.19282" longitude="120.83925" inDis="50" outDis="50" oid="13658" /><Stop Id="1170" routeId="90" nameZh="下段" seqNo="52" pgp="0" terminal="0" districtId="1" GoBack="1" latitude="24.18874" longitude="120.84023" inDis="50" outDis="50" oid="13659" /><Stop Id="1239" routeId="90" nameZh="上段" seqNo="53" pgp="0" terminal="0" districtId="1" GoBack="1" latitude="24.184" longitude="120.84056" inDis="50" outDis="50" oid="13660" /><Stop Id="1722" routeId="90" nameZh="水簡頭" seqNo="54" pgp="0" terminal="0" districtId="1" GoBack="1" latitude="24.17564" longitude="120.83894" inDis="50" outDis="50" oid="13661" /><Stop Id="2902" routeId="90" nameZh="馬鞍寮" seqNo="55" pgp="0" terminal="0" districtId="1" GoBack="1" latitude="24.17144" longitude="120.83959" inDis="50" outDis="50" oid="13662" /><Stop Id="4465" routeId="90" nameZh="東關湖楓路口" seqNo="56" pgp="0" terminal="0" districtId="1" GoBack="1" latitude="24.1681" longitude="120.84295" inDis="50" outDis="50" oid="13800" /><Stop Id="2163" routeId="90" nameZh="老楓樹下" seqNo="57" pgp="0" terminal="0" districtId="1" GoBack="1" latitude="24.16308" longitude="120.84701" inDis="50" outDis="50" oid="13664" /><Stop Id="3453" routeId="90" nameZh="楓樹下" seqNo="58" pgp="0" terminal="0" districtId="1" GoBack="1" latitude="24.16229" longitude="120.85086" inDis="50" outDis="50" oid="13665" /><Stop Id="1627" routeId="90" nameZh="天冷" seqNo="59" pgp="0" terminal="0" districtId="1" GoBack="1" latitude="24.16097" longitude="120.8604" inDis="50" outDis="50" oid="13666" /><Stop Id="1287" routeId="90" nameZh="大同橋" seqNo="60" pgp="0" terminal="0" districtId="1" GoBack="1" latitude="24.16457" longitude="120.86339" inDis="50" outDis="50" oid="13667" /><Stop Id="3887" routeId="90" nameZh="燥坑" seqNo="61" pgp="0" terminal="0" districtId="1" GoBack="1" latitude="24.16719" longitude="120.86698" inDis="50" outDis="50" oid="13668" /><Stop Id="2312" routeId="90" nameZh="和合" seqNo="62" pgp="0" terminal="0" districtId="1" GoBack="1" latitude="24.16944" longitude="120.86967" inDis="50" outDis="50" oid="13669" /><Stop Id="4464" routeId="90" nameZh="東關和榮路口" seqNo="63" pgp="0" terminal="0" districtId="1" GoBack="1" latitude="24.17065" longitude="120.87264" inDis="50" outDis="50" oid="13799" /><Stop Id="1864" routeId="90" nameZh="外和平" seqNo="64" pgp="0" terminal="0" districtId="1" GoBack="1" latitude="24.17319" longitude="120.87776" inDis="50" outDis="50" oid="13671" /><Stop Id="2307" routeId="90" nameZh="和平" seqNo="65" pgp="0" terminal="0" districtId="1" GoBack="1" latitude="24.17506" longitude="120.88207" inDis="50" outDis="50" oid="13672" /><Stop Id="5043" routeId="90" nameZh="和平區農會" seqNo="66" pgp="0" terminal="0" districtId="1" GoBack="1" latitude="24.17472" longitude="120.88386" inDis="50" outDis="50" oid="13673" /><Stop Id="4463" routeId="90" nameZh="和平衛生所" seqNo="67" pgp="0" terminal="0" districtId="1" GoBack="1" latitude="24.17389" longitude="120.88895" inDis="50" outDis="50" oid="13798" /><Stop Id="4463" routeId="90" nameZh="和平衛生所" seqNo="1" pgp="0" terminal="0" districtId="1" GoBack="2" latitude="24.17389" longitude="120.88895" inDis="50" outDis="50" oid="13798" /><Stop Id="5043" routeId="90" nameZh="和平區農會" seqNo="2" pgp="0" terminal="0" districtId="1" GoBack="2" latitude="24.17472" longitude="120.88386" inDis="50" outDis="50" oid="13673" /><Stop Id="2307" routeId="90" nameZh="和平" seqNo="3" pgp="0" terminal="0" districtId="1" GoBack="2" latitude="24.17506" longitude="120.88207" inDis="50" outDis="50" oid="13672" /><Stop Id="1864" routeId="90" nameZh="外和平" seqNo="4" pgp="0" terminal="0" districtId="1" GoBack="2" latitude="24.17319" longitude="120.87776" inDis="50" outDis="50" oid="13671" /><Stop Id="4464" routeId="90" nameZh="東關和榮路口" seqNo="5" pgp="0" terminal="0" districtId="1" GoBack="2" latitude="24.17065" longitude="120.87264" inDis="50" outDis="50" oid="13799" /><Stop Id="2312" routeId="90" nameZh="和合" seqNo="6" pgp="0" terminal="0" districtId="1" GoBack="2" latitude="24.16944" longitude="120.86967" inDis="50" outDis="50" oid="13669" /><Stop Id="3887" routeId="90" nameZh="燥坑" seqNo="7" pgp="0" terminal="0" districtId="1" GoBack="2" latitude="24.16719" longitude="120.86698" inDis="50" outDis="50" oid="13668" /><Stop Id="1287" routeId="90" nameZh="大同橋" seqNo="8" pgp="0" terminal="0" districtId="1" GoBack="2" latitude="24.16457" longitude="120.86339" inDis="50" outDis="50" oid="13667" /><Stop Id="1627" routeId="90" nameZh="天冷" seqNo="9" pgp="0" terminal="0" districtId="1" GoBack="2" latitude="24.16097" longitude="120.8604" inDis="50" outDis="50" oid="13666" /><Stop Id="3453" routeId="90" nameZh="楓樹下" seqNo="10" pgp="0" terminal="0" districtId="1" GoBack="2" latitude="24.16229" longitude="120.85086" inDis="50" outDis="50" oid="13665" /><Stop Id="2163" routeId="90" nameZh="老楓樹下" seqNo="11" pgp="0" terminal="0" districtId="1" GoBack="2" latitude="24.16308" longitude="120.84701" inDis="50" outDis="50" oid="13664" /><Stop Id="4465" routeId="90" nameZh="東關湖楓路口" seqNo="12" pgp="0" terminal="0" districtId="1" GoBack="2" latitude="24.1681" longitude="120.84295" inDis="50" outDis="50" oid="13800" /><Stop Id="2902" routeId="90" nameZh="馬鞍寮" seqNo="13" pgp="0" terminal="0" districtId="1" GoBack="2" latitude="24.17144" longitude="120.83959" inDis="50" outDis="50" oid="13662" /><Stop Id="1722" routeId="90" nameZh="水簡頭" seqNo="14" pgp="0" terminal="0" districtId="1" GoBack="2" latitude="24.17564" longitude="120.83894" inDis="50" outDis="50" oid="13661" /><Stop Id="1239" routeId="90" nameZh="上段" seqNo="15" pgp="0" terminal="0" districtId="1" GoBack="2" latitude="24.184" longitude="120.84056" inDis="50" outDis="50" oid="13660" /><Stop Id="1170" routeId="90" nameZh="下段" seqNo="16" pgp="0" terminal="0" districtId="1" GoBack="2" latitude="24.18874" longitude="120.84023" inDis="50" outDis="50" oid="13659" /><Stop Id="3730" routeId="90" nameZh="慶福里" seqNo="17" pgp="0" terminal="0" districtId="1" GoBack="2" latitude="24.19282" longitude="120.83925" inDis="50" outDis="50" oid="13658" /><Stop Id="1326" routeId="90" nameZh="大茅埔" seqNo="18" pgp="0" terminal="0" districtId="1" GoBack="2" latitude="24.20401" longitude="120.83965" inDis="50" outDis="50" oid="13657" /><Stop Id="2118" routeId="90" nameZh="成功新村" seqNo="19" pgp="0" terminal="0" districtId="1" GoBack="2" latitude="24.20619" longitude="120.83937" inDis="50" outDis="50" oid="13656" /><Stop Id="3828" routeId="90" nameZh="頭汴角" seqNo="20" pgp="0" terminal="0" districtId="1" GoBack="2" latitude="24.21252" longitude="120.83881" inDis="50" outDis="50" oid="13655" /><Stop Id="1238" routeId="90" nameZh="上城里" seqNo="21" pgp="0" terminal="0" districtId="1" GoBack="2" latitude="24.21803" longitude="120.83825" inDis="50" outDis="50" oid="13654" /><Stop Id="1167" routeId="90" nameZh="下城里" seqNo="22" pgp="0" terminal="0" districtId="1" GoBack="2" latitude="24.22229" longitude="120.83849" inDis="50" outDis="50" oid="13653" /><Stop Id="3329" routeId="90" nameZh="詒新" seqNo="23" pgp="0" terminal="0" districtId="1" GoBack="2" latitude="24.22503" longitude="120.83827" inDis="50" outDis="50" oid="13652" /><Stop Id="3391" routeId="90" nameZh="新伯公" seqNo="24" pgp="0" terminal="0" districtId="1" GoBack="2" latitude="24.22845" longitude="120.83723" inDis="50" outDis="50" oid="13651" /><Stop Id="4466" routeId="90" nameZh="東關福山路口" seqNo="25" pgp="0" terminal="0" districtId="1" GoBack="2" latitude="24.23179" longitude="120.83637" inDis="50" outDis="50" oid="13801" /><Stop Id="1107" routeId="90" nameZh="三鑫公司" seqNo="26" pgp="0" terminal="0" districtId="1" GoBack="2" latitude="24.23498" longitude="120.83546" inDis="50" outDis="50" oid="13649" /><Stop Id="2229" routeId="90" nameZh="尾社" seqNo="27" pgp="0" terminal="0" districtId="1" GoBack="2" latitude="24.23876" longitude="120.83439" inDis="50" outDis="50" oid="13648" /><Stop Id="0312" routeId="90" nameZh="新盛里(東勢高工)" seqNo="28" pgp="0" terminal="0" districtId="1" GoBack="2" latitude="24.24339" longitude="120.83329" inDis="50" outDis="50" oid="13647" /><Stop Id="2002" routeId="90" nameZh="石角口" seqNo="29" pgp="0" terminal="0" districtId="1" GoBack="2" latitude="24.24822" longitude="120.8317" inDis="50" outDis="80" oid="13646" /><Stop Id="4409" routeId="90" nameZh="東勢南站" seqNo="30" pgp="0" terminal="0" districtId="1" GoBack="2" latitude="24.24998" longitude="120.83063" inDis="50" outDis="80" oid="5889" /><Stop Id="1415" routeId="90" nameZh="中嵙口" seqNo="31" pgp="0" terminal="0" districtId="1" GoBack="2" latitude="24.25274" longitude="120.8299" inDis="50" outDis="80" oid="13644" /><Stop Id="2570" routeId="90" nameZh="南平里" seqNo="32" pgp="0" terminal="0" districtId="1" GoBack="2" latitude="24.25529" longitude="120.82921" inDis="50" outDis="80" oid="13643" /><Stop Id="2428" routeId="90" nameZh="東勢" seqNo="33" pgp="0" terminal="0" districtId="1" GoBack="2" latitude="24.2582" longitude="120.82798" inDis="50" outDis="80" oid="13642" /><Stop Id="4500" routeId="90" nameZh="東勢老人會館" seqNo="34" pgp="0" terminal="0" districtId="1" GoBack="2" latitude="24.26104" longitude="120.82695" inDis="50" outDis="50" oid="13641" /><Stop Id="2434" routeId="90" nameZh="東新國中" seqNo="35" pgp="0" terminal="0" districtId="1" GoBack="2" latitude="24.26272" longitude="120.82663" inDis="50" outDis="50" oid="13640" /><Stop Id="4494" routeId="90" nameZh="新豐新寧街口" seqNo="36" pgp="0" terminal="0" districtId="1" GoBack="2" latitude="24.26264" longitude="120.82464" inDis="50" outDis="50" oid="13803" /><Stop Id="4430" routeId="90" nameZh="土牛(豐勢路)" seqNo="37" pgp="0" terminal="0" districtId="1" GoBack="2" latitude="24.26021" longitude="120.81608" inDis="50" outDis="50" oid="13795" /><Stop Id="3728" routeId="90" nameZh="德興里" seqNo="38" pgp="0" terminal="0" districtId="1" GoBack="2" latitude="24.26237" longitude="120.8127" inDis="50" outDis="50" oid="13637" /><Stop Id="3074" routeId="90" nameZh="連厝" seqNo="39" pgp="0" terminal="0" districtId="1" GoBack="2" latitude="24.26398" longitude="120.81019" inDis="50" outDis="50" oid="13636" /><Stop Id="1114" routeId="90" nameZh="下土牛" seqNo="40" pgp="0" terminal="0" districtId="1" GoBack="2" latitude="24.26608" longitude="120.80692" inDis="50" outDis="50" oid="13635" /><Stop Id="2357" routeId="90" nameZh="明山寺" seqNo="41" pgp="0" terminal="0" districtId="1" GoBack="2" latitude="24.26745" longitude="120.80419" inDis="50" outDis="50" oid="13634" /><Stop Id="3003" routeId="90" nameZh="梅子" seqNo="42" pgp="0" terminal="0" districtId="1" GoBack="2" latitude="24.26864" longitude="120.80127" inDis="50" outDis="50" oid="13633" /><Stop Id="3440" routeId="90" nameZh="新豐冷凍" seqNo="43" pgp="0" terminal="0" districtId="1" GoBack="2" latitude="24.27049" longitude="120.79646" inDis="50" outDis="50" oid="13632" /><Stop Id="2496" routeId="90" nameZh="社寮角" seqNo="44" pgp="0" terminal="0" districtId="1" GoBack="2" latitude="24.2726" longitude="120.79172" inDis="50" outDis="50" oid="13631" /><Stop Id="2983" routeId="90" nameZh="情人木橋" seqNo="45" pgp="0" terminal="0" districtId="1" GoBack="2" latitude="24.27386" longitude="120.78874" inDis="50" outDis="50" oid="13630" /><Stop Id="0992" routeId="90" nameZh="九房厝" seqNo="46" pgp="0" terminal="0" districtId="1" GoBack="2" latitude="24.27447" longitude="120.78428" inDis="50" outDis="50" oid="13629" /><Stop Id="4456" routeId="90" nameZh="石岡區公所" seqNo="47" pgp="0" terminal="0" districtId="1" GoBack="2" latitude="24.27492" longitude="120.78075" inDis="50" outDis="50" oid="13717" /><Stop Id="2004" routeId="90" nameZh="石岡" seqNo="48" pgp="0" terminal="0" districtId="1" GoBack="2" latitude="24.27653" longitude="120.77635" inDis="50" outDis="50" oid="13716" /><Stop Id="2337" routeId="90" nameZh="岡尾" seqNo="49" pgp="0" terminal="0" districtId="1" GoBack="2" latitude="24.27755" longitude="120.7719" inDis="50" outDis="50" oid="13626" /><Stop Id="2005" routeId="90" nameZh="石岡水壩" seqNo="50" pgp="0" terminal="0" districtId="1" GoBack="2" latitude="24.27812" longitude="120.76675" inDis="50" outDis="50" oid="13625" /><Stop Id="2947" routeId="90" nameZh="埤頭" seqNo="51" pgp="0" terminal="0" districtId="1" GoBack="2" latitude="24.27657" longitude="120.75916" inDis="50" outDis="50" oid="13624" /><Stop Id="4454" routeId="90" nameZh="民安" seqNo="52" pgp="0" terminal="0" districtId="1" GoBack="2" latitude="24.27507" longitude="120.75652" inDis="50" outDis="50" oid="13796" /><Stop Id="2128" routeId="90" nameZh="朴子口" seqNo="53" pgp="0" terminal="0" districtId="1" GoBack="2" latitude="24.27345" longitude="120.75398" inDis="50" outDis="50" oid="13622" /><Stop Id="4412" routeId="90" nameZh="國家教育研究院" seqNo="54" pgp="0" terminal="0" districtId="1" GoBack="2" latitude="24.27084" longitude="120.75175" inDis="50" outDis="50" oid="13621" /><Stop Id="4490" routeId="90" nameZh="豐勢國豐路口" seqNo="55" pgp="0" terminal="0" districtId="1" GoBack="2" latitude="24.2678" longitude="120.74924" inDis="50" outDis="50" oid="13805" /><Stop Id="1806" routeId="90" nameZh="半張" seqNo="56" pgp="0" terminal="0" districtId="1" GoBack="2" latitude="24.26517" longitude="120.74564" inDis="50" outDis="50" oid="13619" /><Stop Id="2845" routeId="90" nameZh="翁子國小" seqNo="57" pgp="0" terminal="0" districtId="1" GoBack="2" latitude="24.2638" longitude="120.74277" inDis="50" outDis="50" oid="13618" /><Stop Id="2844" routeId="90" nameZh="翁子保養場" seqNo="58" pgp="0" terminal="0" districtId="1" GoBack="2" latitude="24.26226" longitude="120.73947" inDis="50" outDis="50" oid="13617" /><Stop Id="2843" routeId="90" nameZh="翁子" seqNo="59" pgp="0" terminal="0" districtId="1" GoBack="2" latitude="24.26058" longitude="120.73593" inDis="50" outDis="50" oid="13616" /><Stop Id="4407" routeId="90" nameZh="永豐原紙廠" seqNo="60" pgp="0" terminal="0" districtId="1" GoBack="2" latitude="24.2587" longitude="120.73227" inDis="50" outDis="50" oid="13615" /><Stop Id="4478" routeId="90" nameZh="圓環東水源路口" seqNo="61" pgp="0" terminal="0" districtId="1" GoBack="2" latitude="24.25577" longitude="120.72975" inDis="50" outDis="50" oid="13802" /><Stop Id="5544" routeId="90" nameZh="葫蘆墩文化中心" seqNo="62" pgp="0" terminal="0" districtId="1" GoBack="2" latitude="24.25308" longitude="120.72991" inDis="50" outDis="50" oid="316462695" /><Stop Id="4457" routeId="90" nameZh="向陽圓環東路口" seqNo="63" pgp="0" terminal="0" districtId="1" GoBack="2" latitude="24.25133" longitude="120.72786" inDis="50" outDis="50" oid="13797" /><Stop Id="4408" routeId="90" nameZh="豐原老人會館" seqNo="64" pgp="0" terminal="0" districtId="1" GoBack="2" latitude="24.25219" longitude="120.72603" inDis="50" outDis="50" oid="13611" /><Stop Id="4203" routeId="90" nameZh="新都酒店" seqNo="65" pgp="0" terminal="0" districtId="1" GoBack="2" latitude="24.25221" longitude="120.72394" inDis="50" outDis="50" oid="13610" /><Stop Id="3157" routeId="90" nameZh="頂街" seqNo="66" pgp="0" terminal="0" districtId="1" GoBack="2" latitude="24.25229" longitude="120.7212" inDis="50" outDis="50" oid="13609" /><Stop Id="3935" routeId="90" nameZh="豐原" seqNo="67" pgp="0" terminal="0" districtId="1" GoBack="2" latitude="24.25388" longitude="120.72188" inDis="50" outDis="50" oid="8104" /></BusInfo></BusDynInfo>