<?xml version="1.0" encoding="UTF-8" standalone="yes"?>
<BusDynInfo><EssentialInfo><Location><name>TCBUS</name><CenterName>Maxwin</CenterName></Location><UpdateTime>2014-12-20 07:36:24</UpdateTime><CoordinateSystem/></EssentialInfo>
<BusInfo><Stop Id="4091" routeId="55" nameZh="光明國中(貴和街)" seqNo="1" pgp="0" terminal="0" districtId="1" GoBack="1" latitude="24.1332" longitude="120.67433" inDis="50" outDis="50" oid="310050556" /><Stop Id="0070" routeId="55" nameZh="地方法院" seqNo="2" pgp="0" terminal="0" districtId="1" GoBack="1" latitude="24.13406" longitude="120.67607" inDis="50" outDis="50" oid="13306" /><Stop Id="0071" routeId="55" nameZh="臺中女中" seqNo="3" pgp="0" terminal="0" districtId="1" GoBack="1" latitude="24.13596" longitude="120.67803" inDis="50" outDis="50" oid="13288" /><Stop Id="4284" routeId="55" nameZh="民權繼光街口" seqNo="4" pgp="0" terminal="0" districtId="1" GoBack="1" latitude="24.1366" longitude="120.68111" inDis="50" outDis="50" oid="13343" /><Stop Id="1824" routeId="55" nameZh="臺中火車站" seqNo="5" pgp="0" terminal="0" districtId="1" GoBack="1" latitude="24.13663" longitude="120.68387" inDis="50" outDis="50" oid="319048633" /><Stop Id="0402" routeId="55" nameZh="干城站" seqNo="6" pgp="0" terminal="0" districtId="1" GoBack="1" latitude="24.14089" longitude="120.68599" inDis="50" outDis="50" oid="13253" /><Stop Id="4544" routeId="55" nameZh="臺中公園(雙十路)" seqNo="7" pgp="0" terminal="0" districtId="1" GoBack="1" latitude="24.14399" longitude="120.68612" inDis="50" outDis="50" oid="13289" /><Stop Id="1513" routeId="55" nameZh="中興堂" seqNo="8" pgp="0" terminal="0" districtId="1" GoBack="1" latitude="24.14626" longitude="120.68448" inDis="50" outDis="50" oid="15989" /><Stop Id="0045" routeId="55" nameZh="國立臺中科技大學" seqNo="9" pgp="0" terminal="0" districtId="1" GoBack="1" latitude="24.14987" longitude="120.68413" inDis="50" outDis="50" oid="13293" /><Stop Id="0046" routeId="55" nameZh="中友百貨" seqNo="10" pgp="0" terminal="0" districtId="1" GoBack="1" latitude="24.15251" longitude="120.6852" inDis="50" outDis="50" oid="13255" /><Stop Id="0047" routeId="55" nameZh="一心市場" seqNo="11" pgp="0" terminal="0" districtId="1" GoBack="1" latitude="24.15366" longitude="120.68571" inDis="50" outDis="50" oid="13251" /><Stop Id="0934" routeId="55" nameZh="三民錦中街口" seqNo="12" pgp="0" terminal="0" districtId="1" GoBack="1" latitude="24.15528" longitude="120.68695" inDis="50" outDis="50" oid="0D7AF382298E449C9856AF45F92F27F9" /><Stop Id="4399" routeId="55" nameZh="新民高中(三民路)" seqNo="13" pgp="0" terminal="0" districtId="1" GoBack="1" latitude="24.1568" longitude="120.6885" inDis="50" outDis="50" oid="13322" /><Stop Id="0960" routeId="55" nameZh="寶覺寺" seqNo="14" pgp="0" terminal="0" districtId="1" GoBack="1" latitude="24.15803" longitude="120.68992" inDis="50" outDis="50" oid="13342" /><Stop Id="0892" routeId="55" nameZh="監理站" seqNo="15" pgp="0" terminal="0" districtId="1" GoBack="1" latitude="24.16106" longitude="120.69209" inDis="50" outDis="50" oid="13326" /><Stop Id="5405" routeId="55" nameZh="北屯國小(北屯路)" seqNo="16" pgp="0" terminal="0" districtId="1" GoBack="1" latitude="24.16325" longitude="120.69318" inDis="50" outDis="50" oid="13346" /><Stop Id="0492" routeId="55" nameZh="北屯" seqNo="17" pgp="0" terminal="0" districtId="1" GoBack="1" latitude="24.16504" longitude="120.69418" inDis="50" outDis="50" oid="13283" /><Stop Id="5511" routeId="55" nameZh="三光國中" seqNo="18" pgp="0" terminal="0" districtId="1" GoBack="1" latitude="24.16762" longitude="120.69591" inDis="50" outDis="50" oid="13259" /><Stop Id="0103" routeId="55" nameZh="大坑口" seqNo="19" pgp="0" terminal="0" districtId="1" GoBack="1" latitude="24.16973" longitude="120.69716" inDis="50" outDis="50" oid="13284" /><Stop Id="0364" routeId="55" nameZh="特力屋北屯店" seqNo="20" pgp="0" terminal="0" districtId="1" GoBack="1" latitude="24.17407" longitude="120.69855" inDis="50" outDis="50" oid="13314" /><Stop Id="0200" routeId="55" nameZh="北屯崇德二路口" seqNo="21" pgp="0" terminal="0" districtId="1" GoBack="1" latitude="24.17585" longitude="120.69932" inDis="50" outDis="50" oid="13299" /><Stop Id="0105" routeId="55" nameZh="北新國中" seqNo="22" pgp="0" terminal="0" districtId="1" GoBack="1" latitude="24.17842" longitude="120.70034" inDis="50" outDis="50" oid="13286" /><Stop Id="4582" routeId="55" nameZh="舊社公園(北屯路)" seqNo="23" pgp="0" terminal="0" districtId="1" GoBack="1" latitude="24.18118" longitude="120.70176" inDis="50" outDis="50" oid="0A244FA7BBB54956B854433CC469ECE1" /><Stop Id="4673" routeId="55" nameZh="中山路一巷口" seqNo="24" pgp="0" terminal="0" districtId="1" GoBack="1" latitude="24.18759" longitude="120.7024" inDis="50" outDis="50" oid="13325" /><Stop Id="4659" routeId="55" nameZh="中山中興路口" seqNo="25" pgp="0" terminal="0" districtId="1" GoBack="1" latitude="24.1916" longitude="120.70243" inDis="50" outDis="50" oid="13260" /><Stop Id="3836" routeId="55" nameZh="頭家厝" seqNo="26" pgp="0" terminal="0" districtId="1" GoBack="1" latitude="24.1954" longitude="120.70243" inDis="50" outDis="50" oid="13336" /><Stop Id="1972" routeId="55" nameZh="瓦窯" seqNo="27" pgp="0" terminal="0" districtId="1" GoBack="1" latitude="24.19994" longitude="120.70322" inDis="50" outDis="50" oid="310872631" /><Stop Id="3567" routeId="55" nameZh="僑忠國小" seqNo="28" pgp="0" terminal="0" districtId="1" GoBack="1" latitude="24.20285" longitude="120.7039" inDis="50" outDis="50" oid="13230" /><Stop Id="4658" routeId="55" nameZh="中山合作街口" seqNo="29" pgp="0" terminal="0" districtId="1" GoBack="1" latitude="24.2044" longitude="120.70432" inDis="50" outDis="50" oid="13095" /><Stop Id="4370" routeId="55" nameZh="中山圓通南路口" seqNo="30" pgp="0" terminal="0" districtId="1" GoBack="1" latitude="24.20761" longitude="120.70523" inDis="50" outDis="50" oid="13319" /><Stop Id="3742" routeId="55" nameZh="潭子區公所" seqNo="31" pgp="0" terminal="0" districtId="1" GoBack="1" latitude="24.20977" longitude="120.70537" inDis="50" outDis="50" oid="13331" /><Stop Id="4240" routeId="55" nameZh="潭子火車站" seqNo="32" pgp="0" terminal="0" districtId="1" GoBack="1" latitude="24.2126" longitude="120.70542" inDis="50" outDis="50" oid="13329" /><Stop Id="3740" routeId="55" nameZh="潭子" seqNo="33" pgp="0" terminal="0" districtId="1" GoBack="1" latitude="24.21499" longitude="120.7051" inDis="50" outDis="50" oid="13327" /><Stop Id="3741" routeId="55" nameZh="潭子加工區" seqNo="34" pgp="0" terminal="0" districtId="1" GoBack="1" latitude="24.21797" longitude="120.70569" inDis="50" outDis="50" oid="13330" /><Stop Id="3743" routeId="55" nameZh="潭秀里" seqNo="35" pgp="0" terminal="0" districtId="1" GoBack="1" latitude="24.22131" longitude="120.70642" inDis="50" outDis="50" oid="13332" /><Stop Id="4361" routeId="55" nameZh="矽品精密" seqNo="36" pgp="0" terminal="0" districtId="1" GoBack="1" latitude="24.22424" longitude="120.70731" inDis="50" outDis="50" oid="13311" /><Stop Id="1909" routeId="55" nameZh="弘文中學" seqNo="37" pgp="0" terminal="0" districtId="1" GoBack="1" latitude="24.22655" longitude="120.7077" inDis="50" outDis="50" oid="13300" /><Stop Id="0539" routeId="55" nameZh="中山祥和路口" seqNo="38" pgp="0" terminal="0" districtId="1" GoBack="1" latitude="24.22825" longitude="120.70814" inDis="50" outDis="50" oid="319729706" /><Stop Id="2785" routeId="55" nameZh="校栗林" seqNo="39" pgp="0" terminal="0" districtId="1" GoBack="1" latitude="24.23151" longitude="120.7087" inDis="50" outDis="50" oid="13313" /><Stop Id="1965" routeId="55" nameZh="永豐螺絲" seqNo="40" pgp="0" terminal="0" districtId="1" GoBack="1" latitude="24.2351" longitude="120.70964" inDis="50" outDis="50" oid="13302" /><Stop Id="3282" routeId="55" nameZh="菸廠" seqNo="41" pgp="0" terminal="0" districtId="1" GoBack="1" latitude="24.23688" longitude="120.7103" inDis="50" outDis="50" oid="13318" /><Stop Id="1661" routeId="55" nameZh="文化新村" seqNo="42" pgp="0" terminal="0" districtId="1" GoBack="1" latitude="24.23837" longitude="120.71085" inDis="50" outDis="50" oid="13264" /><Stop Id="3817" routeId="55" nameZh="輸配電" seqNo="43" pgp="0" terminal="0" districtId="1" GoBack="1" latitude="24.24153" longitude="120.7127" inDis="50" outDis="50" oid="13335" /><Stop Id="3993" routeId="55" nameZh="警察局" seqNo="44" pgp="0" terminal="0" districtId="1" GoBack="1" latitude="24.24355" longitude="120.71377" inDis="50" outDis="50" oid="13345" /><Stop Id="3938" routeId="55" nameZh="豐原高商" seqNo="45" pgp="0" terminal="0" districtId="1" GoBack="1" latitude="24.24754" longitude="120.7153" inDis="50" outDis="50" oid="13339" /><Stop Id="0033" routeId="55" nameZh="豐原電信局" seqNo="46" pgp="0" terminal="0" districtId="1" GoBack="1" latitude="24.25003" longitude="120.71475" inDis="50" outDis="50" oid="13324" /><Stop Id="3939" routeId="55" nameZh="豐原郵局" seqNo="47" pgp="0" terminal="0" districtId="1" GoBack="1" latitude="24.25136" longitude="120.71526" inDis="50" outDis="50" oid="13243" /><Stop Id="3343" routeId="55" nameZh="媽祖廟" seqNo="48" pgp="0" terminal="0" districtId="1" GoBack="1" latitude="24.25157" longitude="120.71851" inDis="50" outDis="50" oid="13320" /><Stop Id="2309" routeId="55" nameZh="和平街" seqNo="49" pgp="0" terminal="0" districtId="1" GoBack="1" latitude="24.25233" longitude="120.71986" inDis="50" outDis="50" oid="13308" /><Stop Id="3935" routeId="55" nameZh="豐原" seqNo="50" pgp="0" terminal="0" districtId="1" GoBack="1" latitude="24.25388" longitude="120.72188" inDis="50" outDis="50" oid="13338" /><Stop Id="3935" routeId="55" nameZh="豐原" seqNo="1" pgp="0" terminal="0" districtId="1" GoBack="2" latitude="24.25388" longitude="120.72188" inDis="50" outDis="50" oid="13338" /><Stop Id="3343" routeId="55" nameZh="媽祖廟" seqNo="2" pgp="0" terminal="0" districtId="1" GoBack="2" latitude="24.25157" longitude="120.71851" inDis="50" outDis="50" oid="13320" /><Stop Id="3939" routeId="55" nameZh="豐原郵局" seqNo="3" pgp="0" terminal="0" districtId="1" GoBack="2" latitude="24.2514" longitude="120.71552" inDis="50" outDis="50" oid="13244" /><Stop Id="0033" routeId="55" nameZh="豐原電信局" seqNo="4" pgp="0" terminal="0" districtId="1" GoBack="2" latitude="24.25003" longitude="120.71475" inDis="50" outDis="50" oid="13324" /><Stop Id="3938" routeId="55" nameZh="豐原高商" seqNo="5" pgp="0" terminal="0" districtId="1" GoBack="2" latitude="24.24754" longitude="120.7153" inDis="50" outDis="50" oid="13339" /><Stop Id="3993" routeId="55" nameZh="警察局" seqNo="6" pgp="0" terminal="0" districtId="1" GoBack="2" latitude="24.24355" longitude="120.71377" inDis="50" outDis="50" oid="13345" /><Stop Id="3817" routeId="55" nameZh="輸配電" seqNo="7" pgp="0" terminal="0" districtId="1" GoBack="2" latitude="24.24153" longitude="120.7127" inDis="50" outDis="50" oid="13335" /><Stop Id="1661" routeId="55" nameZh="文化新村" seqNo="8" pgp="0" terminal="0" districtId="1" GoBack="2" latitude="24.23837" longitude="120.71085" inDis="50" outDis="50" oid="13264" /><Stop Id="3282" routeId="55" nameZh="菸廠" seqNo="9" pgp="0" terminal="0" districtId="1" GoBack="2" latitude="24.23688" longitude="120.7103" inDis="50" outDis="50" oid="13318" /><Stop Id="1965" routeId="55" nameZh="永豐螺絲" seqNo="10" pgp="0" terminal="0" districtId="1" GoBack="2" latitude="24.2351" longitude="120.70964" inDis="50" outDis="50" oid="13302" /><Stop Id="2785" routeId="55" nameZh="校栗林" seqNo="11" pgp="0" terminal="0" districtId="1" GoBack="2" latitude="24.23151" longitude="120.7087" inDis="50" outDis="50" oid="13313" /><Stop Id="0539" routeId="55" nameZh="中山祥和路口" seqNo="12" pgp="0" terminal="0" districtId="1" GoBack="2" latitude="24.22825" longitude="120.70814" inDis="50" outDis="50" oid="319729706" /><Stop Id="1909" routeId="55" nameZh="弘文中學" seqNo="13" pgp="0" terminal="0" districtId="1" GoBack="2" latitude="24.22655" longitude="120.7077" inDis="50" outDis="50" oid="13300" /><Stop Id="4361" routeId="55" nameZh="矽品精密" seqNo="14" pgp="0" terminal="0" districtId="1" GoBack="2" latitude="24.22424" longitude="120.70731" inDis="50" outDis="50" oid="13311" /><Stop Id="3743" routeId="55" nameZh="潭秀里" seqNo="15" pgp="0" terminal="0" districtId="1" GoBack="2" latitude="24.22131" longitude="120.70642" inDis="50" outDis="50" oid="13332" /><Stop Id="3741" routeId="55" nameZh="潭子加工區" seqNo="16" pgp="0" terminal="0" districtId="1" GoBack="2" latitude="24.21797" longitude="120.70569" inDis="50" outDis="50" oid="13330" /><Stop Id="3740" routeId="55" nameZh="潭子" seqNo="17" pgp="0" terminal="0" districtId="1" GoBack="2" latitude="24.21499" longitude="120.7051" inDis="50" outDis="50" oid="13327" /><Stop Id="4240" routeId="55" nameZh="潭子火車站" seqNo="18" pgp="0" terminal="0" districtId="1" GoBack="2" latitude="24.2126" longitude="120.70542" inDis="50" outDis="50" oid="13329" /><Stop Id="3742" routeId="55" nameZh="潭子區公所" seqNo="19" pgp="0" terminal="0" districtId="1" GoBack="2" latitude="24.20977" longitude="120.70537" inDis="50" outDis="50" oid="13331" /><Stop Id="4370" routeId="55" nameZh="中山圓通南路口" seqNo="20" pgp="0" terminal="0" districtId="1" GoBack="2" latitude="24.20761" longitude="120.70523" inDis="50" outDis="50" oid="13319" /><Stop Id="4658" routeId="55" nameZh="中山合作街口" seqNo="21" pgp="0" terminal="0" districtId="1" GoBack="2" latitude="24.20486" longitude="120.70441" inDis="50" outDis="50" oid="13096" /><Stop Id="3567" routeId="55" nameZh="僑忠國小" seqNo="22" pgp="0" terminal="0" districtId="1" GoBack="2" latitude="24.2021" longitude="120.7037" inDis="50" outDis="50" oid="13229" /><Stop Id="1972" routeId="55" nameZh="瓦窯" seqNo="23" pgp="0" terminal="0" districtId="1" GoBack="2" latitude="24.19994" longitude="120.70322" inDis="50" outDis="50" oid="310872631" /><Stop Id="3836" routeId="55" nameZh="頭家厝" seqNo="24" pgp="0" terminal="0" districtId="1" GoBack="2" latitude="24.1954" longitude="120.70243" inDis="50" outDis="50" oid="13336" /><Stop Id="4659" routeId="55" nameZh="中山中興路口" seqNo="25" pgp="0" terminal="0" districtId="1" GoBack="2" latitude="24.1916" longitude="120.70243" inDis="50" outDis="50" oid="13260" /><Stop Id="4673" routeId="55" nameZh="中山路一巷口" seqNo="26" pgp="0" terminal="0" districtId="1" GoBack="2" latitude="24.18759" longitude="120.7024" inDis="50" outDis="50" oid="13325" /><Stop Id="4582" routeId="55" nameZh="舊社公園(北屯路)" seqNo="27" pgp="0" terminal="0" districtId="1" GoBack="2" latitude="24.18155" longitude="120.70167" inDis="50" outDis="50" oid="7041BD9F0C3C42B2B73B2A54D3FF9E21" /><Stop Id="0105" routeId="55" nameZh="北新國中" seqNo="28" pgp="0" terminal="0" districtId="1" GoBack="2" latitude="24.17842" longitude="120.70034" inDis="50" outDis="50" oid="13286" /><Stop Id="0200" routeId="55" nameZh="北屯崇德二路口" seqNo="29" pgp="0" terminal="0" districtId="1" GoBack="2" latitude="24.17585" longitude="120.69932" inDis="50" outDis="50" oid="13299" /><Stop Id="0364" routeId="55" nameZh="特力屋北屯店" seqNo="30" pgp="0" terminal="0" districtId="1" GoBack="2" latitude="24.17407" longitude="120.69855" inDis="50" outDis="50" oid="13314" /><Stop Id="0103" routeId="55" nameZh="大坑口" seqNo="31" pgp="0" terminal="0" districtId="1" GoBack="2" latitude="24.16973" longitude="120.69716" inDis="50" outDis="50" oid="13284" /><Stop Id="5511" routeId="55" nameZh="三光國中" seqNo="32" pgp="0" terminal="0" districtId="1" GoBack="2" latitude="24.16762" longitude="120.69591" inDis="50" outDis="50" oid="13259" /><Stop Id="0492" routeId="55" nameZh="北屯" seqNo="33" pgp="0" terminal="0" districtId="1" GoBack="2" latitude="24.16504" longitude="120.69418" inDis="50" outDis="50" oid="13283" /><Stop Id="5405" routeId="55" nameZh="北屯國小(北屯路)" seqNo="34" pgp="0" terminal="0" districtId="1" GoBack="2" latitude="24.16325" longitude="120.69318" inDis="50" outDis="50" oid="13346" /><Stop Id="0892" routeId="55" nameZh="監理站" seqNo="35" pgp="0" terminal="0" districtId="1" GoBack="2" latitude="24.16106" longitude="120.69209" inDis="50" outDis="50" oid="13326" /><Stop Id="0960" routeId="55" nameZh="寶覺寺" seqNo="36" pgp="0" terminal="0" districtId="1" GoBack="2" latitude="24.15803" longitude="120.68992" inDis="50" outDis="50" oid="13342" /><Stop Id="4399" routeId="55" nameZh="新民高中(三民路)" seqNo="37" pgp="0" terminal="0" districtId="1" GoBack="2" latitude="24.1568" longitude="120.6885" inDis="50" outDis="50" oid="13322" /><Stop Id="0934" routeId="55" nameZh="三民錦中街口" seqNo="38" pgp="0" terminal="0" districtId="1" GoBack="2" latitude="24.15556" longitude="120.6871" inDis="50" outDis="50" oid="A369F80BD1F74F92A75B79E3B1367FC9" /><Stop Id="0047" routeId="55" nameZh="一心市場" seqNo="39" pgp="0" terminal="0" districtId="1" GoBack="2" latitude="24.15366" longitude="120.68571" inDis="50" outDis="50" oid="13251" /><Stop Id="0046" routeId="55" nameZh="中友百貨" seqNo="40" pgp="0" terminal="0" districtId="1" GoBack="2" latitude="24.15251" longitude="120.6852" inDis="50" outDis="50" oid="13255" /><Stop Id="0045" routeId="55" nameZh="國立臺中科技大學" seqNo="41" pgp="0" terminal="0" districtId="1" GoBack="2" latitude="24.14987" longitude="120.68413" inDis="50" outDis="50" oid="13293" /><Stop Id="1513" routeId="55" nameZh="中興堂" seqNo="42" pgp="0" terminal="0" districtId="1" GoBack="2" latitude="24.14621" longitude="120.68463" inDis="50" outDis="50" oid="16096" /><Stop Id="4544" routeId="55" nameZh="臺中公園(雙十路)" seqNo="43" pgp="0" terminal="0" districtId="1" GoBack="2" latitude="24.14399" longitude="120.68612" inDis="50" outDis="50" oid="13289" /><Stop Id="0402" routeId="55" nameZh="干城站" seqNo="44" pgp="0" terminal="0" districtId="1" GoBack="2" latitude="24.14089" longitude="120.68599" inDis="50" outDis="50" oid="13253" /><Stop Id="1824" routeId="55" nameZh="臺中火車站" seqNo="45" pgp="0" terminal="0" districtId="1" GoBack="2" latitude="24.1366" longitude="120.6837" inDis="50" outDis="170" oid="13291" /><Stop Id="4284" routeId="55" nameZh="民權繼光街口" seqNo="46" pgp="0" terminal="0" districtId="1" GoBack="2" latitude="24.13698" longitude="120.68112" inDis="50" outDis="50" oid="13344" /><Stop Id="0071" routeId="55" nameZh="臺中女中" seqNo="47" pgp="0" terminal="0" districtId="1" GoBack="2" latitude="24.13571" longitude="120.67785" inDis="50" outDis="50" oid="13287" /><Stop Id="0070" routeId="55" nameZh="地方法院" seqNo="48" pgp="0" terminal="0" districtId="1" GoBack="2" latitude="24.13387" longitude="120.67577" inDis="50" outDis="50" oid="13305" /><Stop Id="4091" routeId="55" nameZh="光明國中(貴和街)" seqNo="49" pgp="0" terminal="0" districtId="1" GoBack="2" latitude="24.1332" longitude="120.67433" inDis="50" outDis="50" oid="310050556" /></BusInfo></BusDynInfo>