[
  {
    "type": "Feature",
    "geometry": {
      "type": "Point",
      "coordinates": [
        120.79697,
        24.26784
      ]
    },
    "properties": {
      "id": "6102",
      "name": "石岡國中",
      "seq": 1
    }
  },
  {
    "type": "Feature",
    "geometry": {
      "type": "Point",
      "coordinates": [
        120.79646,
        24.27049
      ]
    },
    "properties": {
      "id": "3440",
      "name": "新豐冷凍",
      "seq": 2
    }
  },
  {
    "type": "Feature",
    "geometry": {
      "type": "Point",
      "coordinates": [
        120.79172,
        24.2726
      ]
    },
    "properties": {
      "id": "2496",
      "name": "社寮角",
      "seq": 3
    }
  },
  {
    "type": "Feature",
    "geometry": {
      "type": "Point",
      "coordinates": [
        120.78874,
        24.27386
      ]
    },
    "properties": {
      "id": "2983",
      "name": "情人木橋",
      "seq": 4
    }
  },
  {
    "type": "Feature",
    "geometry": {
      "type": "Point",
      "coordinates": [
        120.78428,
        24.27447
      ]
    },
    "properties": {
      "id": "0992",
      "name": "九房厝",
      "seq": 5
    }
  },
  {
    "type": "Feature",
    "geometry": {
      "type": "Point",
      "coordinates": [
        120.78075,
        24.27492
      ]
    },
    "properties": {
      "id": "4456",
      "name": "石岡區公所",
      "seq": 6
    }
  },
  {
    "type": "Feature",
    "geometry": {
      "type": "Point",
      "coordinates": [
        120.77635,
        24.27653
      ]
    },
    "properties": {
      "id": "2004",
      "name": "石岡",
      "seq": 7
    }
  },
  {
    "type": "Feature",
    "geometry": {
      "type": "Point",
      "coordinates": [
        120.77399,
        24.27668
      ]
    },
    "properties": {
      "id": "5042",
      "name": "石岡國小",
      "seq": 8
    }
  },
  {
    "type": "Feature",
    "geometry": {
      "type": "Point",
      "coordinates": [
        120.77635,
        24.27653
      ]
    },
    "properties": {
      "id": "2004",
      "name": "石岡",
      "seq": 9
    }
  },
  {
    "type": "Feature",
    "geometry": {
      "type": "Point",
      "coordinates": [
        120.78075,
        24.27492
      ]
    },
    "properties": {
      "id": "4456",
      "name": "石岡區公所",
      "seq": 10
    }
  },
  {
    "type": "Feature",
    "geometry": {
      "type": "Point",
      "coordinates": [
        120.78428,
        24.27447
      ]
    },
    "properties": {
      "id": "0992",
      "name": "九房厝",
      "seq": 11
    }
  },
  {
    "type": "Feature",
    "geometry": {
      "type": "Point",
      "coordinates": [
        120.78874,
        24.27386
      ]
    },
    "properties": {
      "id": "2983",
      "name": "情人木橋",
      "seq": 12
    }
  },
  {
    "type": "Feature",
    "geometry": {
      "type": "Point",
      "coordinates": [
        120.79089,
        24.27123
      ]
    },
    "properties": {
      "id": "4495",
      "name": "萬仙萬華街口",
      "seq": 13
    }
  },
  {
    "type": "Feature",
    "geometry": {
      "type": "Point",
      "coordinates": [
        120.79161,
        24.26919
      ]
    },
    "properties": {
      "id": "3746",
      "name": "盤安橋",
      "seq": 14
    }
  },
  {
    "type": "Feature",
    "geometry": {
      "type": "Point",
      "coordinates": [
        120.79168,
        24.26723
      ]
    },
    "properties": {
      "id": "5044",
      "name": "下盤安橋",
      "seq": 15
    }
  },
  {
    "type": "Feature",
    "geometry": {
      "type": "Point",
      "coordinates": [
        120.79081,
        24.26408
      ]
    },
    "properties": {
      "id": "3965",
      "name": "羅厝",
      "seq": 16
    }
  },
  {
    "type": "Feature",
    "geometry": {
      "type": "Point",
      "coordinates": [
        120.78872,
        24.26152
      ]
    },
    "properties": {
      "id": "2829",
      "name": "神木",
      "seq": 17
    }
  },
  {
    "type": "Feature",
    "geometry": {
      "type": "Point",
      "coordinates": [
        120.79007,
        24.25873
      ]
    },
    "properties": {
      "id": "3082",
      "name": "陳厝",
      "seq": 18
    }
  },
  {
    "type": "Feature",
    "geometry": {
      "type": "Point",
      "coordinates": [
        120.78909,
        24.2564
      ]
    },
    "properties": {
      "id": "5648",
      "name": "龍興里",
      "seq": 19
    }
  },
  {
    "type": "Feature",
    "geometry": {
      "type": "Point",
      "coordinates": [
        120.78909,
        24.2564
      ]
    },
    "properties": {
      "id": "5648",
      "name": "龍興里",
      "seq": 1
    }
  },
  {
    "type": "Feature",
    "geometry": {
      "type": "Point",
      "coordinates": [
        120.79007,
        24.25873
      ]
    },
    "properties": {
      "id": "3082",
      "name": "陳厝",
      "seq": 2
    }
  },
  {
    "type": "Feature",
    "geometry": {
      "type": "Point",
      "coordinates": [
        120.78872,
        24.26152
      ]
    },
    "properties": {
      "id": "2829",
      "name": "神木",
      "seq": 3
    }
  },
  {
    "type": "Feature",
    "geometry": {
      "type": "Point",
      "coordinates": [
        120.79081,
        24.26408
      ]
    },
    "properties": {
      "id": "3965",
      "name": "羅厝",
      "seq": 4
    }
  },
  {
    "type": "Feature",
    "geometry": {
      "type": "Point",
      "coordinates": [
        120.79168,
        24.26723
      ]
    },
    "properties": {
      "id": "5044",
      "name": "下盤安橋",
      "seq": 5
    }
  },
  {
    "type": "Feature",
    "geometry": {
      "type": "Point",
      "coordinates": [
        120.79161,
        24.26919
      ]
    },
    "properties": {
      "id": "3746",
      "name": "盤安橋",
      "seq": 6
    }
  },
  {
    "type": "Feature",
    "geometry": {
      "type": "Point",
      "coordinates": [
        120.79089,
        24.27123
      ]
    },
    "properties": {
      "id": "4495",
      "name": "萬仙萬華街口",
      "seq": 7
    }
  },
  {
    "type": "Feature",
    "geometry": {
      "type": "Point",
      "coordinates": [
        120.78874,
        24.27386
      ]
    },
    "properties": {
      "id": "2983",
      "name": "情人木橋",
      "seq": 9
    }
  },
  {
    "type": "Feature",
    "geometry": {
      "type": "Point",
      "coordinates": [
        120.78428,
        24.27447
      ]
    },
    "properties": {
      "id": "0992",
      "name": "九房厝",
      "seq": 10
    }
  },
  {
    "type": "Feature",
    "geometry": {
      "type": "Point",
      "coordinates": [
        120.78075,
        24.27492
      ]
    },
    "properties": {
      "id": "4456",
      "name": "石岡區公所",
      "seq": 11
    }
  },
  {
    "type": "Feature",
    "geometry": {
      "type": "Point",
      "coordinates": [
        120.77635,
        24.27653
      ]
    },
    "properties": {
      "id": "2004",
      "name": "石岡",
      "seq": 12
    }
  },
  {
    "type": "Feature",
    "geometry": {
      "type": "Point",
      "coordinates": [
        120.77399,
        24.27668
      ]
    },
    "properties": {
      "id": "5042",
      "name": "石岡國小",
      "seq": 13
    }
  },
  {
    "type": "Feature",
    "geometry": {
      "type": "Point",
      "coordinates": [
        120.77635,
        24.27653
      ]
    },
    "properties": {
      "id": "2004",
      "name": "石岡",
      "seq": 14
    }
  },
  {
    "type": "Feature",
    "geometry": {
      "type": "Point",
      "coordinates": [
        120.78075,
        24.27492
      ]
    },
    "properties": {
      "id": "4456",
      "name": "石岡區公所",
      "seq": 15
    }
  },
  {
    "type": "Feature",
    "geometry": {
      "type": "Point",
      "coordinates": [
        120.78428,
        24.27447
      ]
    },
    "properties": {
      "id": "0992",
      "name": "九房厝",
      "seq": 16
    }
  },
  {
    "type": "Feature",
    "geometry": {
      "type": "Point",
      "coordinates": [
        120.78874,
        24.27386
      ]
    },
    "properties": {
      "id": "2983",
      "name": "情人木橋",
      "seq": 17
    }
  },
  {
    "type": "Feature",
    "geometry": {
      "type": "Point",
      "coordinates": [
        120.79172,
        24.2726
      ]
    },
    "properties": {
      "id": "2496",
      "name": "社寮角",
      "seq": 18
    }
  },
  {
    "type": "Feature",
    "geometry": {
      "type": "Point",
      "coordinates": [
        120.79646,
        24.27049
      ]
    },
    "properties": {
      "id": "3440",
      "name": "新豐冷凍",
      "seq": 19
    }
  },
  {
    "type": "Feature",
    "geometry": {
      "type": "Point",
      "coordinates": [
        120.80127,
        24.26864
      ]
    },
    "properties": {
      "id": "3003",
      "name": "梅子",
      "seq": 20
    }
  },
  {
    "type": "Feature",
    "geometry": {
      "type": "Point",
      "coordinates": [
        120.79697,
        24.26784
      ]
    },
    "properties": {
      "id": "6102",
      "name": "石岡國中",
      "seq": 21
    }
  }
]
