<?xml version="1.0" encoding="UTF-8" standalone="yes"?>
<BusDynInfo><EssentialInfo><Location><name>TCBUS</name><CenterName>Maxwin</CenterName></Location><UpdateTime>2014-12-20 07:28:37</UpdateTime><CoordinateSystem/></EssentialInfo>
<BusInfo><Stop Id="4690" routeId="28" nameZh="四張犁圖書館" seqNo="1" pgp="0" terminal="0" districtId="1" GoBack="1" latitude="24.19575" longitude="120.68052" inDis="50" outDis="50" oid="305945916" /><Stop Id="0542" routeId="28" nameZh="四民頂街" seqNo="2" pgp="0" terminal="0" districtId="1" GoBack="1" latitude="24.19454" longitude="120.68236" inDis="50" outDis="50" oid="5572" /><Stop Id="0544" routeId="28" nameZh="四張犁" seqNo="3" pgp="0" terminal="0" districtId="1" GoBack="1" latitude="24.1925" longitude="120.68207" inDis="50" outDis="50" oid="305945913" /><Stop Id="0541" routeId="28" nameZh="四民市場" seqNo="4" pgp="0" terminal="0" districtId="1" GoBack="1" latitude="24.19203" longitude="120.68258" inDis="40" outDis="40" oid="4AEF6747A90E4A8D967BF66582EB194D" /><Stop Id="0791" routeId="28" nameZh="陸光八村" seqNo="5" pgp="0" terminal="0" districtId="1" GoBack="1" latitude="24.19133" longitude="120.68381" inDis="50" outDis="50" oid="31CB8A1044604694A02972E5728230DB" /><Stop Id="0698" routeId="28" nameZh="南四張犁" seqNo="6" pgp="0" terminal="0" districtId="1" GoBack="1" latitude="24.18917" longitude="120.686" inDis="50" outDis="50" oid="1BF6A30D1E3647E78598A619AB8B93F4" /><Stop Id="2958" routeId="28" nameZh="崇德九路口" seqNo="7" pgp="0" terminal="0" districtId="1" GoBack="1" latitude="24.18756" longitude="120.68622" inDis="50" outDis="50" oid="DD047587CF8A4CD88A0A329373FBC18B" /><Stop Id="1393" routeId="28" nameZh="崇德山西路口" seqNo="8" pgp="0" terminal="0" districtId="1" GoBack="1" latitude="24.18507" longitude="120.68631" inDis="50" outDis="50" oid="AC0A160B90BA45509AE3FB75767B71F8" /><Stop Id="0194" routeId="28" nameZh="北屯區行政大樓" seqNo="9" pgp="0" terminal="0" districtId="1" GoBack="1" latitude="24.18266" longitude="120.6861" inDis="50" outDis="50" oid="12800" /><Stop Id="4330" routeId="28" nameZh="松竹崇德路口" seqNo="10" pgp="0" terminal="0" districtId="1" GoBack="1" latitude="24.18162" longitude="120.68511" inDis="50" outDis="50" oid="12801" /><Stop Id="4331" routeId="28" nameZh="松竹梅川東路口" seqNo="11" pgp="0" terminal="0" districtId="1" GoBack="1" latitude="24.182" longitude="120.68145" inDis="50" outDis="50" oid="12802" /><Stop Id="4691" routeId="28" nameZh="四平松竹路口" seqNo="12" pgp="0" terminal="0" districtId="1" GoBack="1" latitude="24.18556" longitude="120.67681" inDis="50" outDis="50" oid="305945917" /><Stop Id="4322" routeId="28" nameZh="衛道中學" seqNo="13" pgp="0" terminal="0" districtId="1" GoBack="1" latitude="24.18346" longitude="120.67566" inDis="50" outDis="50" oid="12803" /><Stop Id="1554" routeId="28" nameZh="仁愛公園" seqNo="14" pgp="0" terminal="0" districtId="1" GoBack="1" latitude="24.18176" longitude="120.67369" inDis="50" outDis="50" oid="308190163" /><Stop Id="4323" routeId="28" nameZh="仁愛國小" seqNo="15" pgp="0" terminal="0" districtId="1" GoBack="1" latitude="24.18003" longitude="120.67177" inDis="50" outDis="50" oid="12804" /><Stop Id="4324" routeId="28" nameZh="仁愛社區" seqNo="16" pgp="0" terminal="0" districtId="1" GoBack="1" latitude="24.17815" longitude="120.67028" inDis="50" outDis="50" oid="12805" /><Stop Id="5099" routeId="28" nameZh="水湳市場(大鵬路)" seqNo="17" pgp="0" terminal="0" districtId="1" GoBack="1" latitude="24.17819" longitude="120.66827" inDis="50" outDis="50" oid="12806" /><Stop Id="4325" routeId="28" nameZh="大鵬國小" seqNo="18" pgp="0" terminal="0" districtId="1" GoBack="1" latitude="24.17735" longitude="120.66462" inDis="50" outDis="50" oid="12807" /><Stop Id="4719" routeId="28" nameZh="中平長安路口" seqNo="19" pgp="0" terminal="0" districtId="1" GoBack="1" latitude="24.17632" longitude="120.66383" inDis="50" outDis="50" oid="306613462" /><Stop Id="4326" routeId="28" nameZh="皇城社區" seqNo="20" pgp="0" terminal="0" districtId="1" GoBack="1" latitude="24.17633" longitude="120.66263" inDis="50" outDis="50" oid="12808" /><Stop Id="4332" routeId="28" nameZh="河南長安路口" seqNo="21" pgp="0" terminal="0" districtId="1" GoBack="1" latitude="24.17262" longitude="120.6608" inDis="50" outDis="50" oid="12809" /><Stop Id="4159" routeId="28" nameZh="河南福上巷口" seqNo="22" pgp="0" terminal="0" districtId="1" GoBack="1" latitude="24.17516" longitude="120.65978" inDis="50" outDis="50" oid="13017" /><Stop Id="0233" routeId="28" nameZh="家扶發展學園" seqNo="23" pgp="0" terminal="0" districtId="1" GoBack="1" latitude="24.17624" longitude="120.65574" inDis="50" outDis="50" oid="12810" /><Stop Id="0234" routeId="28" nameZh="河南停車場" seqNo="24" pgp="0" terminal="0" districtId="1" GoBack="1" latitude="24.17588" longitude="120.6509" inDis="50" outDis="50" oid="12811" /><Stop Id="4333" routeId="28" nameZh="河南福星路口" seqNo="25" pgp="0" terminal="0" districtId="1" GoBack="1" latitude="24.1744" longitude="120.64842" inDis="50" outDis="50" oid="12812" /><Stop Id="0112" routeId="28" nameZh="福星停車場" seqNo="26" pgp="0" terminal="0" districtId="1" GoBack="1" latitude="24.17608" longitude="120.64544" inDis="50" outDis="50" oid="12813" /><Stop Id="4586" routeId="28" nameZh="逢甲大學(福星路)" seqNo="27" pgp="0" terminal="0" districtId="1" GoBack="1" latitude="24.17904" longitude="120.64506" inDis="50" outDis="50" oid="12814" /><Stop Id="4334" routeId="28" nameZh="福星西安街口" seqNo="28" pgp="0" terminal="0" districtId="1" GoBack="1" latitude="24.1815" longitude="120.64503" inDis="50" outDis="50" oid="12815" /><Stop Id="5658" routeId="28" nameZh="漢翔公司(星享道)" seqNo="29" pgp="0" terminal="0" districtId="1" GoBack="1" latitude="24.18508" longitude="120.64456" inDis="50" outDis="50" oid="12816" /><Stop Id="4327" routeId="28" nameZh="僑光科技大學" seqNo="30" pgp="0" terminal="0" districtId="1" GoBack="1" latitude="24.18662" longitude="120.64451" inDis="50" outDis="50" oid="12817" /><Stop Id="2192" routeId="28" nameZh="西苑高中" seqNo="31" pgp="0" terminal="0" districtId="1" GoBack="1" latitude="24.18632" longitude="120.64035" inDis="50" outDis="50" oid="12818" /><Stop Id="2175" routeId="28" nameZh="西屯派出所" seqNo="32" pgp="0" terminal="0" districtId="1" GoBack="1" latitude="24.18118" longitude="120.63813" inDis="50" outDis="50" oid="12819" /><Stop Id="0238" routeId="28" nameZh="西屯郵局" seqNo="33" pgp="0" terminal="0" districtId="1" GoBack="1" latitude="24.17667" longitude="120.63747" inDis="50" outDis="50" oid="12820" /><Stop Id="0013" routeId="28" nameZh="朝馬(黎明路)" seqNo="34" pgp="0" terminal="0" districtId="1" GoBack="1" latitude="24.17183" longitude="120.63692" inDis="50" outDis="50" oid="312005270" /><Stop Id="5149" routeId="28" nameZh="福安里(臺灣大道)" seqNo="35" pgp="0" terminal="0" districtId="1" GoBack="1" latitude="24.17849" longitude="120.62485" inDis="50" outDis="50" oid="12822" /><Stop Id="3060" routeId="28" nameZh="統聯轉運站" seqNo="36" pgp="0" terminal="0" districtId="1" GoBack="1" latitude="24.18017" longitude="120.62124" inDis="50" outDis="50" oid="301587986" /><Stop Id="0008" routeId="28" nameZh="中港新城" seqNo="37" pgp="0" terminal="0" districtId="1" GoBack="1" latitude="24.18099" longitude="120.61946" inDis="50" outDis="50" oid="12823" /><Stop Id="0430" routeId="28" nameZh="中港澄清醫院" seqNo="38" pgp="0" terminal="0" districtId="1" GoBack="1" latitude="24.18277" longitude="120.61581" inDis="50" outDis="50" oid="12824" /><Stop Id="0006" routeId="28" nameZh="臺中捐血中心" seqNo="39" pgp="0" terminal="0" districtId="1" GoBack="1" latitude="24.18435" longitude="120.61239" inDis="50" outDis="50" oid="12825" /><Stop Id="4335" routeId="28" nameZh="臺灣大道玉門路口" seqNo="40" pgp="0" terminal="0" districtId="1" GoBack="1" latitude="24.18436" longitude="120.61001" inDis="50" outDis="50" oid="12826" /><Stop Id="0004" routeId="28" nameZh="普濟寺" seqNo="41" pgp="0" terminal="0" districtId="1" GoBack="1" latitude="24.18397" longitude="120.60796" inDis="50" outDis="50" oid="12827" /><Stop Id="2378" routeId="28" nameZh="東大附中" seqNo="42" pgp="0" terminal="0" districtId="1" GoBack="1" latitude="24.18351" longitude="120.60643" inDis="50" outDis="50" oid="12828" /><Stop Id="5386" routeId="28" nameZh="臺中榮總(臺灣大道)" seqNo="43" pgp="0" terminal="0" districtId="1" GoBack="1" latitude="24.18349" longitude="120.60491" inDis="50" outDis="50" oid="313588801" /><Stop Id="0526" routeId="28" nameZh="台中精機" seqNo="44" pgp="0" terminal="0" districtId="1" GoBack="1" latitude="24.1819" longitude="120.59873" inDis="50" outDis="50" oid="12830" /><Stop Id="0240" routeId="28" nameZh="東海別墅" seqNo="45" pgp="0" terminal="0" districtId="1" GoBack="1" latitude="24.18244" longitude="120.59424" inDis="50" outDis="50" oid="12831" /><Stop Id="4383" routeId="28" nameZh="臺糖公營學苑" seqNo="46" pgp="0" terminal="0" districtId="1" GoBack="1" latitude="24.18367" longitude="120.59125" inDis="50" outDis="50" oid="13471" /><Stop Id="5304" routeId="28" nameZh="東海街口" seqNo="47" pgp="0" terminal="0" districtId="1" GoBack="1" latitude="24.1853" longitude="120.58788" inDis="50" outDis="50" oid="311234408" /><Stop Id="2325" routeId="28" nameZh="坪頂" seqNo="48" pgp="0" terminal="0" districtId="1" GoBack="1" latitude="24.186" longitude="120.58603" inDis="50" outDis="50" oid="7104" /><Stop Id="2325" routeId="28" nameZh="坪頂" seqNo="1" pgp="0" terminal="0" districtId="1" GoBack="2" latitude="24.186" longitude="120.58603" inDis="50" outDis="50" oid="7104" /><Stop Id="5304" routeId="28" nameZh="東海街口" seqNo="2" pgp="0" terminal="0" districtId="1" GoBack="2" latitude="24.1853" longitude="120.58788" inDis="50" outDis="50" oid="311234408" /><Stop Id="4383" routeId="28" nameZh="臺糖公營學苑" seqNo="3" pgp="0" terminal="0" districtId="1" GoBack="2" latitude="24.18367" longitude="120.59125" inDis="50" outDis="50" oid="13471" /><Stop Id="0240" routeId="28" nameZh="東海別墅" seqNo="4" pgp="0" terminal="0" districtId="1" GoBack="2" latitude="24.18244" longitude="120.59424" inDis="50" outDis="50" oid="12831" /><Stop Id="0526" routeId="28" nameZh="台中精機" seqNo="5" pgp="0" terminal="0" districtId="1" GoBack="2" latitude="24.1819" longitude="120.59873" inDis="50" outDis="50" oid="12830" /><Stop Id="5386" routeId="28" nameZh="臺中榮總(臺灣大道)" seqNo="6" pgp="0" terminal="0" districtId="1" GoBack="2" latitude="24.18349" longitude="120.60491" inDis="50" outDis="50" oid="12829" /><Stop Id="2378" routeId="28" nameZh="東大附中" seqNo="7" pgp="0" terminal="0" districtId="1" GoBack="2" latitude="24.18351" longitude="120.60643" inDis="50" outDis="50" oid="12828" /><Stop Id="0004" routeId="28" nameZh="普濟寺" seqNo="8" pgp="0" terminal="0" districtId="1" GoBack="2" latitude="24.18397" longitude="120.60796" inDis="50" outDis="50" oid="12827" /><Stop Id="4335" routeId="28" nameZh="臺灣大道玉門路口" seqNo="9" pgp="0" terminal="0" districtId="1" GoBack="2" latitude="24.18436" longitude="120.61001" inDis="50" outDis="50" oid="12826" /><Stop Id="0006" routeId="28" nameZh="臺中捐血中心" seqNo="10" pgp="0" terminal="0" districtId="1" GoBack="2" latitude="24.18435" longitude="120.61239" inDis="50" outDis="50" oid="12825" /><Stop Id="0430" routeId="28" nameZh="中港澄清醫院" seqNo="11" pgp="0" terminal="0" districtId="1" GoBack="2" latitude="24.18277" longitude="120.61581" inDis="50" outDis="50" oid="12824" /><Stop Id="5149" routeId="28" nameZh="福安里(臺灣大道)" seqNo="12" pgp="0" terminal="0" districtId="1" GoBack="2" latitude="24.1787" longitude="120.62374" inDis="50" outDis="50" oid="319908747" /><Stop Id="3060" routeId="28" nameZh="統聯轉運站" seqNo="13" pgp="0" terminal="0" districtId="1" GoBack="2" latitude="24.18008" longitude="120.62107" inDis="50" outDis="50" oid="301587988" /><Stop Id="0008" routeId="28" nameZh="中港新城" seqNo="14" pgp="0" terminal="0" districtId="1" GoBack="2" latitude="24.18145" longitude="120.6183" inDis="50" outDis="50" oid="320062561" /><Stop Id="0013" routeId="28" nameZh="朝馬(黎明路)" seqNo="16" pgp="0" terminal="0" districtId="1" GoBack="2" latitude="24.17183" longitude="120.63692" inDis="50" outDis="50" oid="312005270" /><Stop Id="0238" routeId="28" nameZh="西屯郵局" seqNo="17" pgp="0" terminal="0" districtId="1" GoBack="2" latitude="24.17667" longitude="120.63747" inDis="50" outDis="50" oid="12820" /><Stop Id="2175" routeId="28" nameZh="西屯派出所" seqNo="18" pgp="0" terminal="0" districtId="1" GoBack="2" latitude="24.18118" longitude="120.63813" inDis="50" outDis="50" oid="12819" /><Stop Id="2192" routeId="28" nameZh="西苑高中" seqNo="19" pgp="0" terminal="0" districtId="1" GoBack="2" latitude="24.18632" longitude="120.64035" inDis="50" outDis="50" oid="12818" /><Stop Id="4327" routeId="28" nameZh="僑光科技大學" seqNo="20" pgp="0" terminal="0" districtId="1" GoBack="2" latitude="24.18662" longitude="120.64451" inDis="50" outDis="50" oid="12817" /><Stop Id="5658" routeId="28" nameZh="漢翔公司(星享道)" seqNo="21" pgp="0" terminal="0" districtId="1" GoBack="2" latitude="24.18508" longitude="120.64456" inDis="50" outDis="50" oid="12816" /><Stop Id="4334" routeId="28" nameZh="福星西安街口" seqNo="22" pgp="0" terminal="0" districtId="1" GoBack="2" latitude="24.1815" longitude="120.64503" inDis="50" outDis="50" oid="12815" /><Stop Id="4586" routeId="28" nameZh="逢甲大學(福星路)" seqNo="23" pgp="0" terminal="0" districtId="1" GoBack="2" latitude="24.17904" longitude="120.64506" inDis="50" outDis="50" oid="12814" /><Stop Id="0112" routeId="28" nameZh="福星停車場" seqNo="24" pgp="0" terminal="0" districtId="1" GoBack="2" latitude="24.17608" longitude="120.64544" inDis="50" outDis="50" oid="12813" /><Stop Id="4333" routeId="28" nameZh="河南福星路口" seqNo="25" pgp="0" terminal="0" districtId="1" GoBack="2" latitude="24.1744" longitude="120.64842" inDis="50" outDis="50" oid="12812" /><Stop Id="0234" routeId="28" nameZh="河南停車場" seqNo="26" pgp="0" terminal="0" districtId="1" GoBack="2" latitude="24.17588" longitude="120.6509" inDis="50" outDis="50" oid="12811" /><Stop Id="0233" routeId="28" nameZh="家扶發展學園" seqNo="27" pgp="0" terminal="0" districtId="1" GoBack="2" latitude="24.17624" longitude="120.65574" inDis="50" outDis="50" oid="12810" /><Stop Id="4159" routeId="28" nameZh="河南福上巷口" seqNo="28" pgp="0" terminal="0" districtId="1" GoBack="2" latitude="24.17516" longitude="120.65978" inDis="50" outDis="50" oid="13017" /><Stop Id="4332" routeId="28" nameZh="河南長安路口" seqNo="29" pgp="0" terminal="0" districtId="1" GoBack="2" latitude="24.17262" longitude="120.6608" inDis="50" outDis="50" oid="12809" /><Stop Id="4326" routeId="28" nameZh="皇城社區" seqNo="30" pgp="0" terminal="0" districtId="1" GoBack="2" latitude="24.17633" longitude="120.66263" inDis="50" outDis="50" oid="12808" /><Stop Id="4719" routeId="28" nameZh="中平長安路口" seqNo="31" pgp="0" terminal="0" districtId="1" GoBack="2" latitude="24.1762" longitude="120.66306" inDis="50" outDis="50" oid="306613464" /><Stop Id="4325" routeId="28" nameZh="大鵬國小" seqNo="32" pgp="0" terminal="0" districtId="1" GoBack="2" latitude="24.17735" longitude="120.66462" inDis="50" outDis="50" oid="12807" /><Stop Id="5099" routeId="28" nameZh="水湳市場(大鵬路)" seqNo="33" pgp="0" terminal="0" districtId="1" GoBack="2" latitude="24.17819" longitude="120.66827" inDis="50" outDis="50" oid="12806" /><Stop Id="4324" routeId="28" nameZh="仁愛社區" seqNo="34" pgp="0" terminal="0" districtId="1" GoBack="2" latitude="24.17815" longitude="120.67028" inDis="50" outDis="50" oid="12805" /><Stop Id="4323" routeId="28" nameZh="仁愛國小" seqNo="35" pgp="0" terminal="0" districtId="1" GoBack="2" latitude="24.18003" longitude="120.67177" inDis="50" outDis="50" oid="12804" /><Stop Id="1554" routeId="28" nameZh="仁愛公園" seqNo="36" pgp="0" terminal="0" districtId="1" GoBack="2" latitude="24.18176" longitude="120.67369" inDis="50" outDis="50" oid="308190214" /><Stop Id="4322" routeId="28" nameZh="衛道中學" seqNo="37" pgp="0" terminal="0" districtId="1" GoBack="2" latitude="24.18346" longitude="120.67566" inDis="50" outDis="50" oid="12803" /><Stop Id="4691" routeId="28" nameZh="四平松竹路口" seqNo="38" pgp="0" terminal="0" districtId="1" GoBack="2" latitude="24.18552" longitude="120.67691" inDis="50" outDis="50" oid="305945918" /><Stop Id="4331" routeId="28" nameZh="松竹梅川東路口" seqNo="39" pgp="0" terminal="0" districtId="1" GoBack="2" latitude="24.182" longitude="120.68145" inDis="50" outDis="50" oid="12802" /><Stop Id="0194" routeId="28" nameZh="北屯區行政大樓" seqNo="40" pgp="0" terminal="0" districtId="1" GoBack="2" latitude="24.18266" longitude="120.6861" inDis="50" outDis="50" oid="12800" /><Stop Id="1393" routeId="28" nameZh="崇德山西路口" seqNo="41" pgp="0" terminal="0" districtId="1" GoBack="2" latitude="24.1848" longitude="120.68613" inDis="50" outDis="50" oid="3766644E997346DD936E532BA54998D4" /><Stop Id="0698" routeId="28" nameZh="南四張犁" seqNo="42" pgp="0" terminal="0" districtId="1" GoBack="2" latitude="24.18925" longitude="120.6859" inDis="50" outDis="50" oid="73394A819DAA41BA8454B6FDEF746769" /><Stop Id="0791" routeId="28" nameZh="陸光八村" seqNo="43" pgp="0" terminal="0" districtId="1" GoBack="2" latitude="24.19133" longitude="120.68381" inDis="50" outDis="50" oid="31CB8A1044604694A02972E5728230DB" /><Stop Id="0541" routeId="28" nameZh="四民市場" seqNo="44" pgp="0" terminal="0" districtId="1" GoBack="2" latitude="24.19198" longitude="120.68255" inDis="40" outDis="40" oid="DF5AF097012640B0AEA0F42465831AC9" /><Stop Id="0544" routeId="28" nameZh="四張犁" seqNo="45" pgp="0" terminal="0" districtId="1" GoBack="2" latitude="24.1925" longitude="120.68207" inDis="50" outDis="50" oid="305945913" /><Stop Id="4917" routeId="28" nameZh="四張犁農村公園" seqNo="46" pgp="0" terminal="0" districtId="1" GoBack="2" latitude="24.19421" longitude="120.68181" inDis="50" outDis="50" oid="305945914" /><Stop Id="4690" routeId="28" nameZh="四張犁圖書館" seqNo="47" pgp="0" terminal="0" districtId="1" GoBack="2" latitude="24.19575" longitude="120.68052" inDis="50" outDis="50" oid="305945916" /></BusInfo></BusDynInfo>