<?xml version="1.0" encoding="UTF-8" standalone="yes"?>
<BusDynInfo><EssentialInfo><Location><name>TCBUS</name><CenterName>Maxwin</CenterName></Location><UpdateTime>2014-12-20 07:28:58</UpdateTime><CoordinateSystem/></EssentialInfo>
<BusInfo><Stop Id="0443" routeId="29" nameZh="仁友東站" seqNo="1" pgp="0" terminal="0" districtId="1" GoBack="1" latitude="24.13886" longitude="120.68415" inDis="50" outDis="50" oid="306194ACD84A4F98BE9A3B44E0F83048" /><Stop Id="4401" routeId="29" nameZh="彰化銀行(臺灣大道)" seqNo="2" pgp="0" terminal="0" districtId="1" GoBack="1" latitude="24.13985" longitude="120.68261" inDis="50" outDis="30" oid="AD006E5F67DD4A0AB2BF329BE61E5289" /><Stop Id="5670" routeId="29" nameZh="公園自由路口" seqNo="3" pgp="0" terminal="0" districtId="1" GoBack="1" latitude="24.14266" longitude="120.68391" inDis="50" outDis="50" oid="0C52D3825CBE4E0EB12890BEE2862FE2" /><Stop Id="4543" routeId="29" nameZh="臺中公園(三民路)" seqNo="4" pgp="0" terminal="0" districtId="1" GoBack="1" latitude="24.14526" longitude="120.68223" inDis="50" outDis="50" oid="6F81DDD56D3943B6AAF6E29FD6951FF6" /><Stop Id="0045" routeId="29" nameZh="國立臺中科技大學" seqNo="5" pgp="0" terminal="0" districtId="1" GoBack="1" latitude="24.14952" longitude="120.68399" inDis="50" outDis="50" oid="304F38CF840E4348AE876F38AE30605E" /><Stop Id="0046" routeId="29" nameZh="中友百貨" seqNo="6" pgp="0" terminal="0" districtId="1" GoBack="1" latitude="24.15252" longitude="120.68507" inDis="50" outDis="50" oid="79740DE13E714D6B8916BEC351B0750E" /><Stop Id="3772" routeId="29" nameZh="五權學士路口" seqNo="8" pgp="0" terminal="0" districtId="1" GoBack="1" latitude="24.15384" longitude="120.68376" inDis="50" outDis="50" oid="F9D3AF830C6B4E33BB329E5F6497AA8B" /><Stop Id="0146" routeId="29" nameZh="五常里" seqNo="9" pgp="0" terminal="0" districtId="1" GoBack="1" latitude="24.15253" longitude="120.68023" inDis="50" outDis="50" oid="5C589DA71551416A990866EEE8396137" /><Stop Id="0145" routeId="29" nameZh="光大里" seqNo="10" pgp="0" terminal="0" districtId="1" GoBack="1" latitude="24.15189" longitude="120.67858" inDis="50" outDis="50" oid="617C8156AFE741CFB85C8AF165433514" /><Stop Id="0503" routeId="29" nameZh="臺中二中" seqNo="11" pgp="0" terminal="0" districtId="1" GoBack="1" latitude="24.15243" longitude="120.6773" inDis="50" outDis="50" oid="E1B6DA23FAD64304BB4C88B430F99349" /><Stop Id="0481" routeId="29" nameZh="文莊里" seqNo="12" pgp="0" terminal="0" districtId="1" GoBack="1" latitude="24.15458" longitude="120.67731" inDis="50" outDis="50" oid="58690B4EA28D47A28ADCD46E562EFA94" /><Stop Id="0092" routeId="29" nameZh="邱厝里" seqNo="13" pgp="0" terminal="0" districtId="1" GoBack="1" latitude="24.15654" longitude="120.67646" inDis="50" outDis="50" oid="0A5C0048F98443C885A87CB4C42148E9" /><Stop Id="5732" routeId="29" nameZh="中清健行路口" seqNo="14" pgp="0" terminal="0" districtId="1" GoBack="1" latitude="24.15867" longitude="120.67608" inDis="50" outDis="50" oid="62D83CFE92B847FC9073E00A78BECBF6" /><Stop Id="5733" routeId="29" nameZh="大道公廟(中清路)" seqNo="15" pgp="0" terminal="0" districtId="1" GoBack="1" latitude="24.16071" longitude="120.67532" inDis="50" outDis="50" oid="1E320CE2A0134D1D98A7D0966F3B70EE" /><Stop Id="5734" routeId="29" nameZh="中清忠明路口" seqNo="16" pgp="0" terminal="0" districtId="1" GoBack="1" latitude="24.1623" longitude="120.67483" inDis="50" outDis="50" oid="33F6AB3B4017402F81CDF40E4C53F958" /><Stop Id="5735" routeId="29" nameZh="中清太原路口" seqNo="17" pgp="0" terminal="0" districtId="1" GoBack="1" latitude="24.16412" longitude="120.67424" inDis="50" outDis="50" oid="6F69F38FCA294BD5A0AEAE69DA8B2242" /><Stop Id="5736" routeId="29" nameZh="中清漢口路口" seqNo="18" pgp="0" terminal="0" districtId="1" GoBack="1" latitude="24.16658" longitude="120.67341" inDis="50" outDis="50" oid="56F92579C156402C9547F5AA57D8782F" /><Stop Id="5737" routeId="29" nameZh="曉明女中(中清路)" seqNo="19" pgp="0" terminal="0" districtId="1" GoBack="1" latitude="24.16828" longitude="120.67289" inDis="50" outDis="50" oid="405154FC0316471689015368B1E057FD" /><Stop Id="1629" routeId="29" nameZh="天津路商圈" seqNo="20" pgp="0" terminal="0" districtId="1" GoBack="1" latitude="24.17061" longitude="120.67228" inDis="50" outDis="50" oid="F9637C03649748D0B6444C6B1E67DFC1" /><Stop Id="0805" routeId="29" nameZh="頂賴厝" seqNo="21" pgp="0" terminal="0" districtId="1" GoBack="1" latitude="24.17218" longitude="120.67177" inDis="50" outDis="50" oid="B30408E4F6FE422A9BDE756E29C34ACB" /><Stop Id="5201" routeId="29" nameZh="文心中清西一街口" seqNo="22" pgp="0" terminal="0" districtId="1" GoBack="1" latitude="24.17376" longitude="120.67057" inDis="50" outDis="50" oid="312331410" /><Stop Id="0228" routeId="29" nameZh="文心陜西路口" seqNo="23" pgp="0" terminal="0" districtId="1" GoBack="1" latitude="24.1734" longitude="120.66782" inDis="50" outDis="50" oid="15AFE114EA17452887F132572A0F9EFC" /><Stop Id="0229" routeId="29" nameZh="臺灣日報" seqNo="24" pgp="0" terminal="0" districtId="1" GoBack="1" latitude="24.17317" longitude="120.66657" inDis="50" outDis="50" oid="CBE23899DB5943288F1A898179125CEE" /><Stop Id="0230" routeId="29" nameZh="重慶國小" seqNo="25" pgp="0" terminal="0" districtId="1" GoBack="1" latitude="24.1725" longitude="120.66358" inDis="50" outDis="50" oid="46491FD54EDF420785983EDA438085BD" /><Stop Id="4275" routeId="29" nameZh="文心河南路口" seqNo="26" pgp="0" terminal="0" districtId="1" GoBack="1" latitude="24.17149" longitude="120.66069" inDis="50" outDis="50" oid="12538" /><Stop Id="4612" routeId="29" nameZh="文華高中(文心路)" seqNo="27" pgp="0" terminal="0" districtId="1" GoBack="1" latitude="24.17125" longitude="120.65959" inDis="50" outDis="50" oid="973F2B6F13B54CC29CF6FC3EF9ADF2A2" /><Stop Id="4271" routeId="29" nameZh="文心甘肅路口" seqNo="28" pgp="0" terminal="0" districtId="1" GoBack="1" latitude="24.16917" longitude="120.65549" inDis="50" outDis="50" oid="9D491C0D79804DF0A14BCA69278E3D5F" /><Stop Id="5710" routeId="29" nameZh="長安國小" seqNo="29" pgp="0" terminal="0" districtId="1" GoBack="1" latitude="24.16917" longitude="120.65287" inDis="50" outDis="50" oid="319916347" /><Stop Id="5711" routeId="29" nameZh="福星公園" seqNo="30" pgp="0" terminal="0" districtId="1" GoBack="1" latitude="24.17142" longitude="120.64928" inDis="50" outDis="50" oid="319916346" /><Stop Id="0273" routeId="29" nameZh="上石里" seqNo="31" pgp="0" terminal="0" districtId="1" GoBack="1" latitude="24.17066" longitude="120.64718" inDis="50" outDis="50" oid="E9BCA187887F4B1B8375CE7B500D0165" /><Stop Id="0274" routeId="29" nameZh="西屯上石路口" seqNo="32" pgp="0" terminal="0" districtId="1" GoBack="1" latitude="24.1716" longitude="120.64634" inDis="50" outDis="50" oid="6D1572B7398949868E3190A8A0499D69" /><Stop Id="4600" routeId="29" nameZh="西屯河南路口" seqNo="33" pgp="0" terminal="0" districtId="1" GoBack="1" latitude="24.17317" longitude="120.6448" inDis="50" outDis="50" oid="17E8ED04ABEA4EE78F0DDFA685ECD300" /><Stop Id="0803" routeId="29" nameZh="頂湳仔" seqNo="34" pgp="0" terminal="0" districtId="1" GoBack="1" latitude="24.17419" longitude="120.64447" inDis="50" outDis="50" oid="5D7FC66D0C1749B5B7E2119A4E3CF7E8" /><Stop Id="0337" routeId="29" nameZh="下湳仔" seqNo="35" pgp="0" terminal="0" districtId="1" GoBack="1" latitude="24.1764" longitude="120.64361" inDis="50" outDis="50" oid="D583E504ED7F4EB78C263CF6B95974F1" /><Stop Id="0361" routeId="29" nameZh="大魚池" seqNo="36" pgp="0" terminal="0" districtId="1" GoBack="1" latitude="24.17738" longitude="120.64275" inDis="50" outDis="50" oid="F78644B1F2974AC2AFF46E4F05547B08" /><Stop Id="4586" routeId="29" nameZh="逢甲大學(福星路)" seqNo="37" pgp="0" terminal="0" districtId="1" GoBack="1" latitude="24.17942" longitude="120.64496" inDis="50" outDis="50" oid="7E25D4225BD14360BB3B32AA3E3485E6" /><Stop Id="4334" routeId="29" nameZh="福星西安街口" seqNo="38" pgp="0" terminal="0" districtId="1" GoBack="1" latitude="24.18159" longitude="120.64485" inDis="50" outDis="50" oid="0007829CE7FD47C5A5B8CBB65EE42EFF" /><Stop Id="5658" routeId="29" nameZh="漢翔公司(星享道)" seqNo="39" pgp="0" terminal="0" districtId="1" GoBack="1" latitude="24.18525" longitude="120.64462" inDis="50" outDis="50" oid="9E5DD71969EA4596910CD2486EE872B8" /><Stop Id="4327" routeId="29" nameZh="僑光科技大學" seqNo="40" pgp="0" terminal="0" districtId="1" GoBack="1" latitude="24.18649" longitude="120.64442" inDis="50" outDis="50" oid="A8CE1B8F08B544938666117AF5C16069" /><Stop Id="2192" routeId="29" nameZh="西苑高中" seqNo="41" pgp="0" terminal="0" districtId="1" GoBack="1" latitude="24.18633" longitude="120.64018" inDis="50" outDis="50" oid="7076A6EC84A94AF5ACD67F21654ECCFF" /><Stop Id="2175" routeId="29" nameZh="西屯派出所" seqNo="42" pgp="0" terminal="0" districtId="1" GoBack="1" latitude="24.18127" longitude="120.63832" inDis="50" outDis="50" oid="BB72C7C9596742478BC16267459B3992" /><Stop Id="0238" routeId="29" nameZh="西屯郵局" seqNo="43" pgp="0" terminal="0" districtId="1" GoBack="1" latitude="24.1769" longitude="120.63742" inDis="50" outDis="50" oid="69FC3D55334D46879999AAAFAD6C6016" /><Stop Id="0013" routeId="29" nameZh="朝馬(黎明路)" seqNo="44" pgp="0" terminal="0" districtId="1" GoBack="1" latitude="24.17183" longitude="120.63692" inDis="50" outDis="50" oid="312005270" /><Stop Id="5158" routeId="29" nameZh="黎明環河路口" seqNo="45" pgp="0" terminal="0" districtId="1" GoBack="1" latitude="24.16755" longitude="120.63556" inDis="50" outDis="50" oid="3D9AFBC627B74DD28D4CFEF03FE2A8E9" /><Stop Id="4645" routeId="29" nameZh="西屯區公所" seqNo="46" pgp="0" terminal="0" districtId="1" GoBack="1" latitude="24.16406" longitude="120.63429" inDis="50" outDis="50" oid="71C5AC3F5D8F42C7B39B10EC6E2B85B6" /><Stop Id="5748" routeId="29" nameZh="黎明龍門路口" seqNo="47" pgp="0" terminal="0" districtId="1" GoBack="1" latitude="24.16294" longitude="120.63392" inDis="50" outDis="50" oid="320349543" /><Stop Id="5155" routeId="29" nameZh="黎明市政路口" seqNo="48" pgp="0" terminal="0" districtId="1" GoBack="1" latitude="24.16109" longitude="120.63387" inDis="50" outDis="50" oid="C542102A0F88473886824B72592246A5" /><Stop Id="0056" routeId="29" nameZh="黎明國小" seqNo="49" pgp="0" terminal="0" districtId="1" GoBack="1" latitude="24.15734" longitude="120.63419" inDis="50" outDis="50" oid="1E5F83F45A754789BF9871EA99C965A3" /><Stop Id="4178" routeId="29" nameZh="干城一站" seqNo="50" pgp="0" terminal="0" districtId="1" GoBack="1" latitude="24.15566" longitude="120.63368" inDis="50" outDis="50" oid="220938616" /><Stop Id="0553" routeId="29" nameZh="幼稚園" seqNo="51" pgp="0" terminal="0" districtId="1" GoBack="1" latitude="24.15438" longitude="120.62861" inDis="50" outDis="50" oid="CFC95C39DBDC4BD68E0D5B375D97A63F" /><Stop Id="0401" routeId="29" nameZh="干城二站" seqNo="52" pgp="0" terminal="0" districtId="1" GoBack="1" latitude="24.15251" longitude="120.6291" inDis="50" outDis="50" oid="D8D62C4D6630487997276648ACE52769" /><Stop Id="1410" routeId="29" nameZh="干城三站" seqNo="53" pgp="0" terminal="0" districtId="1" GoBack="1" latitude="24.15195" longitude="120.63096" inDis="50" outDis="50" oid="30AD087149944FDEAE46012A87673CA9" /><Stop Id="0059" routeId="29" nameZh="黎明公益路口" seqNo="54" pgp="0" terminal="0" districtId="1" GoBack="1" latitude="24.15057" longitude="120.63547" inDis="50" outDis="50" oid="1A7BD1B3AE5A451C831FE623189115CB" /><Stop Id="0060" routeId="29" nameZh="三厝里" seqNo="55" pgp="0" terminal="0" districtId="1" GoBack="1" latitude="24.14814" longitude="120.63585" inDis="50" outDis="50" oid="5B32A0D5C345430EAEE33701AC2C7A69" /><Stop Id="4245" routeId="29" nameZh="黎明五權西路口" seqNo="56" pgp="0" terminal="0" districtId="1" GoBack="1" latitude="24.14375" longitude="120.63729" inDis="50" outDis="50" oid="53DBBA9AEB044C458083E5970BA45777" /><Stop Id="5156" routeId="29" nameZh="黎明南屯路口" seqNo="57" pgp="0" terminal="0" districtId="1" GoBack="1" latitude="24.14044" longitude="120.63846" inDis="50" outDis="50" oid="2695A880F67C4606B4D073B76CB90E75" /><Stop Id="0695" routeId="29" nameZh="南屯國小" seqNo="58" pgp="0" terminal="0" districtId="1" GoBack="1" latitude="24.13671" longitude="120.63711" inDis="50" outDis="50" oid="B50A876C72C04180BCFBCDE4D4065614" /><Stop Id="5463" routeId="29" nameZh="永定里(永春東路)" seqNo="59" pgp="0" terminal="0" districtId="1" GoBack="1" latitude="24.1377" longitude="120.63252" inDis="50" outDis="50" oid="26F6EB3082654894925F2138E60BD67E" /><Stop Id="0198" routeId="29" nameZh="永定里二站 (永春東路)" seqNo="60" pgp="0" terminal="0" districtId="1" GoBack="1" latitude="24.1394" longitude="120.63002" inDis="50" outDis="50" oid="7942E78876A44704BCE0E25DB18E84C7" /><Stop Id="0338" routeId="29" nameZh="下新生里" seqNo="61" pgp="0" terminal="0" districtId="1" GoBack="1" latitude="24.14055" longitude="120.62669" inDis="50" outDis="50" oid="4E13F7C9838148A4916F5AAB085B2E9D" /><Stop Id="0910" routeId="29" nameZh="劉厝里" seqNo="62" pgp="0" terminal="0" districtId="1" GoBack="1" latitude="24.14028" longitude="120.62189" inDis="50" outDis="50" oid="370E6F33959949608A077C0076B14A83" /><Stop Id="0065" routeId="29" nameZh="春社里(永春路)" seqNo="63" pgp="0" terminal="0" districtId="1" GoBack="1" latitude="24.13895" longitude="120.61322" inDis="50" outDis="50" oid="0D0FF6365A3D4D26B849622BB8450D7A" /><Stop Id="3874" routeId="29" nameZh="嶺東高中" seqNo="64" pgp="0" terminal="0" districtId="1" GoBack="1" latitude="24.13851" longitude="120.61141" inDis="50" outDis="50" oid="7C771850A3814FF691E283A433E21890" /><Stop Id="5162" routeId="29" nameZh="嶺東科技大學(永春南路)" seqNo="65" pgp="0" terminal="0" districtId="1" GoBack="1" latitude="24.13859" longitude="120.60886" inDis="50" outDis="50" oid="68BF85D4CE04447087962CF1EEDACFB6" /><Stop Id="5796" routeId="29" nameZh="仁友停車場" seqNo="66" pgp="0" terminal="1" districtId="1" GoBack="1" latitude="24.13944" longitude="120.60071" inDis="50" outDis="50" oid="A490CA964B99488FBC1E672169B62DCA" /><Stop Id="5390" routeId="29" nameZh="臺中監獄" seqNo="67" pgp="0" terminal="0" districtId="1" GoBack="1" latitude="24.14226" longitude="120.59839" inDis="50" outDis="50" oid="312787249" /><Stop Id="5390" routeId="29" nameZh="臺中監獄" seqNo="1" pgp="0" terminal="0" districtId="1" GoBack="2" latitude="24.14226" longitude="120.59839" inDis="50" outDis="50" oid="312787249" /><Stop Id="5796" routeId="29" nameZh="仁友停車場" seqNo="2" pgp="0" terminal="0" districtId="1" GoBack="2" latitude="24.13934" longitude="120.60064" inDis="50" outDis="50" oid="2F114A133A1D429DB31169CA3ECD7362" /><Stop Id="5162" routeId="29" nameZh="嶺東科技大學(永春南路)" seqNo="3" pgp="0" terminal="0" districtId="1" GoBack="2" latitude="24.13851" longitude="120.60906" inDis="50" outDis="50" oid="A5BA82E1E5D84D6996CBC2459367C9A8" /><Stop Id="3874" routeId="29" nameZh="嶺東高中" seqNo="4" pgp="0" terminal="0" districtId="1" GoBack="2" latitude="24.13845" longitude="120.61125" inDis="50" outDis="50" oid="E6D16C784B3B456F8FABCF6F699855EF" /><Stop Id="0065" routeId="29" nameZh="春社里(永春路)" seqNo="5" pgp="0" terminal="0" districtId="1" GoBack="2" latitude="24.13881" longitude="120.61325" inDis="50" outDis="50" oid="9086D8C03BE04946A0344047494430D5" /><Stop Id="0910" routeId="29" nameZh="劉厝里" seqNo="6" pgp="0" terminal="0" districtId="1" GoBack="2" latitude="24.14011" longitude="120.62193" inDis="50" outDis="50" oid="222CC22F67F44892997C44E7C7A6C107" /><Stop Id="0338" routeId="29" nameZh="下新生里" seqNo="7" pgp="0" terminal="0" districtId="1" GoBack="2" latitude="24.14043" longitude="120.62653" inDis="50" outDis="50" oid="882DC746BC1F4085A73E6EB533F9E2AF" /><Stop Id="0198" routeId="29" nameZh="永定里二站 (永春東路)" seqNo="8" pgp="0" terminal="0" districtId="1" GoBack="2" latitude="24.13912" longitude="120.63023" inDis="50" outDis="50" oid="2B083B1FF1F34A4A860DB7CD6D831DB4" /><Stop Id="5463" routeId="29" nameZh="永定里(永春東路)" seqNo="9" pgp="0" terminal="0" districtId="1" GoBack="2" latitude="24.13759" longitude="120.6324" inDis="50" outDis="50" oid="27A0C6C53E0F4117BEBBAF1408766300" /><Stop Id="0695" routeId="29" nameZh="南屯國小" seqNo="10" pgp="0" terminal="0" districtId="1" GoBack="2" latitude="24.13653" longitude="120.63715" inDis="50" outDis="50" oid="A53D8F0F648F41058975D7151BC33EDF" /><Stop Id="5156" routeId="29" nameZh="黎明南屯路口" seqNo="11" pgp="0" terminal="0" districtId="1" GoBack="2" latitude="24.14033" longitude="120.6384" inDis="50" outDis="50" oid="13BD153B050C410691F522437BDE1CF2" /><Stop Id="4245" routeId="29" nameZh="黎明五權西路口" seqNo="12" pgp="0" terminal="0" districtId="1" GoBack="2" latitude="24.14405" longitude="120.63717" inDis="50" outDis="50" oid="610509112D264FA387E0B17CACE1495C" /><Stop Id="0060" routeId="29" nameZh="三厝里" seqNo="13" pgp="0" terminal="0" districtId="1" GoBack="2" latitude="24.14824" longitude="120.63577" inDis="50" outDis="50" oid="F346CE7F99184B04A815AA5D067B00B4" /><Stop Id="0059" routeId="29" nameZh="黎明公益路口" seqNo="14" pgp="0" terminal="0" districtId="1" GoBack="2" latitude="24.15054" longitude="120.63542" inDis="50" outDis="50" oid="13021635F45A40D381307C442C5ED39F" /><Stop Id="1410" routeId="29" nameZh="干城三站" seqNo="15" pgp="0" terminal="0" districtId="1" GoBack="2" latitude="24.15214" longitude="120.6315" inDis="50" outDis="50" oid="5D1C30F310434C9B815EF590DD5CDA19" /><Stop Id="0401" routeId="29" nameZh="干城二站" seqNo="16" pgp="0" terminal="0" districtId="1" GoBack="2" latitude="24.15255" longitude="120.62914" inDis="50" outDis="50" oid="5C85F41DC7D94553B9599A468057550F" /><Stop Id="0553" routeId="29" nameZh="幼稚園" seqNo="17" pgp="0" terminal="0" districtId="1" GoBack="2" latitude="24.15447" longitude="120.62869" inDis="50" outDis="50" oid="55CDE6585B104CD3A1DD3476CA6E1D65" /><Stop Id="4178" routeId="29" nameZh="干城一站" seqNo="18" pgp="0" terminal="0" districtId="1" GoBack="2" latitude="24.15551" longitude="120.63086" inDis="50" outDis="50" oid="220938618" /><Stop Id="0056" routeId="29" nameZh="黎明國小" seqNo="19" pgp="0" terminal="0" districtId="1" GoBack="2" latitude="24.15747" longitude="120.63425" inDis="50" outDis="50" oid="2554ACE141F943F7B1B66DAC3B12BF4B" /><Stop Id="5155" routeId="29" nameZh="黎明市政路口" seqNo="20" pgp="0" terminal="0" districtId="1" GoBack="2" latitude="24.16105" longitude="120.63384" inDis="50" outDis="50" oid="9BCEC551EC1B49D9A0077D6A24D66DC4" /><Stop Id="5748" routeId="29" nameZh="黎明龍門路口" seqNo="21" pgp="0" terminal="0" districtId="1" GoBack="2" latitude="24.16294" longitude="120.63392" inDis="50" outDis="50" oid="320349543" /><Stop Id="4645" routeId="29" nameZh="西屯區公所" seqNo="22" pgp="0" terminal="0" districtId="1" GoBack="2" latitude="24.16407" longitude="120.63434" inDis="50" outDis="50" oid="A77B25BE88E246F59109C2B97C9844AE" /><Stop Id="5158" routeId="29" nameZh="黎明環河路口" seqNo="23" pgp="0" terminal="0" districtId="1" GoBack="2" latitude="24.16768" longitude="120.63555" inDis="50" outDis="50" oid="627DA7DEFC4E451F9D86A7B79E6B9060" /><Stop Id="0013" routeId="29" nameZh="朝馬(黎明路)" seqNo="24" pgp="0" terminal="0" districtId="1" GoBack="2" latitude="24.17183" longitude="120.63692" inDis="50" outDis="50" oid="312005270" /><Stop Id="0238" routeId="29" nameZh="西屯郵局" seqNo="25" pgp="0" terminal="0" districtId="1" GoBack="2" latitude="24.17653" longitude="120.63751" inDis="50" outDis="50" oid="C0E54E3EC24E43A5AC88CEBFCD4D50A2" /><Stop Id="2175" routeId="29" nameZh="西屯派出所" seqNo="26" pgp="0" terminal="0" districtId="1" GoBack="2" latitude="24.18121" longitude="120.63827" inDis="50" outDis="50" oid="47FB2F46E03643D9BF0510B7EB72BBD2" /><Stop Id="2192" routeId="29" nameZh="西苑高中" seqNo="27" pgp="0" terminal="0" districtId="1" GoBack="2" latitude="24.18614" longitude="120.64024" inDis="50" outDis="50" oid="172E2CFA83284C46BCB36313BED409AA" /><Stop Id="4327" routeId="29" nameZh="僑光科技大學" seqNo="28" pgp="0" terminal="0" districtId="1" GoBack="2" latitude="24.18701" longitude="120.64428" inDis="50" outDis="50" oid="2379F33137B14AE1B8AA71C65C14E8C6" /><Stop Id="5658" routeId="29" nameZh="漢翔公司(星享道)" seqNo="29" pgp="0" terminal="0" districtId="1" GoBack="2" latitude="24.18573" longitude="120.64444" inDis="50" outDis="50" oid="84F48F2D039B42BBAAE604CFD60D59FD" /><Stop Id="4334" routeId="29" nameZh="福星西安街口" seqNo="30" pgp="0" terminal="0" districtId="1" GoBack="2" latitude="24.18152" longitude="120.64498" inDis="50" outDis="50" oid="1A128B277001405B8872AB68DEA0D29A" /><Stop Id="4586" routeId="29" nameZh="逢甲大學(福星路)" seqNo="31" pgp="0" terminal="0" districtId="1" GoBack="2" latitude="24.17923" longitude="120.64523" inDis="50" outDis="50" oid="B48CFF46B0BC41EB81D062A40C84DE6D" /><Stop Id="0361" routeId="29" nameZh="大魚池" seqNo="32" pgp="0" terminal="0" districtId="1" GoBack="2" latitude="24.1774" longitude="120.64263" inDis="50" outDis="50" oid="5DF40FE99E3045DCAA6FD6F18651865E" /><Stop Id="0337" routeId="29" nameZh="下湳仔" seqNo="33" pgp="0" terminal="0" districtId="1" GoBack="2" latitude="24.17644" longitude="120.64359" inDis="50" outDis="50" oid="6DE990F1D2B540A6BED0212EB631D9D8" /><Stop Id="0803" routeId="29" nameZh="頂湳仔" seqNo="34" pgp="0" terminal="0" districtId="1" GoBack="2" latitude="24.17439" longitude="120.64446" inDis="50" outDis="50" oid="57A72E1D3AA74ECDBFD5EDC5442F1625" /><Stop Id="4600" routeId="29" nameZh="西屯河南路口" seqNo="35" pgp="0" terminal="0" districtId="1" GoBack="2" latitude="24.17317" longitude="120.64494" inDis="50" outDis="50" oid="63F79CABE7B4455E93FEDCB736674ADB" /><Stop Id="0274" routeId="29" nameZh="西屯上石路口" seqNo="36" pgp="0" terminal="0" districtId="1" GoBack="2" latitude="24.17143" longitude="120.64638" inDis="50" outDis="50" oid="8372EAF7ACF143A8BAC65C96ABF92D6E" /><Stop Id="0273" routeId="29" nameZh="上石里" seqNo="37" pgp="0" terminal="0" districtId="1" GoBack="2" latitude="24.17064" longitude="120.64716" inDis="50" outDis="50" oid="2E7E9C093F444A3EA6B940985631EA7B" /><Stop Id="5711" routeId="29" nameZh="福星公園" seqNo="38" pgp="0" terminal="0" districtId="1" GoBack="2" latitude="24.17103" longitude="120.64909" inDis="50" outDis="50" oid="319989590" /><Stop Id="5710" routeId="29" nameZh="長安國小" seqNo="39" pgp="0" terminal="0" districtId="1" GoBack="2" latitude="24.16963" longitude="120.65229" inDis="50" outDis="50" oid="319989591" /><Stop Id="4271" routeId="29" nameZh="文心甘肅路口" seqNo="40" pgp="0" terminal="0" districtId="1" GoBack="2" latitude="24.16914" longitude="120.65579" inDis="50" outDis="50" oid="6B0BDAFAC8A74B9596A95614E7C7978C" /><Stop Id="4612" routeId="29" nameZh="文華高中(文心路)" seqNo="41" pgp="0" terminal="0" districtId="1" GoBack="2" latitude="24.17099" longitude="120.65936" inDis="50" outDis="50" oid="F6CFE40FB2854AD8BB9F5394B07BFC7A" /><Stop Id="4275" routeId="29" nameZh="文心河南路口" seqNo="42" pgp="0" terminal="0" districtId="1" GoBack="2" latitude="24.17149" longitude="120.66069" inDis="50" outDis="50" oid="12538" /><Stop Id="0230" routeId="29" nameZh="重慶國小" seqNo="43" pgp="0" terminal="0" districtId="1" GoBack="2" latitude="24.17237" longitude="120.66361" inDis="50" outDis="50" oid="BD5B1B29D7434306AD602144D1BFA0C0" /><Stop Id="0229" routeId="29" nameZh="臺灣日報" seqNo="44" pgp="0" terminal="0" districtId="1" GoBack="2" latitude="24.17287" longitude="120.6659" inDis="50" outDis="50" oid="69BD6D374CA64EAB8CA78AB4ECB7775F" /><Stop Id="0228" routeId="29" nameZh="文心陜西路口" seqNo="45" pgp="0" terminal="0" districtId="1" GoBack="2" latitude="24.17328" longitude="120.66853" inDis="50" outDis="50" oid="132F460AA9F648CB8FE997E923C18144" /><Stop Id="0805" routeId="29" nameZh="頂賴厝" seqNo="46" pgp="0" terminal="0" districtId="1" GoBack="2" latitude="24.17142" longitude="120.6719" inDis="50" outDis="50" oid="52E75B10FA734B6AACADE5A00D855822" /><Stop Id="1629" routeId="29" nameZh="天津路商圈" seqNo="47" pgp="0" terminal="0" districtId="1" GoBack="2" latitude="24.16994" longitude="120.67225" inDis="50" outDis="50" oid="A19B9A6531364F6685DE0857F44C0D1F" /><Stop Id="5737" routeId="29" nameZh="曉明女中(中清路)" seqNo="48" pgp="0" terminal="0" districtId="1" GoBack="2" latitude="24.16848" longitude="120.67301" inDis="50" outDis="50" oid="D9D687F3441047089A1DBE2E4A45BE75" /><Stop Id="5736" routeId="29" nameZh="中清漢口路口" seqNo="49" pgp="0" terminal="0" districtId="1" GoBack="2" latitude="24.1664" longitude="120.67347" inDis="50" outDis="50" oid="73712EB810AA4AF1BD959AA50D93F9DC" /><Stop Id="5735" routeId="29" nameZh="中清太原路口" seqNo="50" pgp="0" terminal="0" districtId="1" GoBack="2" latitude="24.16426" longitude="120.67415" inDis="50" outDis="50" oid="3477AB499B0D4407A83974C3F0009BAC" /><Stop Id="5734" routeId="29" nameZh="中清忠明路口" seqNo="51" pgp="0" terminal="0" districtId="1" GoBack="2" latitude="24.16197" longitude="120.67495" inDis="50" outDis="50" oid="50031BF7E50A403BA7FB5BDB7D4013C8" /><Stop Id="5733" routeId="29" nameZh="大道公廟(中清路)" seqNo="52" pgp="0" terminal="0" districtId="1" GoBack="2" latitude="24.1607" longitude="120.67535" inDis="50" outDis="50" oid="DA4D54CCB5B347D8B08428C46DEFEA25" /><Stop Id="5732" routeId="29" nameZh="中清健行路口" seqNo="53" pgp="0" terminal="0" districtId="1" GoBack="2" latitude="24.15858" longitude="120.67595" inDis="50" outDis="50" oid="DB2F80A9126048B4969E861879D30F33" /><Stop Id="0092" routeId="29" nameZh="邱厝里" seqNo="54" pgp="0" terminal="0" districtId="1" GoBack="2" latitude="24.15693" longitude="120.67647" inDis="50" outDis="50" oid="89BDD892CB634A4796872DAE9C48DADB" /><Stop Id="0481" routeId="29" nameZh="文莊里" seqNo="55" pgp="0" terminal="0" districtId="1" GoBack="2" latitude="24.15512" longitude="120.67701" inDis="50" outDis="50" oid="D1625430E2FB4CAD9229BA1A9E1D7C7A" /><Stop Id="0503" routeId="29" nameZh="臺中二中" seqNo="56" pgp="0" terminal="0" districtId="1" GoBack="2" latitude="24.1525" longitude="120.67732" inDis="50" outDis="50" oid="50A0F1E82A7A4FBAA3459BA924303F8E" /><Stop Id="0145" routeId="29" nameZh="光大里" seqNo="57" pgp="0" terminal="0" districtId="1" GoBack="2" latitude="24.15182" longitude="120.67869" inDis="50" outDis="50" oid="E392A9137414456698451650442C6434" /><Stop Id="0146" routeId="29" nameZh="五常里" seqNo="58" pgp="0" terminal="0" districtId="1" GoBack="2" latitude="24.15236" longitude="120.6802" inDis="50" outDis="50" oid="E669B3A3AE67438C9D1786D6868D707A" /><Stop Id="3772" routeId="29" nameZh="五權學士路口" seqNo="59" pgp="0" terminal="0" districtId="1" GoBack="2" latitude="24.15362" longitude="120.68396" inDis="50" outDis="50" oid="EDEE10B457394C8994A50D4C9B8FDA01" /><Stop Id="0047" routeId="29" nameZh="一心市場" seqNo="60" pgp="0" terminal="0" districtId="1" GoBack="2" latitude="24.15387" longitude="120.68569" inDis="50" outDis="50" oid="DF1A51390194405988042B81DA44A50F" /><Stop Id="0046" routeId="29" nameZh="中友百貨" seqNo="61" pgp="0" terminal="0" districtId="1" GoBack="2" latitude="24.15123" longitude="120.68464" inDis="50" outDis="50" oid="8A072B417C0A423C9AB95348181DCA18" /><Stop Id="0045" routeId="29" nameZh="國立臺中科技大學" seqNo="62" pgp="0" terminal="0" districtId="1" GoBack="2" latitude="24.14926" longitude="120.68377" inDis="50" outDis="50" oid="1246622E597544228259C4E7B971FA1C" /><Stop Id="4543" routeId="29" nameZh="臺中公園(三民路)" seqNo="63" pgp="0" terminal="0" districtId="1" GoBack="2" latitude="24.1456" longitude="120.68226" inDis="50" outDis="50" oid="92932D6B978945F78B7FCB8A273AC0AF" /><Stop Id="5670" routeId="29" nameZh="公園自由路口" seqNo="64" pgp="0" terminal="0" districtId="1" GoBack="2" latitude="24.14266" longitude="120.68391" inDis="50" outDis="50" oid="0C52D3825CBE4E0EB12890BEE2862FE2" /><Stop Id="0402" routeId="29" nameZh="干城站" seqNo="65" pgp="0" terminal="0" districtId="1" GoBack="2" latitude="24.14124" longitude="120.68568" inDis="50" outDis="50" oid="0131F2B604D5433DB522653183D2CEF5" /><Stop Id="0443" routeId="29" nameZh="仁友東站" seqNo="66" pgp="0" terminal="0" districtId="1" GoBack="2" latitude="24.13909" longitude="120.68447" inDis="50" outDis="50" oid="FB373464ABA3480C949E5B521A33D270" /></BusInfo></BusDynInfo>