[
  {
    "type": "Feature",
    "geometry": {
      "type": "Point",
      "coordinates": [
        120.56683,
        24.24375
      ]
    },
    "properties": {
      "id": "4516",
      "name": "鹿寮國中(光華路)",
      "seq": 1
    }
  },
  {
    "type": "Feature",
    "geometry": {
      "type": "Point",
      "coordinates": [
        120.57949,
        24.22098
      ]
    },
    "properties": {
      "id": "4111",
      "name": "晉江里",
      "seq": 10
    }
  },
  {
    "type": "Feature",
    "geometry": {
      "type": "Point",
      "coordinates": [
        120.58041,
        24.21735
      ]
    },
    "properties": {
      "id": "4386",
      "name": "弘光科技大學",
      "seq": 11
    }
  },
  {
    "type": "Feature",
    "geometry": {
      "type": "Point",
      "coordinates": [
        120.58079,
        24.21365
      ]
    },
    "properties": {
      "id": "4124",
      "name": "頂六路",
      "seq": 12
    }
  },
  {
    "type": "Feature",
    "geometry": {
      "type": "Point",
      "coordinates": [
        120.58123,
        24.20914
      ]
    },
    "properties": {
      "id": "4136",
      "name": "祿清宮",
      "seq": 13
    }
  },
  {
    "type": "Feature",
    "geometry": {
      "type": "Point",
      "coordinates": [
        120.58048,
        24.1992
      ]
    },
    "properties": {
      "id": "4388",
      "name": "后厝仔",
      "seq": 14
    }
  },
  {
    "type": "Feature",
    "geometry": {
      "type": "Point",
      "coordinates": [
        120.5829,
        24.18717
      ]
    },
    "properties": {
      "id": "4061",
      "name": "下坪頂",
      "seq": 15
    }
  },
  {
    "type": "Feature",
    "geometry": {
      "type": "Point",
      "coordinates": [
        120.58613,
        24.1858
      ]
    },
    "properties": {
      "id": "2325",
      "name": "坪頂",
      "seq": 16
    }
  },
  {
    "type": "Feature",
    "geometry": {
      "type": "Point",
      "coordinates": [
        120.58844,
        24.1848
      ]
    },
    "properties": {
      "id": "5304",
      "name": "東海街口",
      "seq": 17
    }
  },
  {
    "type": "Feature",
    "geometry": {
      "type": "Point",
      "coordinates": [
        120.59128,
        24.1838
      ]
    },
    "properties": {
      "id": "4383",
      "name": "台糖公營學苑",
      "seq": 18
    }
  },
  {
    "type": "Feature",
    "geometry": {
      "type": "Point",
      "coordinates": [
        120.5944,
        24.1823
      ]
    },
    "properties": {
      "id": "0240",
      "name": "東海別墅",
      "seq": 19
    }
  },
  {
    "type": "Feature",
    "geometry": {
      "type": "Point",
      "coordinates": [
        120.565,
        24.2414
      ]
    },
    "properties": {
      "id": "0409",
      "name": "光華成功東街口",
      "seq": 2
    }
  },
  {
    "type": "Feature",
    "geometry": {
      "type": "Point",
      "coordinates": [
        120.5973,
        24.18183
      ]
    },
    "properties": {
      "id": "0526",
      "name": "台中精機",
      "seq": 20
    }
  },
  {
    "type": "Feature",
    "geometry": {
      "type": "Point",
      "coordinates": [
        120.60272,
        24.18332
      ]
    },
    "properties": {
      "id": "0884",
      "name": "臺中榮總(東大路)",
      "seq": 21
    }
  },
  {
    "type": "Feature",
    "geometry": {
      "type": "Point",
      "coordinates": [
        120.60433,
        24.18674
      ]
    },
    "properties": {
      "id": "5258",
      "name": "瑞聯天地(東大路)",
      "seq": 22
    }
  },
  {
    "type": "Feature",
    "geometry": {
      "type": "Point",
      "coordinates": [
        120.60698,
        24.18737
      ]
    },
    "properties": {
      "id": "3495",
      "name": "瑞聯天地(福科路)",
      "seq": 23
    }
  },
  {
    "type": "Feature",
    "geometry": {
      "type": "Point",
      "coordinates": [
        120.60932,
        24.1871
      ]
    },
    "properties": {
      "id": "3647",
      "name": "福科玉門路口",
      "seq": 24
    }
  },
  {
    "type": "Feature",
    "geometry": {
      "type": "Point",
      "coordinates": [
        120.61408,
        24.18674
      ]
    },
    "properties": {
      "id": "5316",
      "name": "福科福林路口",
      "seq": 25
    }
  },
  {
    "type": "Feature",
    "geometry": {
      "type": "Point",
      "coordinates": [
        120.61792,
        24.18526
      ]
    },
    "properties": {
      "id": "5263",
      "name": "福科福雅路口",
      "seq": 27
    }
  },
  {
    "type": "Feature",
    "geometry": {
      "type": "Point",
      "coordinates": [
        120.62096,
        24.18382
      ]
    },
    "properties": {
      "id": "0053",
      "name": "福科永福路口",
      "seq": 28
    }
  },
  {
    "type": "Feature",
    "geometry": {
      "type": "Point",
      "coordinates": [
        120.62466,
        24.18224
      ]
    },
    "properties": {
      "id": "0010",
      "name": "福科安和路口",
      "seq": 29
    }
  },
  {
    "type": "Feature",
    "geometry": {
      "type": "Point",
      "coordinates": [
        120.56527,
        24.23937
      ]
    },
    "properties": {
      "id": "0005",
      "name": "沙鹿高工(臺灣大道)",
      "seq": 3
    }
  },
  {
    "type": "Feature",
    "geometry": {
      "type": "Point",
      "coordinates": [
        120.62665,
        24.18132
      ]
    },
    "properties": {
      "id": "0286",
      "name": "福科福裕路口",
      "seq": 30
    }
  },
  {
    "type": "Feature",
    "geometry": {
      "type": "Point",
      "coordinates": [
        120.63655,
        24.17924
      ]
    },
    "properties": {
      "id": "4649",
      "name": "福科環中路口",
      "seq": 31
    }
  },
  {
    "type": "Feature",
    "geometry": {
      "type": "Point",
      "coordinates": [
        120.63741,
        24.17695
      ]
    },
    "properties": {
      "id": "0238",
      "name": "西屯郵局",
      "seq": 32
    }
  },
  {
    "type": "Feature",
    "geometry": {
      "type": "Point",
      "coordinates": [
        120.6389,
        24.17491
      ]
    },
    "properties": {
      "id": "4616",
      "name": "青海光明路口",
      "seq": 33
    }
  },
  {
    "type": "Feature",
    "geometry": {
      "type": "Point",
      "coordinates": [
        120.64017,
        24.17556
      ]
    },
    "properties": {
      "id": "5657",
      "name": "至善國中(逢甲路)",
      "seq": 34
    }
  },
  {
    "type": "Feature",
    "geometry": {
      "type": "Point",
      "coordinates": [
        120.64415,
        24.1787
      ]
    },
    "properties": {
      "id": "4585",
      "name": "逢甲大學(逢甲路)",
      "seq": 35
    }
  },
  {
    "type": "Feature",
    "geometry": {
      "type": "Point",
      "coordinates": [
        120.64601,
        24.17548
      ]
    },
    "properties": {
      "id": "0112",
      "name": "福星停車場",
      "seq": 36
    }
  },
  {
    "type": "Feature",
    "geometry": {
      "type": "Point",
      "coordinates": [
        120.6494,
        24.17516
      ]
    },
    "properties": {
      "id": "4333",
      "name": "河南福星路口",
      "seq": 37
    }
  },
  {
    "type": "Feature",
    "geometry": {
      "type": "Point",
      "coordinates": [
        120.65313,
        24.17613
      ]
    },
    "properties": {
      "id": "0234",
      "name": "河南停車場",
      "seq": 38
    }
  },
  {
    "type": "Feature",
    "geometry": {
      "type": "Point",
      "coordinates": [
        120.65814,
        24.17613
      ]
    },
    "properties": {
      "id": "0233",
      "name": "家扶發展學園",
      "seq": 39
    }
  },
  {
    "type": "Feature",
    "geometry": {
      "type": "Point",
      "coordinates": [
        120.56765,
        24.23829
      ]
    },
    "properties": {
      "id": "2147",
      "name": "竹林國小",
      "seq": 4
    }
  },
  {
    "type": "Feature",
    "geometry": {
      "type": "Point",
      "coordinates": [
        120.65957,
        24.17525
      ]
    },
    "properties": {
      "id": "4159",
      "name": "河南福上巷口",
      "seq": 40
    }
  },
  {
    "type": "Feature",
    "geometry": {
      "type": "Point",
      "coordinates": [
        120.66055,
        24.17279
      ]
    },
    "properties": {
      "id": "4332",
      "name": "河南長安路口",
      "seq": 41
    }
  },
  {
    "type": "Feature",
    "geometry": {
      "type": "Point",
      "coordinates": [
        120.66367,
        24.17231
      ]
    },
    "properties": {
      "id": "0230",
      "name": "重慶國小",
      "seq": 42
    }
  },
  {
    "type": "Feature",
    "geometry": {
      "type": "Point",
      "coordinates": [
        120.66594,
        24.17284
      ]
    },
    "properties": {
      "id": "0229",
      "name": "臺灣日報",
      "seq": 43
    }
  },
  {
    "type": "Feature",
    "geometry": {
      "type": "Point",
      "coordinates": [
        120.66853,
        24.17328
      ]
    },
    "properties": {
      "id": "4355",
      "name": "文心陜西路口",
      "seq": 44
    }
  },
  {
    "type": "Feature",
    "geometry": {
      "type": "Point",
      "coordinates": [
        120.67201,
        24.17386
      ]
    },
    "properties": {
      "id": "4265",
      "name": "文心中清路口",
      "seq": 45
    }
  },
  {
    "type": "Feature",
    "geometry": {
      "type": "Point",
      "coordinates": [
        120.6745,
        24.17373
      ]
    },
    "properties": {
      "id": "4276",
      "name": "文心青島東街口",
      "seq": 46
    }
  },
  {
    "type": "Feature",
    "geometry": {
      "type": "Point",
      "coordinates": [
        120.67587,
        24.17338
      ]
    },
    "properties": {
      "id": "4277",
      "name": "文心山西路口",
      "seq": 47
    }
  },
  {
    "type": "Feature",
    "geometry": {
      "type": "Point",
      "coordinates": [
        120.67906,
        24.1729
      ]
    },
    "properties": {
      "id": "4280",
      "name": "文心梅川西路口",
      "seq": 48
    }
  },
  {
    "type": "Feature",
    "geometry": {
      "type": "Point",
      "coordinates": [
        120.68259,
        24.17234
      ]
    },
    "properties": {
      "id": "0224",
      "name": "文心國小",
      "seq": 49
    }
  },
  {
    "type": "Feature",
    "geometry": {
      "type": "Point",
      "coordinates": [
        120.56994,
        24.23632
      ]
    },
    "properties": {
      "id": "4389",
      "name": "竹林里",
      "seq": 5
    }
  },
  {
    "type": "Feature",
    "geometry": {
      "type": "Point",
      "coordinates": [
        120.68574,
        24.17209
      ]
    },
    "properties": {
      "id": "4279",
      "name": "文心崇德路口",
      "seq": 50
    }
  },
  {
    "type": "Feature",
    "geometry": {
      "type": "Point",
      "coordinates": [
        120.68784,
        24.17186
      ]
    },
    "properties": {
      "id": "4283",
      "name": "文心熱河路口",
      "seq": 51
    }
  },
  {
    "type": "Feature",
    "geometry": {
      "type": "Point",
      "coordinates": [
        120.69192,
        24.17132
      ]
    },
    "properties": {
      "id": "4274",
      "name": "文心昌平路口",
      "seq": 52
    }
  },
  {
    "type": "Feature",
    "geometry": {
      "type": "Point",
      "coordinates": [
        120.69465,
        24.17095
      ]
    },
    "properties": {
      "id": "5780",
      "name": "文心興安路口",
      "seq": 53
    }
  },
  {
    "type": "Feature",
    "geometry": {
      "type": "Point",
      "coordinates": [
        120.69699,
        24.17072
      ]
    },
    "properties": {
      "id": "0102",
      "name": "四維國小",
      "seq": 54
    }
  },
  {
    "type": "Feature",
    "geometry": {
      "type": "Point",
      "coordinates": [
        120.69884,
        24.17026
      ]
    },
    "properties": {
      "id": "0222",
      "name": "聯安醫院",
      "seq": 55
    }
  },
  {
    "type": "Feature",
    "geometry": {
      "type": "Point",
      "coordinates": [
        120.70294,
        24.16966
      ]
    },
    "properties": {
      "id": "4312",
      "name": "東光國小",
      "seq": 56
    }
  },
  {
    "type": "Feature",
    "geometry": {
      "type": "Point",
      "coordinates": [
        120.70454,
        24.1695
      ]
    },
    "properties": {
      "id": "0457",
      "name": "東山旱溪西路口",
      "seq": 57
    }
  },
  {
    "type": "Feature",
    "geometry": {
      "type": "Point",
      "coordinates": [
        120.70688,
        24.16725
      ]
    },
    "properties": {
      "id": "4319",
      "name": "三甲公園",
      "seq": 58
    }
  },
  {
    "type": "Feature",
    "geometry": {
      "type": "Point",
      "coordinates": [
        120.70941,
        24.16728
      ]
    },
    "properties": {
      "id": "5105",
      "name": "景賢八路口",
      "seq": 59
    }
  },
  {
    "type": "Feature",
    "geometry": {
      "type": "Point",
      "coordinates": [
        120.57129,
        24.2342
      ]
    },
    "properties": {
      "id": "4392",
      "name": "紅竹巷",
      "seq": 6
    }
  },
  {
    "type": "Feature",
    "geometry": {
      "type": "Point",
      "coordinates": [
        120.71185,
        24.16594
      ]
    },
    "properties": {
      "id": "6034",
      "name": "東山高中(景賢六路)",
      "seq": 60
    }
  },
  {
    "type": "Feature",
    "geometry": {
      "type": "Point",
      "coordinates": [
        120.70645,
        24.16481
      ]
    },
    "properties": {
      "id": "0470",
      "name": "太原二號橋",
      "seq": 61
    }
  },
  {
    "type": "Feature",
    "geometry": {
      "type": "Point",
      "coordinates": [
        120.70349,
        24.16498
      ]
    },
    "properties": {
      "id": "0218",
      "name": "三川福德祠",
      "seq": 62
    }
  },
  {
    "type": "Feature",
    "geometry": {
      "type": "Point",
      "coordinates": [
        120.70037,
        24.16679
      ]
    },
    "properties": {
      "id": "4351",
      "name": "太原火車站",
      "seq": 63
    }
  },
  {
    "type": "Feature",
    "geometry": {
      "type": "Point",
      "coordinates": [
        120.70253,
        24.16484
      ]
    },
    "properties": {
      "id": "0218",
      "name": "三川福德祠",
      "seq": 64
    }
  },
  {
    "type": "Feature",
    "geometry": {
      "type": "Point",
      "coordinates": [
        120.70621,
        24.16468
      ]
    },
    "properties": {
      "id": "0470",
      "name": "太原二號橋",
      "seq": 65
    }
  },
  {
    "type": "Feature",
    "geometry": {
      "type": "Point",
      "coordinates": [
        120.71181,
        24.16571
      ]
    },
    "properties": {
      "id": "6034",
      "name": "東山高中(景賢六路)",
      "seq": 66
    }
  },
  {
    "type": "Feature",
    "geometry": {
      "type": "Point",
      "coordinates": [
        120.7096,
        24.16725
      ]
    },
    "properties": {
      "id": "5105",
      "name": "景賢八路口",
      "seq": 67
    }
  },
  {
    "type": "Feature",
    "geometry": {
      "type": "Point",
      "coordinates": [
        120.70711,
        24.16712
      ]
    },
    "properties": {
      "id": "4319",
      "name": "三甲公園",
      "seq": 68
    }
  },
  {
    "type": "Feature",
    "geometry": {
      "type": "Point",
      "coordinates": [
        120.70674,
        24.16963
      ]
    },
    "properties": {
      "id": "0679",
      "name": "玫瑰新村",
      "seq": 69
    }
  },
  {
    "type": "Feature",
    "geometry": {
      "type": "Point",
      "coordinates": [
        120.57331,
        24.23102
      ]
    },
    "properties": {
      "id": "4086",
      "name": "臺灣大道北勢路口",
      "seq": 7
    }
  },
  {
    "type": "Feature",
    "geometry": {
      "type": "Point",
      "coordinates": [
        120.7084,
        24.17044
      ]
    },
    "properties": {
      "id": "0484",
      "name": "水景里",
      "seq": 70
    }
  },
  {
    "type": "Feature",
    "geometry": {
      "type": "Point",
      "coordinates": [
        120.70955,
        24.17127
      ]
    },
    "properties": {
      "id": "0325",
      "name": "三和社區",
      "seq": 71
    }
  },
  {
    "type": "Feature",
    "geometry": {
      "type": "Point",
      "coordinates": [
        120.71108,
        24.17209
      ]
    },
    "properties": {
      "id": "0485",
      "name": "水景頭",
      "seq": 72
    }
  },
  {
    "type": "Feature",
    "geometry": {
      "type": "Point",
      "coordinates": [
        120.71445,
        24.17382
      ]
    },
    "properties": {
      "id": "0365",
      "name": "大華新村",
      "seq": 73
    }
  },
  {
    "type": "Feature",
    "geometry": {
      "type": "Point",
      "coordinates": [
        120.71736,
        24.17545
      ]
    },
    "properties": {
      "id": "0703",
      "name": "建功國小",
      "seq": 74
    }
  },
  {
    "type": "Feature",
    "geometry": {
      "type": "Point",
      "coordinates": [
        120.71971,
        24.17584
      ]
    },
    "properties": {
      "id": "0727",
      "name": "軍功里",
      "seq": 75
    }
  },
  {
    "type": "Feature",
    "geometry": {
      "type": "Point",
      "coordinates": [
        120.72223,
        24.176
      ]
    },
    "properties": {
      "id": "4592",
      "name": "和平里(東山路)",
      "seq": 76
    }
  },
  {
    "type": "Feature",
    "geometry": {
      "type": "Point",
      "coordinates": [
        120.72452,
        24.17611
      ]
    },
    "properties": {
      "id": "0687",
      "name": "長興塑膠",
      "seq": 77
    }
  },
  {
    "type": "Feature",
    "geometry": {
      "type": "Point",
      "coordinates": [
        120.72696,
        24.17649
      ]
    },
    "properties": {
      "id": "0555",
      "name": "正覺寺",
      "seq": 78
    }
  },
  {
    "type": "Feature",
    "geometry": {
      "type": "Point",
      "coordinates": [
        120.73185,
        24.17701
      ]
    },
    "properties": {
      "id": "0854",
      "name": "圓山新村",
      "seq": 79
    }
  },
  {
    "type": "Feature",
    "geometry": {
      "type": "Point",
      "coordinates": [
        120.5771,
        24.22495
      ]
    },
    "properties": {
      "id": "4147",
      "name": "靜宜大學",
      "seq": 8
    }
  },
  {
    "type": "Feature",
    "geometry": {
      "type": "Point",
      "coordinates": [
        120.73469,
        24.17711
      ]
    },
    "properties": {
      "id": "0534",
      "name": "台電東山所",
      "seq": 80
    }
  },
  {
    "type": "Feature",
    "geometry": {
      "type": "Point",
      "coordinates": [
        120.73564,
        24.17768
      ]
    },
    "properties": {
      "id": "0768",
      "name": "梨仔園",
      "seq": 81
    }
  },
  {
    "type": "Feature",
    "geometry": {
      "type": "Point",
      "coordinates": [
        120.73726,
        24.17838
      ]
    },
    "properties": {
      "id": "0784",
      "name": "逢甲橋",
      "seq": 82
    }
  },
  {
    "type": "Feature",
    "geometry": {
      "type": "Point",
      "coordinates": [
        120.73934,
        24.17875
      ]
    },
    "properties": {
      "id": "0350",
      "name": "大坑圓環",
      "seq": 83
    }
  },
  {
    "type": "Feature",
    "geometry": {
      "type": "Point",
      "coordinates": [
        120.73953,
        24.17771
      ]
    },
    "properties": {
      "id": "0351",
      "name": "大坑橋",
      "seq": 84
    }
  },
  {
    "type": "Feature",
    "geometry": {
      "type": "Point",
      "coordinates": [
        120.73811,
        24.17617
      ]
    },
    "properties": {
      "id": "0917",
      "name": "樂達利山莊",
      "seq": 85
    }
  },
  {
    "type": "Feature",
    "geometry": {
      "type": "Point",
      "coordinates": [
        120.73549,
        24.17421
      ]
    },
    "properties": {
      "id": "6019",
      "name": "中臺科技大學校區",
      "seq": 86
    }
  },
  {
    "type": "Feature",
    "geometry": {
      "type": "Point",
      "coordinates": [
        120.57809,
        24.22357
      ]
    },
    "properties": {
      "id": "4062",
      "name": "下晉江",
      "seq": 9
    }
  }
]
