<?xml version="1.0" encoding="UTF-8" standalone="yes"?>
<BusDynInfo><EssentialInfo><Location><name>TCBUS</name><CenterName>Maxwin</CenterName></Location><UpdateTime>2014-12-20 08:35:50</UpdateTime><CoordinateSystem/></EssentialInfo>
<BusInfo><Stop Id="1824" routeId="288" nameZh="臺中火車站" seqNo="1" pgp="0" terminal="0" districtId="1" GoBack="1" latitude="24.13663" longitude="120.68387" inDis="50" outDis="170" oid="5545" /><Stop Id="0183" routeId="288" nameZh="臺中家商" seqNo="2" pgp="0" terminal="0" districtId="1" GoBack="1" latitude="24.13473" longitude="120.68367" inDis="50" outDis="50" oid="6337" /><Stop Id="0184" routeId="288" nameZh="後火車站" seqNo="3" pgp="0" terminal="0" districtId="1" GoBack="1" latitude="24.1358" longitude="120.68629" inDis="50" outDis="50" oid="6022" /><Stop Id="0185" routeId="288" nameZh="新時代購物中心" seqNo="4" pgp="0" terminal="0" districtId="1" GoBack="1" latitude="24.13597" longitude="120.68804" inDis="50" outDis="50" oid="9BA00BD0B58B41F6A5888BA89C541E51" /><Stop Id="0186" routeId="288" nameZh="大智忠孝路口" seqNo="5" pgp="0" terminal="0" districtId="1" GoBack="1" latitude="24.1325" longitude="120.68984" inDis="50" outDis="50" oid="5850" /><Stop Id="4362" routeId="288" nameZh="建成大振街口" seqNo="6" pgp="0" terminal="0" districtId="1" GoBack="1" latitude="24.13251" longitude="120.69233" inDis="50" outDis="50" oid="AE8C3775B4774AB188B1DA065EC4EBC4" /><Stop Id="4654" routeId="288" nameZh="大東紡織(振興路)" seqNo="7" pgp="0" terminal="0" districtId="1" GoBack="1" latitude="24.13289" longitude="120.69403" inDis="50" outDis="50" oid="5235" /><Stop Id="3617" routeId="288" nameZh="漢聲電臺" seqNo="8" pgp="0" terminal="0" districtId="1" GoBack="1" latitude="24.13303" longitude="120.69636" inDis="50" outDis="50" oid="6536" /><Stop Id="0190" routeId="288" nameZh="東門橋" seqNo="9" pgp="0" terminal="0" districtId="1" GoBack="1" latitude="24.13315" longitude="120.6981" inDis="50" outDis="50" oid="5886" /><Stop Id="2236" routeId="288" nameZh="旱溪" seqNo="10" pgp="0" terminal="0" districtId="1" GoBack="1" latitude="24.13143" longitude="120.70261" inDis="50" outDis="50" oid="5786" /><Stop Id="1642" routeId="288" nameZh="太平橋前" seqNo="11" pgp="0" terminal="0" districtId="1" GoBack="1" latitude="24.13024" longitude="120.70528" inDis="50" outDis="50" oid="5444" /><Stop Id="1185" routeId="288" nameZh="下部仔" seqNo="12" pgp="0" terminal="0" districtId="1" GoBack="1" latitude="24.1281" longitude="120.70883" inDis="50" outDis="50" oid="5142" /><Stop Id="4218" routeId="288" nameZh="中油太平站" seqNo="13" pgp="0" terminal="0" districtId="1" GoBack="1" latitude="24.12709" longitude="120.71057" inDis="50" outDis="50" oid="5509" /><Stop Id="1128" routeId="288" nameZh="下太平" seqNo="14" pgp="0" terminal="0" districtId="1" GoBack="1" latitude="24.12594" longitude="120.71239" inDis="50" outDis="50" oid="5110" /><Stop Id="1427" routeId="288" nameZh="中太平" seqNo="15" pgp="0" terminal="0" districtId="1" GoBack="1" latitude="24.12722" longitude="120.71578" inDis="50" outDis="50" oid="5311" /><Stop Id="4220" routeId="288" nameZh="太平國小" seqNo="16" pgp="0" terminal="0" districtId="1" GoBack="1" latitude="24.12805" longitude="120.71705" inDis="50" outDis="50" oid="5439" /><Stop Id="4716" routeId="288" nameZh="新平永平路口" seqNo="17" pgp="0" terminal="0" districtId="1" GoBack="1" latitude="24.13163" longitude="120.7168" inDis="50" outDis="50" oid="306250856" /><Stop Id="4717" routeId="288" nameZh="崇正寶宮" seqNo="18" pgp="0" terminal="0" districtId="1" GoBack="1" latitude="24.13364" longitude="120.71864" inDis="50" outDis="50" oid="306250858" /><Stop Id="4718" routeId="288" nameZh="東平中平路口" seqNo="19" pgp="0" terminal="0" districtId="1" GoBack="1" latitude="24.13376" longitude="120.72104" inDis="50" outDis="50" oid="306376948" /><Stop Id="4667" routeId="288" nameZh="東平國小(東平路)" seqNo="20" pgp="0" terminal="0" districtId="1" GoBack="1" latitude="24.1338" longitude="120.72273" inDis="50" outDis="50" oid="5883" /><Stop Id="1056" routeId="288" nameZh="三叉" seqNo="21" pgp="0" terminal="0" districtId="1" GoBack="1" latitude="24.13386" longitude="120.72418" inDis="50" outDis="50" oid="5064" /><Stop Id="1508" routeId="288" nameZh="東平中興東路口" seqNo="22" pgp="0" terminal="0" districtId="1" GoBack="1" latitude="24.13407" longitude="120.72623" inDis="50" outDis="50" oid="5354" /><Stop Id="3088" routeId="288" nameZh="頂三叉" seqNo="23" pgp="0" terminal="0" districtId="1" GoBack="1" latitude="24.13468" longitude="120.72863" inDis="50" outDis="50" oid="6278" /><Stop Id="1396" routeId="288" nameZh="山腳" seqNo="24" pgp="0" terminal="0" districtId="1" GoBack="1" latitude="24.13475" longitude="120.7317" inDis="50" outDis="50" oid="5292" /><Stop Id="0977" routeId="288" nameZh="一江橋" seqNo="25" pgp="0" terminal="0" districtId="1" GoBack="1" latitude="24.13352" longitude="120.73561" inDis="50" outDis="50" oid="5730" /><Stop Id="5259" routeId="288" nameZh="腦館(長龍路)" seqNo="26" pgp="0" terminal="0" districtId="1" GoBack="1" latitude="24.13102" longitude="120.73919" inDis="50" outDis="50" oid="310787826" /><Stop Id="3677" routeId="288" nameZh="福嚴寺" seqNo="27" pgp="0" terminal="0" districtId="1" GoBack="1" latitude="24.13101" longitude="120.74155" inDis="50" outDis="50" oid="6569" /><Stop Id="2731" routeId="288" nameZh="香蕉市場" seqNo="28" pgp="0" terminal="0" districtId="1" GoBack="1" latitude="24.13078" longitude="120.74455" inDis="50" outDis="50" oid="6084" /><Stop Id="1569" routeId="288" nameZh="內城橋" seqNo="29" pgp="0" terminal="0" districtId="1" GoBack="1" latitude="24.12654" longitude="120.74783" inDis="50" outDis="50" oid="5389" /><Stop Id="3827" routeId="288" nameZh="頭汴坑" seqNo="30" pgp="0" terminal="0" districtId="1" GoBack="1" latitude="24.12462" longitude="120.74906" inDis="50" outDis="50" oid="6640" /><Stop Id="3830" routeId="288" nameZh="頭汴國小" seqNo="31" pgp="0" terminal="0" districtId="1" GoBack="1" latitude="24.12314" longitude="120.75052" inDis="50" outDis="50" oid="6643" /><Stop Id="3179" routeId="288" nameZh="頂頭汴坑" seqNo="32" pgp="0" terminal="0" districtId="1" GoBack="1" latitude="24.12213" longitude="120.75138" inDis="50" outDis="50" oid="6316" /><Stop Id="3861" routeId="288" nameZh="龍眼腳" seqNo="34" pgp="0" terminal="0" districtId="1" GoBack="1" latitude="24.11995" longitude="120.757" inDis="50" outDis="50" oid="6659" /><Stop Id="2538" routeId="288" nameZh="長龍吊橋" seqNo="35" pgp="0" terminal="0" districtId="1" GoBack="1" latitude="24.11763" longitude="120.75857" inDis="50" outDis="50" oid="5964" /><Stop Id="3641" routeId="288" nameZh="福利社" seqNo="36" pgp="0" terminal="0" districtId="1" GoBack="1" latitude="24.11509" longitude="120.76243" inDis="50" outDis="50" oid="6547" /><Stop Id="2076" routeId="288" nameZh="吊橋頭" seqNo="37" pgp="0" terminal="0" districtId="1" GoBack="1" latitude="24.11296" longitude="120.76286" inDis="50" outDis="50" oid="5702" /><Stop Id="1101" routeId="288" nameZh="三號橋" seqNo="38" pgp="0" terminal="0" districtId="1" GoBack="1" latitude="24.10992" longitude="120.76489" inDis="50" outDis="50" oid="5094" /><Stop Id="5251" routeId="288" nameZh="草嶺橋" seqNo="39" pgp="0" terminal="0" districtId="1" GoBack="1" latitude="24.10671" longitude="120.76612" inDis="50" outDis="50" oid="310787810" /><Stop Id="5290" routeId="288" nameZh="佛恩寺" seqNo="40" pgp="0" terminal="0" districtId="1" GoBack="1" latitude="24.10442" longitude="120.76944" inDis="50" outDis="50" oid="311033697" /><Stop Id="4204" routeId="288" nameZh="土地公崁" seqNo="41" pgp="0" terminal="0" districtId="1" GoBack="1" latitude="24.10297" longitude="120.77255" inDis="50" outDis="50" oid="12289" /><Stop Id="1189" routeId="288" nameZh="下湖" seqNo="42" pgp="0" terminal="0" districtId="1" GoBack="1" latitude="24.10311" longitude="120.77432" inDis="50" outDis="50" oid="5147" /><Stop Id="1853" routeId="288" nameZh="四號橋" seqNo="43" pgp="0" terminal="0" districtId="1" GoBack="1" latitude="24.10419" longitude="120.77481" inDis="50" outDis="50" oid="5580" /><Stop Id="3028" routeId="288" nameZh="清涼寺" seqNo="44" pgp="0" terminal="0" districtId="1" GoBack="1" latitude="24.10591" longitude="120.77677" inDis="50" outDis="50" oid="6235" /><Stop Id="1749" routeId="288" nameZh="仙子洞" seqNo="45" pgp="0" terminal="0" districtId="1" GoBack="1" latitude="24.10716" longitude="120.77842" inDis="50" outDis="50" oid="5505" /><Stop Id="1541" routeId="288" nameZh="五號橋" seqNo="46" pgp="0" terminal="0" districtId="1" GoBack="1" latitude="24.10863" longitude="120.78012" inDis="50" outDis="50" oid="5375" /><Stop Id="3757" routeId="288" nameZh="蝙蝠洞" seqNo="47" pgp="0" terminal="0" districtId="1" GoBack="1" latitude="24.10903" longitude="120.78042" inDis="50" outDis="50" oid="6608" /><Stop Id="2769" routeId="288" nameZh="埔鹽林" seqNo="48" pgp="0" terminal="0" districtId="1" GoBack="1" latitude="24.11171" longitude="120.78167" inDis="50" outDis="50" oid="6098" /><Stop Id="3138" routeId="288" nameZh="頂埔鹽林" seqNo="49" pgp="0" terminal="0" districtId="1" GoBack="1" latitude="24.11349" longitude="120.78335" inDis="50" outDis="50" oid="6301" /><Stop Id="1723" routeId="288" nameZh="水壩頭" seqNo="50" pgp="0" terminal="0" districtId="1" GoBack="1" latitude="24.11494" longitude="120.78466" inDis="50" outDis="50" oid="5492" /><Stop Id="2848" routeId="288" nameZh="荔枝頭" seqNo="51" pgp="0" terminal="0" districtId="1" GoBack="1" latitude="24.11577" longitude="120.78826" inDis="50" outDis="50" oid="6148" /><Stop Id="5245" routeId="288" nameZh="長興橋" seqNo="52" pgp="0" terminal="0" districtId="1" GoBack="1" latitude="24.11799" longitude="120.79118" inDis="50" outDis="50" oid="310787798" /><Stop Id="5243" routeId="288" nameZh="東汴社區" seqNo="53" pgp="0" terminal="0" districtId="1" GoBack="1" latitude="24.11857" longitude="120.79467" inDis="50" outDis="50" oid="310787794" /><Stop Id="2704" routeId="288" nameZh="茅埔" seqNo="54" pgp="0" terminal="0" districtId="1" GoBack="1" latitude="24.11746" longitude="120.79658" inDis="50" outDis="50" oid="6061" /><Stop Id="5475" routeId="288" nameZh="天圓彌勒院" seqNo="55" pgp="0" terminal="0" districtId="1" GoBack="1" latitude="24.11798" longitude="120.80203" inDis="50" outDis="50" oid="314344304" /><Stop Id="5475" routeId="288" nameZh="天圓彌勒院" seqNo="1" pgp="0" terminal="0" districtId="1" GoBack="2" latitude="24.11798" longitude="120.80203" inDis="50" outDis="50" oid="314344304" /><Stop Id="2704" routeId="288" nameZh="茅埔" seqNo="2" pgp="0" terminal="0" districtId="1" GoBack="2" latitude="24.11746" longitude="120.79658" inDis="50" outDis="50" oid="6061" /><Stop Id="5243" routeId="288" nameZh="東汴社區" seqNo="3" pgp="0" terminal="0" districtId="1" GoBack="2" latitude="24.11857" longitude="120.79467" inDis="50" outDis="50" oid="310787795" /><Stop Id="5245" routeId="288" nameZh="長興橋" seqNo="4" pgp="0" terminal="0" districtId="1" GoBack="2" latitude="24.11799" longitude="120.79118" inDis="50" outDis="50" oid="310787799" /><Stop Id="2848" routeId="288" nameZh="荔枝頭" seqNo="5" pgp="0" terminal="0" districtId="1" GoBack="2" latitude="24.11577" longitude="120.78826" inDis="50" outDis="50" oid="6148" /><Stop Id="1723" routeId="288" nameZh="水壩頭" seqNo="6" pgp="0" terminal="0" districtId="1" GoBack="2" latitude="24.11494" longitude="120.78466" inDis="50" outDis="50" oid="5492" /><Stop Id="3138" routeId="288" nameZh="頂埔鹽林" seqNo="7" pgp="0" terminal="0" districtId="1" GoBack="2" latitude="24.11349" longitude="120.78335" inDis="50" outDis="50" oid="6301" /><Stop Id="2769" routeId="288" nameZh="埔鹽林" seqNo="8" pgp="0" terminal="0" districtId="1" GoBack="2" latitude="24.11171" longitude="120.78167" inDis="50" outDis="50" oid="6098" /><Stop Id="3757" routeId="288" nameZh="蝙蝠洞" seqNo="9" pgp="0" terminal="0" districtId="1" GoBack="2" latitude="24.10903" longitude="120.78042" inDis="50" outDis="50" oid="6608" /><Stop Id="1541" routeId="288" nameZh="五號橋" seqNo="10" pgp="0" terminal="0" districtId="1" GoBack="2" latitude="24.10863" longitude="120.78012" inDis="50" outDis="50" oid="5375" /><Stop Id="1749" routeId="288" nameZh="仙子洞" seqNo="11" pgp="0" terminal="0" districtId="1" GoBack="2" latitude="24.10716" longitude="120.77842" inDis="50" outDis="50" oid="5505" /><Stop Id="3028" routeId="288" nameZh="清涼寺" seqNo="12" pgp="0" terminal="0" districtId="1" GoBack="2" latitude="24.10591" longitude="120.77677" inDis="50" outDis="50" oid="6235" /><Stop Id="1853" routeId="288" nameZh="四號橋" seqNo="13" pgp="0" terminal="0" districtId="1" GoBack="2" latitude="24.10419" longitude="120.77481" inDis="50" outDis="50" oid="5580" /><Stop Id="1189" routeId="288" nameZh="下湖" seqNo="14" pgp="0" terminal="0" districtId="1" GoBack="2" latitude="24.10311" longitude="120.77432" inDis="50" outDis="50" oid="5147" /><Stop Id="4204" routeId="288" nameZh="土地公崁" seqNo="15" pgp="0" terminal="0" districtId="1" GoBack="2" latitude="24.10297" longitude="120.77255" inDis="50" outDis="50" oid="12289" /><Stop Id="5290" routeId="288" nameZh="佛恩寺" seqNo="16" pgp="0" terminal="0" districtId="1" GoBack="2" latitude="24.10442" longitude="120.76944" inDis="50" outDis="50" oid="311033697" /><Stop Id="5251" routeId="288" nameZh="草嶺橋" seqNo="17" pgp="0" terminal="0" districtId="1" GoBack="2" latitude="24.10671" longitude="120.76612" inDis="50" outDis="50" oid="310787811" /><Stop Id="1101" routeId="288" nameZh="三號橋" seqNo="18" pgp="0" terminal="0" districtId="1" GoBack="2" latitude="24.10992" longitude="120.76489" inDis="50" outDis="50" oid="5094" /><Stop Id="2076" routeId="288" nameZh="吊橋頭" seqNo="19" pgp="0" terminal="0" districtId="1" GoBack="2" latitude="24.11296" longitude="120.76286" inDis="50" outDis="50" oid="5702" /><Stop Id="3641" routeId="288" nameZh="福利社" seqNo="20" pgp="0" terminal="0" districtId="1" GoBack="2" latitude="24.11509" longitude="120.76243" inDis="50" outDis="50" oid="6547" /><Stop Id="2538" routeId="288" nameZh="長龍吊橋" seqNo="21" pgp="0" terminal="0" districtId="1" GoBack="2" latitude="24.11763" longitude="120.75857" inDis="50" outDis="50" oid="5964" /><Stop Id="3861" routeId="288" nameZh="龍眼腳" seqNo="22" pgp="0" terminal="0" districtId="1" GoBack="2" latitude="24.11995" longitude="120.757" inDis="50" outDis="50" oid="6659" /><Stop Id="3179" routeId="288" nameZh="頂頭汴坑" seqNo="24" pgp="0" terminal="0" districtId="1" GoBack="2" latitude="24.12213" longitude="120.75138" inDis="50" outDis="50" oid="6316" /><Stop Id="3830" routeId="288" nameZh="頭汴國小" seqNo="25" pgp="0" terminal="0" districtId="1" GoBack="2" latitude="24.12314" longitude="120.75052" inDis="50" outDis="50" oid="6643" /><Stop Id="3827" routeId="288" nameZh="頭汴坑" seqNo="26" pgp="0" terminal="0" districtId="1" GoBack="2" latitude="24.12462" longitude="120.74906" inDis="50" outDis="50" oid="6640" /><Stop Id="1569" routeId="288" nameZh="內城橋" seqNo="27" pgp="0" terminal="0" districtId="1" GoBack="2" latitude="24.12654" longitude="120.74783" inDis="50" outDis="50" oid="5389" /><Stop Id="2731" routeId="288" nameZh="香蕉市場" seqNo="28" pgp="0" terminal="0" districtId="1" GoBack="2" latitude="24.13078" longitude="120.74455" inDis="50" outDis="50" oid="6084" /><Stop Id="3677" routeId="288" nameZh="福嚴寺" seqNo="29" pgp="0" terminal="0" districtId="1" GoBack="2" latitude="24.13101" longitude="120.74155" inDis="50" outDis="50" oid="6569" /><Stop Id="5259" routeId="288" nameZh="腦館(長龍路)" seqNo="30" pgp="0" terminal="0" districtId="1" GoBack="2" latitude="24.13102" longitude="120.73919" inDis="50" outDis="50" oid="310787827" /><Stop Id="0977" routeId="288" nameZh="一江橋" seqNo="31" pgp="0" terminal="0" districtId="1" GoBack="2" latitude="24.13352" longitude="120.73561" inDis="50" outDis="50" oid="5730" /><Stop Id="1396" routeId="288" nameZh="山腳" seqNo="32" pgp="0" terminal="0" districtId="1" GoBack="2" latitude="24.13475" longitude="120.7317" inDis="50" outDis="50" oid="5292" /><Stop Id="3088" routeId="288" nameZh="頂三叉" seqNo="33" pgp="0" terminal="0" districtId="1" GoBack="2" latitude="24.13468" longitude="120.72863" inDis="50" outDis="50" oid="6278" /><Stop Id="1508" routeId="288" nameZh="東平中興東路口" seqNo="34" pgp="0" terminal="0" districtId="1" GoBack="2" latitude="24.13407" longitude="120.72623" inDis="50" outDis="50" oid="5354" /><Stop Id="1056" routeId="288" nameZh="三叉" seqNo="35" pgp="0" terminal="0" districtId="1" GoBack="2" latitude="24.13386" longitude="120.72418" inDis="50" outDis="50" oid="5064" /><Stop Id="4667" routeId="288" nameZh="東平國小(東平路)" seqNo="36" pgp="0" terminal="0" districtId="1" GoBack="2" latitude="24.1338" longitude="120.72273" inDis="50" outDis="50" oid="5883" /><Stop Id="4718" routeId="288" nameZh="東平中平路口" seqNo="37" pgp="0" terminal="0" districtId="1" GoBack="2" latitude="24.13376" longitude="120.72104" inDis="50" outDis="50" oid="306376948" /><Stop Id="4717" routeId="288" nameZh="崇正寶宮" seqNo="38" pgp="0" terminal="0" districtId="1" GoBack="2" latitude="24.13364" longitude="120.71864" inDis="50" outDis="50" oid="306250858" /><Stop Id="4716" routeId="288" nameZh="新平永平路口" seqNo="39" pgp="0" terminal="0" districtId="1" GoBack="2" latitude="24.13163" longitude="120.7168" inDis="50" outDis="50" oid="306250856" /><Stop Id="4220" routeId="288" nameZh="太平國小" seqNo="40" pgp="0" terminal="0" districtId="1" GoBack="2" latitude="24.12805" longitude="120.71705" inDis="50" outDis="50" oid="5439" /><Stop Id="1427" routeId="288" nameZh="中太平" seqNo="41" pgp="0" terminal="0" districtId="1" GoBack="2" latitude="24.12722" longitude="120.71578" inDis="50" outDis="50" oid="5311" /><Stop Id="1128" routeId="288" nameZh="下太平" seqNo="42" pgp="0" terminal="0" districtId="1" GoBack="2" latitude="24.12594" longitude="120.71239" inDis="50" outDis="50" oid="5110" /><Stop Id="4218" routeId="288" nameZh="中油太平站" seqNo="43" pgp="0" terminal="0" districtId="1" GoBack="2" latitude="24.12709" longitude="120.71057" inDis="50" outDis="50" oid="5509" /><Stop Id="1185" routeId="288" nameZh="下部仔" seqNo="44" pgp="0" terminal="0" districtId="1" GoBack="2" latitude="24.1281" longitude="120.70883" inDis="50" outDis="50" oid="5142" /><Stop Id="1642" routeId="288" nameZh="太平橋前" seqNo="45" pgp="0" terminal="0" districtId="1" GoBack="2" latitude="24.13024" longitude="120.70528" inDis="50" outDis="50" oid="5444" /><Stop Id="2236" routeId="288" nameZh="旱溪" seqNo="46" pgp="0" terminal="0" districtId="1" GoBack="2" latitude="24.13143" longitude="120.70261" inDis="50" outDis="50" oid="5786" /><Stop Id="0190" routeId="288" nameZh="東門橋" seqNo="47" pgp="0" terminal="0" districtId="1" GoBack="2" latitude="24.13315" longitude="120.6981" inDis="50" outDis="50" oid="5886" /><Stop Id="3617" routeId="288" nameZh="漢聲電臺" seqNo="48" pgp="0" terminal="0" districtId="1" GoBack="2" latitude="24.13303" longitude="120.69636" inDis="50" outDis="50" oid="6536" /><Stop Id="4654" routeId="288" nameZh="大東紡織(振興路)" seqNo="49" pgp="0" terminal="0" districtId="1" GoBack="2" latitude="24.13289" longitude="120.69403" inDis="50" outDis="50" oid="5235" /><Stop Id="4362" routeId="288" nameZh="建成大振街口" seqNo="50" pgp="0" terminal="0" districtId="1" GoBack="2" latitude="24.13251" longitude="120.69233" inDis="50" outDis="50" oid="AE8C3775B4774AB188B1DA065EC4EBC4" /><Stop Id="0186" routeId="288" nameZh="大智忠孝路口" seqNo="51" pgp="0" terminal="0" districtId="1" GoBack="2" latitude="24.1325" longitude="120.68984" inDis="50" outDis="50" oid="5850" /><Stop Id="0185" routeId="288" nameZh="新時代購物中心" seqNo="52" pgp="0" terminal="0" districtId="1" GoBack="2" latitude="24.13597" longitude="120.68804" inDis="50" outDis="50" oid="9BA00BD0B58B41F6A5888BA89C541E51" /><Stop Id="0184" routeId="288" nameZh="後火車站" seqNo="53" pgp="0" terminal="0" districtId="1" GoBack="2" latitude="24.1358" longitude="120.68629" inDis="50" outDis="50" oid="6022" /><Stop Id="0183" routeId="288" nameZh="臺中家商" seqNo="54" pgp="0" terminal="0" districtId="1" GoBack="2" latitude="24.13473" longitude="120.68367" inDis="50" outDis="50" oid="6337" /><Stop Id="1824" routeId="288" nameZh="臺中火車站" seqNo="55" pgp="0" terminal="0" districtId="1" GoBack="2" latitude="24.13663" longitude="120.68387" inDis="50" outDis="170" oid="5545" /></BusInfo></BusDynInfo>