<?xml version="1.0" encoding="UTF-8" standalone="yes"?>
<BusDynInfo><EssentialInfo><Location><name>TCBUS</name><CenterName>Maxwin</CenterName></Location><UpdateTime>2014-12-20 08:16:15</UpdateTime><CoordinateSystem/></EssentialInfo>
<BusInfo><Stop Id="2794" routeId="211區" nameZh="泰安" seqNo="1" pgp="0" terminal="0" districtId="1" GoBack="1" latitude="24.32286" longitude="120.74882" inDis="50" outDis="50" oid="6111" /><Stop Id="5055" routeId="211區" nameZh="泰安派出所" seqNo="2" pgp="0" terminal="0" districtId="1" GoBack="1" latitude="24.32399" longitude="120.75146" inDis="50" outDis="50" oid="309863805" /><Stop Id="5056" routeId="211區" nameZh="泰安國小" seqNo="3" pgp="0" terminal="0" districtId="1" GoBack="1" latitude="24.3262" longitude="120.74864" inDis="50" outDis="50" oid="309863806" /><Stop Id="0988" routeId="211區" nameZh="七塊厝" seqNo="4" pgp="0" terminal="0" districtId="1" GoBack="1" latitude="24.328" longitude="120.74495" inDis="50" outDis="50" oid="5028" /><Stop Id="5052" routeId="211區" nameZh="安眉興安路口" seqNo="5" pgp="0" terminal="0" districtId="1" GoBack="1" latitude="24.32926" longitude="120.74221" inDis="50" outDis="50" oid="309863802" /><Stop Id="5051" routeId="211區" nameZh="安眉福美路口" seqNo="6" pgp="0" terminal="0" districtId="1" GoBack="1" latitude="24.33048" longitude="120.73607" inDis="50" outDis="50" oid="309863801" /><Stop Id="5050" routeId="211區" nameZh="公館(安眉路)" seqNo="7" pgp="0" terminal="0" districtId="1" GoBack="1" latitude="24.33209" longitude="120.72948" inDis="50" outDis="50" oid="309863800" /><Stop Id="2229" routeId="211區" nameZh="尾社" seqNo="8" pgp="0" terminal="0" districtId="1" GoBack="1" latitude="24.33327" longitude="120.72324" inDis="50" outDis="50" oid="5783" /><Stop Id="0993" routeId="211區" nameZh="九股" seqNo="9" pgp="0" terminal="0" districtId="1" GoBack="1" latitude="24.33368" longitude="120.71972" inDis="50" outDis="50" oid="5030" /><Stop Id="1522" routeId="211區" nameZh="五崁腳" seqNo="10" pgp="0" terminal="0" districtId="1" GoBack="1" latitude="24.33278" longitude="120.7146" inDis="50" outDis="50" oid="5363" /><Stop Id="0976" routeId="211區" nameZh="一安定" seqNo="11" pgp="0" terminal="0" districtId="1" GoBack="1" latitude="24.33649" longitude="120.71186" inDis="50" outDis="50" oid="5016" /><Stop Id="5617" routeId="211區" nameZh="安定" seqNo="12" pgp="0" terminal="0" districtId="1" GoBack="1" latitude="24.34294" longitude="120.70711" inDis="50" outDis="50" oid="317149628" /><Stop Id="1264" routeId="211區" nameZh="土城" seqNo="13" pgp="0" terminal="0" districtId="1" GoBack="1" latitude="24.34492" longitude="120.70467" inDis="50" outDis="50" oid="5204" /><Stop Id="1243" routeId="211區" nameZh="上部仔" seqNo="14" pgp="0" terminal="0" districtId="1" GoBack="1" latitude="24.34664" longitude="120.69968" inDis="50" outDis="50" oid="5187" /><Stop Id="5480" routeId="211區" nameZh="南路" seqNo="15" pgp="0" terminal="0" districtId="1" GoBack="1" latitude="24.34624" longitude="120.69679" inDis="50" outDis="50" oid="314467970" /><Stop Id="1477" routeId="211區" nameZh="中部仔" seqNo="16" pgp="0" terminal="0" districtId="1" GoBack="1" latitude="24.34583" longitude="120.69398" inDis="50" outDis="50" oid="5338" /><Stop Id="1798" routeId="211區" nameZh="北路　" seqNo="17" pgp="0" terminal="0" districtId="1" GoBack="1" latitude="24.34548" longitude="120.69112" inDis="50" outDis="50" oid="5536" /><Stop Id="1185" routeId="211區" nameZh="下部仔" seqNo="18" pgp="0" terminal="0" districtId="1" GoBack="1" latitude="24.34495" longitude="120.68569" inDis="50" outDis="50" oid="5141" /><Stop Id="5325" routeId="211區" nameZh="土城部子路口" seqNo="19" pgp="0" terminal="0" districtId="1" GoBack="1" latitude="24.34478" longitude="120.68384" inDis="50" outDis="50" oid="313909879" /><Stop Id="2726" routeId="211區" nameZh="風坑" seqNo="20" pgp="0" terminal="0" districtId="1" GoBack="1" latitude="24.3445" longitude="120.68193" inDis="50" outDis="50" oid="6079" /><Stop Id="2964" routeId="211區" nameZh="崎頂" seqNo="21" pgp="0" terminal="0" districtId="1" GoBack="1" latitude="24.34414" longitude="120.67593" inDis="50" outDis="50" oid="6188" /><Stop Id="3114" routeId="211區" nameZh="頂竹圍" seqNo="22" pgp="0" terminal="0" districtId="1" GoBack="1" latitude="24.34153" longitude="120.67227" inDis="50" outDis="50" oid="6291" /><Stop Id="2148" routeId="211區" nameZh="竹圍" seqNo="23" pgp="0" terminal="0" districtId="1" GoBack="1" latitude="24.34133" longitude="120.66817" inDis="50" outDis="50" oid="5742" /><Stop Id="2900" routeId="211區" nameZh="馬鳴埔" seqNo="24" pgp="0" terminal="0" districtId="1" GoBack="1" latitude="24.34048" longitude="120.66295" inDis="50" outDis="50" oid="6165" /><Stop Id="2946" routeId="211區" nameZh="埤腳" seqNo="25" pgp="0" terminal="0" districtId="1" GoBack="1" latitude="24.34428" longitude="120.66379" inDis="50" outDis="50" oid="6182" /><Stop Id="3406" routeId="211區" nameZh="新厝(長生路)" seqNo="26" pgp="0" terminal="0" districtId="1" GoBack="1" latitude="24.34969" longitude="120.66278" inDis="50" outDis="50" oid="6439" /><Stop Id="4001" routeId="211區" nameZh="鐵山國小" seqNo="27" pgp="0" terminal="0" districtId="1" GoBack="1" latitude="24.34847" longitude="120.65627" inDis="50" outDis="50" oid="6734" /><Stop Id="4002" routeId="211區" nameZh="鐵砧山" seqNo="28" pgp="0" terminal="0" districtId="1" GoBack="1" latitude="24.34702" longitude="120.65337" inDis="50" outDis="50" oid="6735" /><Stop Id="5492" routeId="211區" nameZh="明湖新村" seqNo="29" pgp="0" terminal="0" districtId="1" GoBack="1" latitude="24.34648" longitude="120.64776" inDis="50" outDis="50" oid="314614146" /><Stop Id="3262" routeId="211區" nameZh="番仔田" seqNo="30" pgp="0" terminal="0" districtId="1" GoBack="1" latitude="24.34672" longitude="120.64387" inDis="50" outDis="50" oid="6355" /><Stop Id="4875" routeId="211區" nameZh="大甲高工" seqNo="31" pgp="0" terminal="0" districtId="1" GoBack="1" latitude="24.34644" longitude="120.63938" inDis="50" outDis="50" oid="15437" /><Stop Id="5060" routeId="211區" nameZh="開元甲后路口" seqNo="32" pgp="0" terminal="0" districtId="1" GoBack="1" latitude="24.34581" longitude="120.63291" inDis="50" outDis="50" oid="309863810" /><Stop Id="1420" routeId="211區" nameZh="中山里" seqNo="33" pgp="0" terminal="0" districtId="1" GoBack="1" latitude="24.34477" longitude="120.62933" inDis="50" outDis="50" oid="5309" /><Stop Id="1933" routeId="211區" nameZh="永光寺" seqNo="34" pgp="0" terminal="0" districtId="1" GoBack="1" latitude="24.3429" longitude="120.62844" inDis="50" outDis="50" oid="5612" /><Stop Id="4558" routeId="211區" nameZh="中正紀念館" seqNo="35" pgp="0" terminal="0" districtId="1" GoBack="1" latitude="24.34027" longitude="120.62643" inDis="50" outDis="50" oid="5451" /><Stop Id="4433" routeId="211區" nameZh="大甲高中(水源路)" seqNo="36" pgp="0" terminal="0" districtId="1" GoBack="1" latitude="24.34182" longitude="120.6229" inDis="50" outDis="50" oid="14089" /><Stop Id="2609" routeId="211區" nameZh="南陽里(中山路)" seqNo="37" pgp="0" terminal="0" districtId="1" GoBack="1" latitude="24.34272" longitude="120.62431" inDis="50" outDis="50" oid="320571957" /><Stop Id="5084" routeId="211區" nameZh="大甲" seqNo="38" pgp="0" terminal="0" districtId="1" GoBack="1" latitude="24.34321" longitude="120.62553" inDis="50" outDis="50" oid="5215" /><Stop Id="4432" routeId="211區" nameZh="大甲火車站" seqNo="39" pgp="0" terminal="0" districtId="1" GoBack="1" latitude="24.34461" longitude="120.62664" inDis="50" outDis="50" oid="14074" /><Stop Id="1074" routeId="211區" nameZh="文昌祠" seqNo="40" pgp="0" terminal="0" districtId="1" GoBack="1" latitude="24.34726" longitude="120.62286" inDis="50" outDis="50" oid="13774" /><Stop Id="3062" routeId="211區" nameZh="庄尾" seqNo="41" pgp="0" terminal="0" districtId="1" GoBack="1" latitude="24.34819" longitude="120.62028" inDis="50" outDis="50" oid="13775" /><Stop Id="5692" routeId="211區" nameZh="李綜合醫院" seqNo="42" pgp="0" terminal="0" districtId="1" GoBack="1" latitude="24.35163" longitude="120.61854" inDis="50" outDis="50" oid="319713435" /><Stop Id="5691" routeId="211區" nameZh="大甲體育場" seqNo="43" pgp="0" terminal="0" districtId="1" GoBack="1" latitude="24.35018" longitude="120.61737" inDis="50" outDis="50" oid="319713434" /><Stop Id="2038" routeId="211區" nameZh="光田" seqNo="44" pgp="0" terminal="0" districtId="1" GoBack="1" latitude="24.34723" longitude="120.61645" inDis="50" outDis="50" oid="5679" /><Stop Id="5061" routeId="211區" nameZh="新政大安港路口" seqNo="45" pgp="0" terminal="0" districtId="1" GoBack="1" latitude="24.35087" longitude="120.61478" inDis="50" outDis="50" oid="309863811" /><Stop Id="5061" routeId="211區" nameZh="新政大安港路口" seqNo="1" pgp="0" terminal="0" districtId="1" GoBack="2" latitude="24.35087" longitude="120.61478" inDis="50" outDis="50" oid="309863811" /><Stop Id="2038" routeId="211區" nameZh="光田" seqNo="2" pgp="0" terminal="0" districtId="1" GoBack="2" latitude="24.34723" longitude="120.61645" inDis="50" outDis="50" oid="5679" /><Stop Id="5691" routeId="211區" nameZh="大甲體育場" seqNo="3" pgp="0" terminal="0" districtId="1" GoBack="2" latitude="24.35018" longitude="120.61737" inDis="50" outDis="50" oid="319713434" /><Stop Id="5692" routeId="211區" nameZh="李綜合醫院" seqNo="4" pgp="0" terminal="0" districtId="1" GoBack="2" latitude="24.35163" longitude="120.61854" inDis="50" outDis="50" oid="319713435" /><Stop Id="3062" routeId="211區" nameZh="庄尾" seqNo="5" pgp="0" terminal="0" districtId="1" GoBack="2" latitude="24.34819" longitude="120.62028" inDis="50" outDis="50" oid="13775" /><Stop Id="1074" routeId="211區" nameZh="文昌祠" seqNo="6" pgp="0" terminal="0" districtId="1" GoBack="2" latitude="24.34726" longitude="120.62286" inDis="50" outDis="50" oid="13774" /><Stop Id="4432" routeId="211區" nameZh="大甲火車站" seqNo="7" pgp="0" terminal="0" districtId="1" GoBack="2" latitude="24.34461" longitude="120.62664" inDis="50" outDis="50" oid="14074" /><Stop Id="5084" routeId="211區" nameZh="大甲" seqNo="8" pgp="0" terminal="0" districtId="1" GoBack="2" latitude="24.34321" longitude="120.62553" inDis="50" outDis="50" oid="5215" /><Stop Id="2609" routeId="211區" nameZh="南陽里(中山路)" seqNo="9" pgp="0" terminal="0" districtId="1" GoBack="2" latitude="24.34272" longitude="120.62431" inDis="50" outDis="50" oid="320571957" /><Stop Id="4433" routeId="211區" nameZh="大甲高中(水源路)" seqNo="10" pgp="0" terminal="0" districtId="1" GoBack="2" latitude="24.34182" longitude="120.6229" inDis="50" outDis="50" oid="14089" /><Stop Id="4558" routeId="211區" nameZh="中正紀念館" seqNo="11" pgp="0" terminal="0" districtId="1" GoBack="2" latitude="24.34027" longitude="120.62643" inDis="50" outDis="50" oid="5451" /><Stop Id="1933" routeId="211區" nameZh="永光寺" seqNo="12" pgp="0" terminal="0" districtId="1" GoBack="2" latitude="24.3429" longitude="120.62844" inDis="50" outDis="50" oid="5612" /><Stop Id="1420" routeId="211區" nameZh="中山里" seqNo="13" pgp="0" terminal="0" districtId="1" GoBack="2" latitude="24.34477" longitude="120.62933" inDis="50" outDis="50" oid="5309" /><Stop Id="5060" routeId="211區" nameZh="開元甲后路口" seqNo="14" pgp="0" terminal="0" districtId="1" GoBack="2" latitude="24.34581" longitude="120.63291" inDis="50" outDis="50" oid="309863810" /><Stop Id="4875" routeId="211區" nameZh="大甲高工" seqNo="15" pgp="0" terminal="0" districtId="1" GoBack="2" latitude="24.34644" longitude="120.63938" inDis="50" outDis="50" oid="15438" /><Stop Id="3262" routeId="211區" nameZh="番仔田" seqNo="16" pgp="0" terminal="0" districtId="1" GoBack="2" latitude="24.34672" longitude="120.64387" inDis="50" outDis="50" oid="6355" /><Stop Id="5492" routeId="211區" nameZh="明湖新村" seqNo="17" pgp="0" terminal="0" districtId="1" GoBack="2" latitude="24.34648" longitude="120.64776" inDis="50" outDis="50" oid="314614146" /><Stop Id="4002" routeId="211區" nameZh="鐵砧山" seqNo="18" pgp="0" terminal="0" districtId="1" GoBack="2" latitude="24.34702" longitude="120.65337" inDis="50" outDis="50" oid="6735" /><Stop Id="4001" routeId="211區" nameZh="鐵山國小" seqNo="19" pgp="0" terminal="0" districtId="1" GoBack="2" latitude="24.34847" longitude="120.65627" inDis="50" outDis="50" oid="6734" /><Stop Id="3406" routeId="211區" nameZh="新厝(長生路)" seqNo="20" pgp="0" terminal="0" districtId="1" GoBack="2" latitude="24.34969" longitude="120.66278" inDis="50" outDis="50" oid="6439" /><Stop Id="2946" routeId="211區" nameZh="埤腳" seqNo="21" pgp="0" terminal="0" districtId="1" GoBack="2" latitude="24.34428" longitude="120.66379" inDis="50" outDis="50" oid="6182" /><Stop Id="2900" routeId="211區" nameZh="馬鳴埔" seqNo="22" pgp="0" terminal="0" districtId="1" GoBack="2" latitude="24.34048" longitude="120.66295" inDis="50" outDis="50" oid="6165" /><Stop Id="2148" routeId="211區" nameZh="竹圍" seqNo="23" pgp="0" terminal="0" districtId="1" GoBack="2" latitude="24.34133" longitude="120.66817" inDis="50" outDis="50" oid="5742" /><Stop Id="3114" routeId="211區" nameZh="頂竹圍" seqNo="24" pgp="0" terminal="0" districtId="1" GoBack="2" latitude="24.34153" longitude="120.67227" inDis="50" outDis="50" oid="6291" /><Stop Id="2964" routeId="211區" nameZh="崎頂" seqNo="25" pgp="0" terminal="0" districtId="1" GoBack="2" latitude="24.34414" longitude="120.67593" inDis="50" outDis="50" oid="6188" /><Stop Id="2726" routeId="211區" nameZh="風坑" seqNo="26" pgp="0" terminal="0" districtId="1" GoBack="2" latitude="24.3445" longitude="120.68193" inDis="50" outDis="50" oid="6079" /><Stop Id="5325" routeId="211區" nameZh="土城部子路口" seqNo="27" pgp="0" terminal="0" districtId="1" GoBack="2" latitude="24.34478" longitude="120.68384" inDis="50" outDis="50" oid="313909879" /><Stop Id="1185" routeId="211區" nameZh="下部仔" seqNo="28" pgp="0" terminal="0" districtId="1" GoBack="2" latitude="24.34495" longitude="120.68569" inDis="50" outDis="50" oid="5141" /><Stop Id="1798" routeId="211區" nameZh="北路　" seqNo="29" pgp="0" terminal="0" districtId="1" GoBack="2" latitude="24.34548" longitude="120.69112" inDis="50" outDis="50" oid="5536" /><Stop Id="1477" routeId="211區" nameZh="中部仔" seqNo="30" pgp="0" terminal="0" districtId="1" GoBack="2" latitude="24.34583" longitude="120.69398" inDis="50" outDis="50" oid="5338" /><Stop Id="5480" routeId="211區" nameZh="南路" seqNo="31" pgp="0" terminal="0" districtId="1" GoBack="2" latitude="24.34624" longitude="120.69679" inDis="50" outDis="50" oid="314467970" /><Stop Id="1243" routeId="211區" nameZh="上部仔" seqNo="32" pgp="0" terminal="0" districtId="1" GoBack="2" latitude="24.34664" longitude="120.69968" inDis="50" outDis="50" oid="5187" /><Stop Id="1264" routeId="211區" nameZh="土城" seqNo="33" pgp="0" terminal="0" districtId="1" GoBack="2" latitude="24.34492" longitude="120.70467" inDis="50" outDis="50" oid="5204" /><Stop Id="5617" routeId="211區" nameZh="安定" seqNo="34" pgp="0" terminal="0" districtId="1" GoBack="2" latitude="24.34294" longitude="120.70711" inDis="50" outDis="50" oid="317149628" /><Stop Id="0976" routeId="211區" nameZh="一安定" seqNo="35" pgp="0" terminal="0" districtId="1" GoBack="2" latitude="24.33649" longitude="120.71186" inDis="50" outDis="50" oid="5016" /><Stop Id="1522" routeId="211區" nameZh="五崁腳" seqNo="36" pgp="0" terminal="0" districtId="1" GoBack="2" latitude="24.33278" longitude="120.7146" inDis="50" outDis="50" oid="5363" /><Stop Id="0993" routeId="211區" nameZh="九股" seqNo="37" pgp="0" terminal="0" districtId="1" GoBack="2" latitude="24.33368" longitude="120.71972" inDis="50" outDis="50" oid="5030" /><Stop Id="2229" routeId="211區" nameZh="尾社" seqNo="38" pgp="0" terminal="0" districtId="1" GoBack="2" latitude="24.33327" longitude="120.72324" inDis="50" outDis="50" oid="5783" /><Stop Id="5050" routeId="211區" nameZh="公館(安眉路)" seqNo="39" pgp="0" terminal="0" districtId="1" GoBack="2" latitude="24.33209" longitude="120.72948" inDis="50" outDis="50" oid="309863800" /><Stop Id="5051" routeId="211區" nameZh="安眉福美路口" seqNo="40" pgp="0" terminal="0" districtId="1" GoBack="2" latitude="24.33048" longitude="120.73607" inDis="50" outDis="50" oid="309863801" /><Stop Id="5052" routeId="211區" nameZh="安眉興安路口" seqNo="41" pgp="0" terminal="0" districtId="1" GoBack="2" latitude="24.32926" longitude="120.74221" inDis="50" outDis="50" oid="309863802" /><Stop Id="0988" routeId="211區" nameZh="七塊厝" seqNo="42" pgp="0" terminal="0" districtId="1" GoBack="2" latitude="24.328" longitude="120.74495" inDis="50" outDis="50" oid="5028" /><Stop Id="5056" routeId="211區" nameZh="泰安國小" seqNo="43" pgp="0" terminal="0" districtId="1" GoBack="2" latitude="24.3262" longitude="120.74864" inDis="50" outDis="50" oid="309863806" /><Stop Id="5055" routeId="211區" nameZh="泰安派出所" seqNo="44" pgp="0" terminal="0" districtId="1" GoBack="2" latitude="24.32399" longitude="120.75146" inDis="50" outDis="50" oid="309863805" /><Stop Id="2794" routeId="211區" nameZh="泰安" seqNo="45" pgp="0" terminal="0" districtId="1" GoBack="2" latitude="24.32286" longitude="120.74882" inDis="50" outDis="50" oid="6111" /></BusInfo></BusDynInfo>