<?xml version="1.0" encoding="UTF-8" standalone="yes"?>
<BusDynInfo><EssentialInfo><Location><name>TCBUS</name><CenterName>Maxwin</CenterName></Location><UpdateTime>2014-12-20 08:12:11</UpdateTime><CoordinateSystem/></EssentialInfo>
<BusInfo><Stop Id="3935" routeId="185" nameZh="豐原" seqNo="1" pgp="0" terminal="0" districtId="1" GoBack="1" latitude="24.2538" longitude="120.72154" inDis="70" outDis="70" oid="6693" /><Stop Id="3343" routeId="185" nameZh="媽祖廟" seqNo="2" pgp="0" terminal="0" districtId="1" GoBack="1" latitude="24.25157" longitude="120.71851" inDis="50" outDis="50" oid="6396" /><Stop Id="3939" routeId="185" nameZh="豐原郵局" seqNo="3" pgp="0" terminal="0" districtId="1" GoBack="1" latitude="24.2514" longitude="120.71552" inDis="50" outDis="50" oid="12284" /><Stop Id="3357" routeId="185" nameZh="慈龍寺" seqNo="4" pgp="0" terminal="0" districtId="1" GoBack="1" latitude="24.25079" longitude="120.712" inDis="50" outDis="50" oid="8065" /><Stop Id="4448" routeId="185" nameZh="中正圓環西路口" seqNo="5" pgp="0" terminal="0" districtId="1" GoBack="1" latitude="24.25039" longitude="120.70963" inDis="50" outDis="50" oid="6688" /><Stop Id="1065" routeId="185" nameZh="三光新村" seqNo="6" pgp="0" terminal="0" districtId="1" GoBack="1" latitude="24.24999" longitude="120.70672" inDis="50" outDis="50" oid="5072" /><Stop Id="2349" routeId="185" nameZh="忠勤新村" seqNo="7" pgp="0" terminal="0" districtId="1" GoBack="1" latitude="24.24962" longitude="120.70434" inDis="50" outDis="50" oid="5856" /><Stop Id="2489" routeId="185" nameZh="社皮鐵路巷" seqNo="8" pgp="0" terminal="0" districtId="1" GoBack="1" latitude="24.24951" longitude="120.70229" inDis="50" outDis="50" oid="8015" /><Stop Id="4498" routeId="185" nameZh="臺豐社區" seqNo="9" pgp="0" terminal="0" districtId="1" GoBack="1" latitude="24.249" longitude="120.70003" inDis="50" outDis="50" oid="13826" /><Stop Id="5438" routeId="185" nameZh="岸裡國小" seqNo="10" pgp="0" terminal="0" districtId="1" GoBack="1" latitude="24.24871" longitude="120.69809" inDis="50" outDis="50" oid="12282" /><Stop Id="2993" routeId="185" nameZh="望寮" seqNo="11" pgp="0" terminal="0" districtId="1" GoBack="1" latitude="24.24841" longitude="120.69323" inDis="50" outDis="50" oid="6203" /><Stop Id="2700" routeId="185" nameZh="紅瓦厝口" seqNo="12" pgp="0" terminal="0" districtId="1" GoBack="1" latitude="24.2476" longitude="120.6896" inDis="50" outDis="50" oid="8031" /><Stop Id="2486" routeId="185" nameZh="社口" seqNo="13" pgp="0" terminal="0" districtId="1" GoBack="1" latitude="24.24668" longitude="120.68563" inDis="50" outDis="50" oid="5941" /><Stop Id="2836" routeId="185" nameZh="神岡國中" seqNo="14" pgp="0" terminal="0" districtId="1" GoBack="1" latitude="24.24731" longitude="120.68146" inDis="50" outDis="50" oid="6140" /><Stop Id="3656" routeId="185" nameZh="福隆新村" seqNo="15" pgp="0" terminal="0" districtId="1" GoBack="1" latitude="24.24901" longitude="120.67946" inDis="50" outDis="50" oid="6553" /><Stop Id="3655" routeId="185" nameZh="福華公司" seqNo="16" pgp="0" terminal="0" districtId="1" GoBack="1" latitude="24.25099" longitude="120.67622" inDis="50" outDis="50" oid="6552" /><Stop Id="3556" routeId="185" nameZh="電信局" seqNo="17" pgp="0" terminal="0" districtId="1" GoBack="1" latitude="24.25294" longitude="120.67387" inDis="50" outDis="50" oid="307752281" /><Stop Id="3460" routeId="185" nameZh="中山溝心路口" seqNo="18" pgp="0" terminal="0" districtId="1" GoBack="1" latitude="24.25521" longitude="120.67224" inDis="50" outDis="50" oid="6474" /><Stop Id="1783" routeId="185" nameZh="北庄" seqNo="19" pgp="0" terminal="0" districtId="1" GoBack="1" latitude="24.25732" longitude="120.66832" inDis="50" outDis="50" oid="12271" /><Stop Id="3066" routeId="185" nameZh="庄頭" seqNo="20" pgp="0" terminal="0" districtId="1" GoBack="1" latitude="24.25812" longitude="120.66294" inDis="50" outDis="50" oid="12270" /><Stop Id="2837" routeId="185" nameZh="神岡區公所" seqNo="21" pgp="0" terminal="0" districtId="1" GoBack="1" latitude="24.25771" longitude="120.66141" inDis="50" outDis="50" oid="6141" /><Stop Id="2835" routeId="185" nameZh="神岡" seqNo="22" pgp="0" terminal="0" districtId="1" GoBack="1" latitude="24.25703" longitude="120.6593" inDis="50" outDis="50" oid="6139" /><Stop Id="2838" routeId="185" nameZh="神岡農會" seqNo="23" pgp="0" terminal="0" districtId="1" GoBack="1" latitude="24.25847" longitude="120.65858" inDis="50" outDis="50" oid="6142" /><Stop Id="4962" routeId="185" nameZh="神圳國中" seqNo="24" pgp="0" terminal="0" districtId="1" GoBack="1" latitude="24.26062" longitude="120.65861" inDis="50" outDis="50" oid="308514219" /><Stop Id="2094" routeId="185" nameZh="圳前里" seqNo="25" pgp="0" terminal="0" districtId="1" GoBack="1" latitude="24.26399" longitude="120.65766" inDis="50" outDis="50" oid="5707" /><Stop Id="3111" routeId="185" nameZh="頂圳前" seqNo="26" pgp="0" terminal="0" districtId="1" GoBack="1" latitude="24.26742" longitude="120.65595" inDis="50" outDis="50" oid="6290" /><Stop Id="4755" routeId="185" nameZh="圳堵里口" seqNo="27" pgp="0" terminal="0" districtId="1" GoBack="1" latitude="24.26864" longitude="120.65642" inDis="50" outDis="50" oid="307119931" /><Stop Id="4953" routeId="185" nameZh="成都家園" seqNo="28" pgp="0" terminal="0" districtId="1" GoBack="1" latitude="24.27158" longitude="120.65336" inDis="50" outDis="50" oid="17805" /><Stop Id="2024" routeId="185" nameZh="示範公墓" seqNo="29" pgp="0" terminal="0" districtId="1" GoBack="1" latitude="24.26985" longitude="120.64878" inDis="50" outDis="50" oid="5671" /><Stop Id="2384" routeId="185" nameZh="東山廟前" seqNo="30" pgp="0" terminal="0" districtId="1" GoBack="1" latitude="24.27265" longitude="120.63344" inDis="50" outDis="50" oid="5879" /><Stop Id="2381" routeId="185" nameZh="東山" seqNo="31" pgp="0" terminal="0" districtId="1" GoBack="1" latitude="24.27325" longitude="120.63173" inDis="50" outDis="50" oid="5877" /><Stop Id="3568" routeId="185" nameZh="僑昌公司" seqNo="32" pgp="0" terminal="0" districtId="1" GoBack="1" latitude="24.2748" longitude="120.63191" inDis="50" outDis="50" oid="6522" /><Stop Id="3393" routeId="185" nameZh="新村" seqNo="33" pgp="0" terminal="0" districtId="1" GoBack="1" latitude="24.27668" longitude="120.6311" inDis="50" outDis="50" oid="6428" /><Stop Id="1775" routeId="185" nameZh="北東山" seqNo="34" pgp="0" terminal="0" districtId="1" GoBack="1" latitude="24.27808" longitude="120.62979" inDis="50" outDis="50" oid="5518" /><Stop Id="4954" routeId="185" nameZh="榮憶公司" seqNo="35" pgp="0" terminal="0" districtId="1" GoBack="1" latitude="24.28281" longitude="120.63013" inDis="50" outDis="50" oid="17806" /><Stop Id="2951" routeId="185" nameZh="基登公司" seqNo="36" pgp="0" terminal="0" districtId="1" GoBack="1" latitude="24.28923" longitude="120.63268" inDis="50" outDis="50" oid="6186" /><Stop Id="3918" routeId="185" nameZh="舊庄" seqNo="37" pgp="0" terminal="0" districtId="1" GoBack="1" latitude="24.29045" longitude="120.63304" inDis="50" outDis="50" oid="12264" /><Stop Id="1215" routeId="185" nameZh="下舊庄" seqNo="38" pgp="0" terminal="0" districtId="1" GoBack="1" latitude="24.29275" longitude="120.63047" inDis="50" outDis="50" oid="12262" /><Stop Id="2271" routeId="185" nameZh="良逸公司" seqNo="39" pgp="0" terminal="0" districtId="1" GoBack="1" latitude="24.29249" longitude="120.62546" inDis="50" outDis="50" oid="5805" /><Stop Id="2807" routeId="185" nameZh="海風里" seqNo="40" pgp="0" terminal="0" districtId="1" GoBack="1" latitude="24.29252" longitude="120.61939" inDis="50" outDis="50" oid="6125" /><Stop Id="3448" routeId="185" nameZh="楊厝里" seqNo="41" pgp="0" terminal="0" districtId="1" GoBack="1" latitude="24.28907" longitude="120.61558" inDis="50" outDis="50" oid="6466" /><Stop Id="1203" routeId="185" nameZh="下楊厝里" seqNo="42" pgp="0" terminal="0" districtId="1" GoBack="1" latitude="24.28594" longitude="120.6133" inDis="50" outDis="50" oid="5155" /><Stop Id="4955" routeId="185" nameZh="許厝寮" seqNo="43" pgp="0" terminal="0" districtId="1" GoBack="1" latitude="24.27944" longitude="120.61289" inDis="50" outDis="50" oid="17809" /><Stop Id="3119" routeId="185" nameZh="頂吳厝里" seqNo="44" pgp="0" terminal="0" districtId="1" GoBack="1" latitude="24.27616" longitude="120.61116" inDis="50" outDis="50" oid="6294" /><Stop Id="3434" routeId="185" nameZh="新興社區" seqNo="45" pgp="0" terminal="0" districtId="1" GoBack="1" latitude="24.26934" longitude="120.60769" inDis="50" outDis="50" oid="6454" /><Stop Id="2223" routeId="185" nameZh="吳厝里" seqNo="46" pgp="0" terminal="0" districtId="1" GoBack="1" latitude="24.2666" longitude="120.60631" inDis="50" outDis="50" oid="5781" /><Stop Id="3295" routeId="185" nameZh="澔明公司" seqNo="47" pgp="0" terminal="0" districtId="1" GoBack="1" latitude="24.26215" longitude="120.60402" inDis="50" outDis="50" oid="6370" /><Stop Id="5662" routeId="185" nameZh="中航和睦路口" seqNo="48" pgp="0" terminal="0" districtId="1" GoBack="1" latitude="24.2578" longitude="120.60119" inDis="50" outDis="50" oid="317773386" /><Stop Id="5381" routeId="185" nameZh="西勢十巷口" seqNo="49" pgp="0" terminal="0" districtId="1" GoBack="1" latitude="24.25557" longitude="120.60003" inDis="50" outDis="50" oid="312172944" /><Stop Id="0135" routeId="185" nameZh="臺中航空站" seqNo="50" pgp="0" terminal="0" districtId="1" GoBack="1" latitude="24.25348" longitude="120.59899" inDis="50" outDis="50" oid="312174380" /><Stop Id="5381" routeId="185" nameZh="西勢十巷口" seqNo="51" pgp="0" terminal="0" districtId="1" GoBack="1" latitude="24.25515" longitude="120.59992" inDis="50" outDis="50" oid="319604756" /><Stop Id="5662" routeId="185" nameZh="中航和睦路口" seqNo="52" pgp="0" terminal="0" districtId="1" GoBack="1" latitude="24.25767" longitude="120.60111" inDis="50" outDis="50" oid="319604757" /><Stop Id="2202" routeId="185" nameZh="西勢寮" seqNo="53" pgp="0" terminal="0" districtId="1" GoBack="1" latitude="24.25983" longitude="120.5988" inDis="50" outDis="50" oid="5768" /><Stop Id="4083" routeId="185" nameZh="公館國小" seqNo="54" pgp="0" terminal="0" districtId="1" GoBack="1" latitude="24.26084" longitude="120.59513" inDis="50" outDis="50" oid="13450" /><Stop Id="5033" routeId="185" nameZh="國仕加油站" seqNo="55" pgp="0" terminal="0" districtId="1" GoBack="1" latitude="24.26416" longitude="120.58787" inDis="50" outDis="50" oid="309555541" /><Stop Id="4137" routeId="185" nameZh="嘉陽高中" seqNo="56" pgp="0" terminal="0" districtId="1" GoBack="1" latitude="24.26578" longitude="120.58224" inDis="50" outDis="50" oid="13560" /><Stop Id="4119" routeId="185" nameZh="清水高中" seqNo="57" pgp="0" terminal="0" districtId="1" GoBack="1" latitude="24.2661" longitude="120.57435" inDis="50" outDis="50" oid="13526" /><Stop Id="5141" routeId="185" nameZh="華南銀行(清水分行)" seqNo="58" pgp="0" terminal="0" districtId="1" GoBack="1" latitude="24.2683" longitude="120.57516" inDis="50" outDis="50" oid="14057" /><Stop Id="3013" routeId="185" nameZh="清水" seqNo="59" pgp="0" terminal="0" districtId="1" GoBack="1" latitude="24.27125" longitude="120.57632" inDis="50" outDis="50" oid="6223" /><Stop Id="3013" routeId="185" nameZh="清水" seqNo="1" pgp="0" terminal="0" districtId="1" GoBack="2" latitude="24.27125" longitude="120.57632" inDis="50" outDis="50" oid="6223" /><Stop Id="5141" routeId="185" nameZh="華南銀行(清水分行)" seqNo="2" pgp="0" terminal="0" districtId="1" GoBack="2" latitude="24.2683" longitude="120.57516" inDis="50" outDis="50" oid="14057" /><Stop Id="4119" routeId="185" nameZh="清水高中" seqNo="3" pgp="0" terminal="0" districtId="1" GoBack="2" latitude="24.2661" longitude="120.57435" inDis="50" outDis="50" oid="13526" /><Stop Id="4137" routeId="185" nameZh="嘉陽高中" seqNo="4" pgp="0" terminal="0" districtId="1" GoBack="2" latitude="24.26578" longitude="120.58224" inDis="50" outDis="50" oid="13560" /><Stop Id="5033" routeId="185" nameZh="國仕加油站" seqNo="5" pgp="0" terminal="0" districtId="1" GoBack="2" latitude="24.26416" longitude="120.58787" inDis="50" outDis="50" oid="309555541" /><Stop Id="4083" routeId="185" nameZh="公館國小" seqNo="6" pgp="0" terminal="0" districtId="1" GoBack="2" latitude="24.26084" longitude="120.59513" inDis="50" outDis="50" oid="13450" /><Stop Id="2202" routeId="185" nameZh="西勢寮" seqNo="7" pgp="0" terminal="0" districtId="1" GoBack="2" latitude="24.25983" longitude="120.5988" inDis="50" outDis="50" oid="5768" /><Stop Id="5662" routeId="185" nameZh="中航和睦路口" seqNo="8" pgp="0" terminal="0" districtId="1" GoBack="2" latitude="24.25821" longitude="120.60129" inDis="50" outDis="50" oid="317773387" /><Stop Id="5381" routeId="185" nameZh="西勢十巷口" seqNo="9" pgp="0" terminal="0" districtId="1" GoBack="2" latitude="24.25557" longitude="120.60003" inDis="50" outDis="50" oid="312172944" /><Stop Id="0135" routeId="185" nameZh="臺中航空站" seqNo="10" pgp="0" terminal="0" districtId="1" GoBack="2" latitude="24.25348" longitude="120.59899" inDis="50" outDis="50" oid="312174380" /><Stop Id="5381" routeId="185" nameZh="西勢十巷口" seqNo="11" pgp="0" terminal="0" districtId="1" GoBack="2" latitude="24.25515" longitude="120.59992" inDis="50" outDis="50" oid="319604756" /><Stop Id="5662" routeId="185" nameZh="中航和睦路口" seqNo="12" pgp="0" terminal="0" districtId="1" GoBack="2" latitude="24.25767" longitude="120.60111" inDis="50" outDis="50" oid="319604757" /><Stop Id="3295" routeId="185" nameZh="澔明公司" seqNo="13" pgp="0" terminal="0" districtId="1" GoBack="2" latitude="24.26215" longitude="120.60402" inDis="50" outDis="50" oid="6370" /><Stop Id="2223" routeId="185" nameZh="吳厝里" seqNo="14" pgp="0" terminal="0" districtId="1" GoBack="2" latitude="24.2666" longitude="120.60631" inDis="50" outDis="50" oid="5781" /><Stop Id="3434" routeId="185" nameZh="新興社區" seqNo="15" pgp="0" terminal="0" districtId="1" GoBack="2" latitude="24.26934" longitude="120.60769" inDis="50" outDis="50" oid="6454" /><Stop Id="3119" routeId="185" nameZh="頂吳厝里" seqNo="16" pgp="0" terminal="0" districtId="1" GoBack="2" latitude="24.27616" longitude="120.61116" inDis="50" outDis="50" oid="6294" /><Stop Id="4955" routeId="185" nameZh="許厝寮" seqNo="17" pgp="0" terminal="0" districtId="1" GoBack="2" latitude="24.27944" longitude="120.61289" inDis="50" outDis="50" oid="17809" /><Stop Id="1203" routeId="185" nameZh="下楊厝里" seqNo="18" pgp="0" terminal="0" districtId="1" GoBack="2" latitude="24.28594" longitude="120.6133" inDis="50" outDis="50" oid="5155" /><Stop Id="3448" routeId="185" nameZh="楊厝里" seqNo="19" pgp="0" terminal="0" districtId="1" GoBack="2" latitude="24.28907" longitude="120.61558" inDis="50" outDis="50" oid="6466" /><Stop Id="2807" routeId="185" nameZh="海風里" seqNo="20" pgp="0" terminal="0" districtId="1" GoBack="2" latitude="24.29252" longitude="120.61939" inDis="50" outDis="50" oid="6125" /><Stop Id="2271" routeId="185" nameZh="良逸公司" seqNo="21" pgp="0" terminal="0" districtId="1" GoBack="2" latitude="24.29249" longitude="120.62546" inDis="50" outDis="50" oid="5805" /><Stop Id="1215" routeId="185" nameZh="下舊庄" seqNo="22" pgp="0" terminal="0" districtId="1" GoBack="2" latitude="24.29275" longitude="120.63047" inDis="50" outDis="50" oid="12262" /><Stop Id="3918" routeId="185" nameZh="舊庄" seqNo="23" pgp="0" terminal="0" districtId="1" GoBack="2" latitude="24.29045" longitude="120.63304" inDis="50" outDis="50" oid="12264" /><Stop Id="2951" routeId="185" nameZh="基登公司" seqNo="24" pgp="0" terminal="0" districtId="1" GoBack="2" latitude="24.28923" longitude="120.63268" inDis="50" outDis="50" oid="6186" /><Stop Id="4954" routeId="185" nameZh="榮憶公司" seqNo="25" pgp="0" terminal="0" districtId="1" GoBack="2" latitude="24.28281" longitude="120.63013" inDis="50" outDis="50" oid="17806" /><Stop Id="1775" routeId="185" nameZh="北東山" seqNo="26" pgp="0" terminal="0" districtId="1" GoBack="2" latitude="24.27808" longitude="120.62979" inDis="50" outDis="50" oid="5518" /><Stop Id="3393" routeId="185" nameZh="新村" seqNo="27" pgp="0" terminal="0" districtId="1" GoBack="2" latitude="24.27668" longitude="120.6311" inDis="50" outDis="50" oid="6428" /><Stop Id="3568" routeId="185" nameZh="僑昌公司" seqNo="28" pgp="0" terminal="0" districtId="1" GoBack="2" latitude="24.2748" longitude="120.63191" inDis="50" outDis="50" oid="6522" /><Stop Id="2381" routeId="185" nameZh="東山" seqNo="29" pgp="0" terminal="0" districtId="1" GoBack="2" latitude="24.27325" longitude="120.63173" inDis="50" outDis="50" oid="5877" /><Stop Id="2384" routeId="185" nameZh="東山廟前" seqNo="30" pgp="0" terminal="0" districtId="1" GoBack="2" latitude="24.27265" longitude="120.63344" inDis="50" outDis="50" oid="5879" /><Stop Id="2024" routeId="185" nameZh="示範公墓" seqNo="31" pgp="0" terminal="0" districtId="1" GoBack="2" latitude="24.26985" longitude="120.64878" inDis="50" outDis="50" oid="5671" /><Stop Id="4953" routeId="185" nameZh="成都家園" seqNo="32" pgp="0" terminal="0" districtId="1" GoBack="2" latitude="24.27158" longitude="120.65336" inDis="50" outDis="50" oid="17805" /><Stop Id="4755" routeId="185" nameZh="圳堵里口" seqNo="33" pgp="0" terminal="0" districtId="1" GoBack="2" latitude="24.26864" longitude="120.65642" inDis="50" outDis="50" oid="307119931" /><Stop Id="3111" routeId="185" nameZh="頂圳前" seqNo="34" pgp="0" terminal="0" districtId="1" GoBack="2" latitude="24.26742" longitude="120.65595" inDis="50" outDis="50" oid="6290" /><Stop Id="2094" routeId="185" nameZh="圳前里" seqNo="35" pgp="0" terminal="0" districtId="1" GoBack="2" latitude="24.26399" longitude="120.65766" inDis="50" outDis="50" oid="5707" /><Stop Id="4962" routeId="185" nameZh="神圳國中" seqNo="36" pgp="0" terminal="0" districtId="1" GoBack="2" latitude="24.26062" longitude="120.65861" inDis="50" outDis="50" oid="308514219" /><Stop Id="2838" routeId="185" nameZh="神岡農會" seqNo="37" pgp="0" terminal="0" districtId="1" GoBack="2" latitude="24.25847" longitude="120.65858" inDis="50" outDis="50" oid="6142" /><Stop Id="2835" routeId="185" nameZh="神岡" seqNo="38" pgp="0" terminal="0" districtId="1" GoBack="2" latitude="24.25703" longitude="120.6593" inDis="50" outDis="50" oid="6139" /><Stop Id="2837" routeId="185" nameZh="神岡區公所" seqNo="39" pgp="0" terminal="0" districtId="1" GoBack="2" latitude="24.25771" longitude="120.66141" inDis="50" outDis="50" oid="6141" /><Stop Id="3066" routeId="185" nameZh="庄頭" seqNo="40" pgp="0" terminal="0" districtId="1" GoBack="2" latitude="24.25812" longitude="120.66294" inDis="50" outDis="50" oid="12270" /><Stop Id="1783" routeId="185" nameZh="北庄" seqNo="41" pgp="0" terminal="0" districtId="1" GoBack="2" latitude="24.25732" longitude="120.66832" inDis="50" outDis="50" oid="12271" /><Stop Id="3460" routeId="185" nameZh="中山溝心路口" seqNo="42" pgp="0" terminal="0" districtId="1" GoBack="2" latitude="24.25521" longitude="120.67224" inDis="50" outDis="50" oid="6474" /><Stop Id="3556" routeId="185" nameZh="電信局" seqNo="43" pgp="0" terminal="0" districtId="1" GoBack="2" latitude="24.25294" longitude="120.67387" inDis="50" outDis="50" oid="307752281" /><Stop Id="3655" routeId="185" nameZh="福華公司" seqNo="44" pgp="0" terminal="0" districtId="1" GoBack="2" latitude="24.25099" longitude="120.67622" inDis="50" outDis="50" oid="6552" /><Stop Id="3656" routeId="185" nameZh="福隆新村" seqNo="45" pgp="0" terminal="0" districtId="1" GoBack="2" latitude="24.24901" longitude="120.67946" inDis="50" outDis="50" oid="6553" /><Stop Id="2836" routeId="185" nameZh="神岡國中" seqNo="46" pgp="0" terminal="0" districtId="1" GoBack="2" latitude="24.24731" longitude="120.68146" inDis="50" outDis="50" oid="6140" /><Stop Id="2486" routeId="185" nameZh="社口" seqNo="47" pgp="0" terminal="0" districtId="1" GoBack="2" latitude="24.24668" longitude="120.68563" inDis="50" outDis="50" oid="5941" /><Stop Id="2700" routeId="185" nameZh="紅瓦厝口" seqNo="48" pgp="0" terminal="0" districtId="1" GoBack="2" latitude="24.2476" longitude="120.6896" inDis="50" outDis="50" oid="8031" /><Stop Id="2993" routeId="185" nameZh="望寮" seqNo="49" pgp="0" terminal="0" districtId="1" GoBack="2" latitude="24.24841" longitude="120.69323" inDis="50" outDis="50" oid="6203" /><Stop Id="5438" routeId="185" nameZh="岸裡國小" seqNo="50" pgp="0" terminal="0" districtId="1" GoBack="2" latitude="24.24871" longitude="120.69809" inDis="50" outDis="50" oid="12282" /><Stop Id="4498" routeId="185" nameZh="臺豐社區" seqNo="51" pgp="0" terminal="0" districtId="1" GoBack="2" latitude="24.249" longitude="120.70003" inDis="50" outDis="50" oid="13826" /><Stop Id="2489" routeId="185" nameZh="社皮鐵路巷" seqNo="52" pgp="0" terminal="0" districtId="1" GoBack="2" latitude="24.24951" longitude="120.70229" inDis="50" outDis="50" oid="8015" /><Stop Id="2349" routeId="185" nameZh="忠勤新村" seqNo="53" pgp="0" terminal="0" districtId="1" GoBack="2" latitude="24.24962" longitude="120.70434" inDis="50" outDis="50" oid="5856" /><Stop Id="1065" routeId="185" nameZh="三光新村" seqNo="54" pgp="0" terminal="0" districtId="1" GoBack="2" latitude="24.24999" longitude="120.70672" inDis="50" outDis="50" oid="5072" /><Stop Id="4448" routeId="185" nameZh="中正圓環西路口" seqNo="55" pgp="0" terminal="0" districtId="1" GoBack="2" latitude="24.25039" longitude="120.70963" inDis="50" outDis="50" oid="6688" /><Stop Id="3357" routeId="185" nameZh="慈龍寺" seqNo="56" pgp="0" terminal="0" districtId="1" GoBack="2" latitude="24.25079" longitude="120.712" inDis="50" outDis="50" oid="8065" /><Stop Id="3939" routeId="185" nameZh="豐原郵局" seqNo="57" pgp="0" terminal="0" districtId="1" GoBack="2" latitude="24.2514" longitude="120.71552" inDis="50" outDis="50" oid="12284" /><Stop Id="3343" routeId="185" nameZh="媽祖廟" seqNo="58" pgp="0" terminal="0" districtId="1" GoBack="2" latitude="24.25157" longitude="120.71851" inDis="50" outDis="50" oid="6396" /><Stop Id="2309" routeId="185" nameZh="和平街" seqNo="59" pgp="0" terminal="0" districtId="1" GoBack="2" latitude="24.25233" longitude="120.71986" inDis="50" outDis="50" oid="5835" /><Stop Id="3935" routeId="185" nameZh="豐原" seqNo="60" pgp="0" terminal="0" districtId="1" GoBack="2" latitude="24.2538" longitude="120.72154" inDis="70" outDis="70" oid="6693" /></BusInfo></BusDynInfo>