<?xml version="1.0" encoding="UTF-8" standalone="yes"?>
<BusDynInfo><EssentialInfo><Location><name>TCBUS</name><CenterName>Maxwin</CenterName></Location><UpdateTime>2014-12-20 07:38:45</UpdateTime><CoordinateSystem/></EssentialInfo>
<BusInfo><Stop Id="4399" routeId="59" nameZh="新民高中(三民路)" seqNo="1" pgp="0" terminal="0" districtId="1" GoBack="1" latitude="24.1564" longitude="120.68823" inDis="75" outDis="75" oid="11136" /><Stop Id="4520" routeId="59" nameZh="文英兒童公園" seqNo="2" pgp="0" terminal="0" districtId="1" GoBack="1" latitude="24.15652" longitude="120.68941" inDis="50" outDis="50" oid="305458530" /><Stop Id="4694" routeId="59" nameZh="臺灣體大體育場" seqNo="3" pgp="0" terminal="0" districtId="1" GoBack="1" latitude="24.15269" longitude="120.68866" inDis="50" outDis="50" oid="303563766" /><Stop Id="0149" routeId="59" nameZh="臺中一中" seqNo="4" pgp="0" terminal="0" districtId="1" GoBack="1" latitude="24.14955" longitude="120.68736" inDis="50" outDis="50" oid="10661" /><Stop Id="4695" routeId="59" nameZh="臺灣體大游泳池" seqNo="5" pgp="0" terminal="0" districtId="1" GoBack="1" latitude="24.1466" longitude="120.68624" inDis="50" outDis="50" oid="303563767" /><Stop Id="4544" routeId="59" nameZh="臺中公園(雙十路)" seqNo="6" pgp="0" terminal="0" districtId="1" GoBack="1" latitude="24.14466" longitude="120.68617" inDis="50" outDis="50" oid="303563768" /><Stop Id="0402" routeId="59" nameZh="干城站" seqNo="7" pgp="0" terminal="0" districtId="1" GoBack="1" latitude="24.14253" longitude="120.68567" inDis="50" outDis="50" oid="13087" /><Stop Id="1824" routeId="59" nameZh="臺中火車站" seqNo="8" pgp="0" terminal="0" districtId="1" GoBack="1" latitude="24.13818" longitude="120.6855" inDis="50" outDis="50" oid="13136" /><Stop Id="4284" routeId="59" nameZh="民權繼光街口" seqNo="9" pgp="0" terminal="0" districtId="1" GoBack="1" latitude="24.13702" longitude="120.68087" inDis="50" outDis="50" oid="13146" /><Stop Id="0071" routeId="59" nameZh="臺中女中" seqNo="10" pgp="0" terminal="0" districtId="1" GoBack="1" latitude="24.13595" longitude="120.67793" inDis="50" outDis="50" oid="13134" /><Stop Id="0070" routeId="59" nameZh="地方法院" seqNo="11" pgp="0" terminal="0" districtId="1" GoBack="1" latitude="24.13487" longitude="120.67675" inDis="50" outDis="50" oid="13160" /><Stop Id="4313" routeId="59" nameZh="醒修宮" seqNo="12" pgp="0" terminal="0" districtId="1" GoBack="1" latitude="24.13078" longitude="120.67687" inDis="50" outDis="50" oid="13240" /><Stop Id="0735" routeId="59" nameZh="恩光堂" seqNo="13" pgp="0" terminal="0" districtId="1" GoBack="1" latitude="24.12747" longitude="120.67862" inDis="50" outDis="50" oid="13190" /><Stop Id="0038" routeId="59" nameZh="國光國小" seqNo="14" pgp="0" terminal="0" districtId="1" GoBack="1" latitude="24.12588" longitude="120.67903" inDis="50" outDis="50" oid="13212" /><Stop Id="4347" routeId="59" nameZh="中興大學(國光路)" seqNo="15" pgp="0" terminal="0" districtId="1" GoBack="1" latitude="24.12133" longitude="120.6794" inDis="50" outDis="50" oid="DE2C6BA3BE8942E79BA0CABF1CF65AE0" /><Stop Id="4292" routeId="59" nameZh="國光忠明南路口" seqNo="16" pgp="0" terminal="0" districtId="1" GoBack="1" latitude="24.1183" longitude="120.67915" inDis="50" outDis="50" oid="13206" /><Stop Id="2930" routeId="59" nameZh="國光橋" seqNo="17" pgp="0" terminal="0" districtId="1" GoBack="1" latitude="24.11585" longitude="120.67918" inDis="50" outDis="50" oid="13216" /><Stop Id="4293" routeId="59" nameZh="國光東興路口" seqNo="18" pgp="0" terminal="0" districtId="1" GoBack="1" latitude="24.11363" longitude="120.67894" inDis="50" outDis="50" oid="13208" /><Stop Id="1558" routeId="59" nameZh="大里仁愛醫院" seqNo="19" pgp="0" terminal="0" districtId="1" GoBack="1" latitude="24.10855" longitude="120.67987" inDis="50" outDis="50" oid="13104" /><Stop Id="4294" routeId="59" nameZh="國光德芳路口" seqNo="20" pgp="0" terminal="0" districtId="1" GoBack="1" latitude="24.10532" longitude="120.68087" inDis="50" outDis="50" oid="13214" /><Stop Id="2928" routeId="59" nameZh="國光花市" seqNo="21" pgp="0" terminal="0" districtId="1" GoBack="1" latitude="24.10348" longitude="120.68128" inDis="50" outDis="50" oid="13210" /><Stop Id="5128" routeId="59" nameZh="國光大里路口" seqNo="22" pgp="0" terminal="0" districtId="1" GoBack="1" latitude="24.10003" longitude="120.68268" inDis="80" outDis="80" oid="13074" /><Stop Id="4920" routeId="59" nameZh="大里區公所" seqNo="23" pgp="0" terminal="0" districtId="1" GoBack="1" latitude="24.09933" longitude="120.67953" inDis="50" outDis="50" oid="308835165" /><Stop Id="4921" routeId="59" nameZh="東里國中路口" seqNo="24" pgp="0" terminal="0" districtId="1" GoBack="1" latitude="24.09567" longitude="120.6792" inDis="50" outDis="50" oid="308835167" /><Stop Id="4922" routeId="59" nameZh="市立大里高中" seqNo="25" pgp="0" terminal="0" districtId="1" GoBack="1" latitude="24.09573" longitude="120.68049" inDis="110" outDis="110" oid="308835169" /><Stop Id="4923" routeId="59" nameZh="臺電大里服務所" seqNo="26" pgp="0" terminal="0" districtId="1" GoBack="1" latitude="24.09608" longitude="120.68196" inDis="50" outDis="50" oid="308835171" /><Stop Id="5087" routeId="59" nameZh="大突寮(國中路)" seqNo="27" pgp="0" terminal="0" districtId="1" GoBack="1" latitude="24.09539" longitude="120.68529" inDis="50" outDis="50" oid="7225" /><Stop Id="4950" routeId="59" nameZh="仁化中興路口" seqNo="28" pgp="0" terminal="0" districtId="1" GoBack="1" latitude="24.09196" longitude="120.69139" inDis="50" outDis="50" oid="304725405" /><Stop Id="4924" routeId="59" nameZh="仁化垂統街口" seqNo="29" pgp="0" terminal="0" districtId="1" GoBack="1" latitude="24.0899" longitude="120.69039" inDis="50" outDis="50" oid="308835173" /><Stop Id="4925" routeId="59" nameZh="大峰長春路口" seqNo="30" pgp="0" terminal="0" districtId="1" GoBack="1" latitude="24.08557" longitude="120.68773" inDis="50" outDis="50" oid="308835175" /><Stop Id="4926" routeId="59" nameZh="大峰景庄街口" seqNo="31" pgp="0" terminal="0" districtId="1" GoBack="1" latitude="24.08285" longitude="120.6882" inDis="50" outDis="50" oid="308835177" /><Stop Id="4927" routeId="59" nameZh="大峰西湖路口" seqNo="32" pgp="0" terminal="0" districtId="1" GoBack="1" latitude="24.07834" longitude="120.68896" inDis="50" outDis="50" oid="308835179" /><Stop Id="4928" routeId="59" nameZh="甲寅福德正神廟" seqNo="33" pgp="0" terminal="0" districtId="1" GoBack="1" latitude="24.07275" longitude="120.69401" inDis="50" outDis="50" oid="308835181" /><Stop Id="4929" routeId="59" nameZh="草湖林森路口" seqNo="34" pgp="0" terminal="0" districtId="1" GoBack="1" latitude="24.07076" longitude="120.69621" inDis="50" outDis="50" oid="308835183" /><Stop Id="3512" routeId="59" nameZh="聖賢宮" seqNo="35" pgp="0" terminal="0" districtId="1" GoBack="1" latitude="24.06585" longitude="120.6958" inDis="50" outDis="50" oid="6496" /><Stop Id="4930" routeId="59" nameZh="霧峰農會" seqNo="36" pgp="0" terminal="0" districtId="1" GoBack="1" latitude="24.06471" longitude="120.69797" inDis="50" outDis="50" oid="308835185" /><Stop Id="3972" routeId="59" nameZh="霧峰" seqNo="37" pgp="0" terminal="0" districtId="1" GoBack="1" latitude="24.06383" longitude="120.69852" inDis="50" outDis="50" oid="13245" /><Stop Id="3978" routeId="59" nameZh="霧峰郵局" seqNo="38" pgp="0" terminal="0" districtId="1" GoBack="1" latitude="24.06197" longitude="120.69829" inDis="50" outDis="50" oid="8108" /><Stop Id="5546" routeId="59" nameZh="教育部國教署" seqNo="39" pgp="0" terminal="0" districtId="1" GoBack="1" latitude="24.05932" longitude="120.69799" inDis="50" outDis="50" oid="316462697" /><Stop Id="3976" routeId="59" nameZh="霧峰國小" seqNo="40" pgp="0" terminal="0" districtId="1" GoBack="1" latitude="24.05745" longitude="120.6977" inDis="50" outDis="50" oid="13247" /><Stop Id="2692" routeId="59" nameZh="省議會" seqNo="41" pgp="0" terminal="0" districtId="1" GoBack="1" latitude="24.05527" longitude="120.69688" inDis="50" outDis="50" oid="13185" /><Stop Id="1026" routeId="59" nameZh="八德橋" seqNo="42" pgp="0" terminal="0" districtId="1" GoBack="1" latitude="24.05028" longitude="120.6942" inDis="50" outDis="50" oid="13057" /><Stop Id="2048" routeId="59" nameZh="光復新村" seqNo="43" pgp="0" terminal="0" districtId="1" GoBack="1" latitude="24.04513" longitude="120.69213" inDis="50" outDis="50" oid="13153" /><Stop Id="1588" routeId="59" nameZh="六股" seqNo="44" pgp="0" terminal="0" districtId="1" GoBack="1" latitude="24.04164" longitude="120.69187" inDis="50" outDis="50" oid="5403" /><Stop Id="1400" routeId="59" nameZh="山腳巷" seqNo="45" pgp="0" terminal="0" districtId="1" GoBack="1" latitude="24.03852" longitude="120.69304" inDis="50" outDis="50" oid="5295" /><Stop Id="2304" routeId="59" nameZh="味全工廠" seqNo="46" pgp="0" terminal="0" districtId="1" GoBack="1" latitude="24.0347" longitude="120.69372" inDis="50" outDis="50" oid="5828" /><Stop Id="3533" routeId="59" nameZh="農試所" seqNo="47" pgp="0" terminal="0" districtId="1" GoBack="1" latitude="24.02934" longitude="120.6968" inDis="50" outDis="50" oid="6504" /><Stop Id="3504" routeId="59" nameZh="萬豐" seqNo="48" pgp="0" terminal="0" districtId="1" GoBack="1" latitude="24.02653" longitude="120.69683" inDis="50" outDis="50" oid="6493" /><Stop Id="4410" routeId="59" nameZh="全家福社區" seqNo="49" pgp="0" terminal="0" districtId="1" GoBack="1" latitude="24.0241" longitude="120.69662" inDis="50" outDis="50" oid="304286678" /><Stop Id="3944" routeId="59" nameZh="豐營" seqNo="50" pgp="0" terminal="0" districtId="1" GoBack="1" latitude="24.02091" longitude="120.69632" inDis="50" outDis="50" oid="311348105" /><Stop Id="3534" routeId="59" nameZh="農試所宿舍" seqNo="51" pgp="0" terminal="0" districtId="1" GoBack="1" latitude="24.0173" longitude="120.69604" inDis="50" outDis="50" oid="6505" /><Stop Id="3911" routeId="59" nameZh="舊正(烏溪橋頭)" seqNo="52" pgp="0" terminal="0" districtId="1" GoBack="1" latitude="24.01448" longitude="120.69571" inDis="50" outDis="50" oid="6681" /><Stop Id="3911" routeId="59" nameZh="舊正(烏溪橋頭)" seqNo="1" pgp="0" terminal="0" districtId="1" GoBack="2" latitude="24.01476" longitude="120.6957" inDis="50" outDis="50" oid="6682" /><Stop Id="3534" routeId="59" nameZh="農試所宿舍" seqNo="2" pgp="0" terminal="0" districtId="1" GoBack="2" latitude="24.01868" longitude="120.69601" inDis="50" outDis="50" oid="8079" /><Stop Id="3944" routeId="59" nameZh="豐營" seqNo="3" pgp="0" terminal="0" districtId="1" GoBack="2" latitude="24.02091" longitude="120.69632" inDis="50" outDis="50" oid="311348105" /><Stop Id="4410" routeId="59" nameZh="全家福社區" seqNo="4" pgp="0" terminal="0" districtId="1" GoBack="2" latitude="24.02414" longitude="120.69653" inDis="50" outDis="50" oid="304286679" /><Stop Id="3504" routeId="59" nameZh="萬豐" seqNo="5" pgp="0" terminal="0" districtId="1" GoBack="2" latitude="24.0259" longitude="120.6967" inDis="50" outDis="50" oid="6494" /><Stop Id="3533" routeId="59" nameZh="農試所" seqNo="6" pgp="0" terminal="0" districtId="1" GoBack="2" latitude="24.02948" longitude="120.69681" inDis="50" outDis="50" oid="9898" /><Stop Id="2304" routeId="59" nameZh="味全工廠" seqNo="7" pgp="0" terminal="0" districtId="1" GoBack="2" latitude="24.0341" longitude="120.69407" inDis="50" outDis="50" oid="7101" /><Stop Id="1400" routeId="59" nameZh="山腳巷" seqNo="8" pgp="0" terminal="0" districtId="1" GoBack="2" latitude="24.03852" longitude="120.69304" inDis="50" outDis="50" oid="7929" /><Stop Id="1588" routeId="59" nameZh="六股" seqNo="9" pgp="0" terminal="0" districtId="1" GoBack="2" latitude="24.04138" longitude="120.69181" inDis="50" outDis="50" oid="5404" /><Stop Id="2048" routeId="59" nameZh="光復新村" seqNo="10" pgp="0" terminal="0" districtId="1" GoBack="2" latitude="24.04548" longitude="120.6924" inDis="50" outDis="50" oid="13154" /><Stop Id="1026" routeId="59" nameZh="八德橋" seqNo="11" pgp="0" terminal="0" districtId="1" GoBack="2" latitude="24.05077" longitude="120.69462" inDis="50" outDis="50" oid="13058" /><Stop Id="2692" routeId="59" nameZh="省議會" seqNo="12" pgp="0" terminal="0" districtId="1" GoBack="2" latitude="24.05493" longitude="120.69683" inDis="50" outDis="50" oid="13186" /><Stop Id="3976" routeId="59" nameZh="霧峰國小" seqNo="13" pgp="0" terminal="0" districtId="1" GoBack="2" latitude="24.05787" longitude="120.6979" inDis="50" outDis="50" oid="13248" /><Stop Id="5546" routeId="59" nameZh="教育部國教署" seqNo="14" pgp="0" terminal="0" districtId="1" GoBack="2" latitude="24.05974" longitude="120.69807" inDis="50" outDis="50" oid="316462698" /><Stop Id="3978" routeId="59" nameZh="霧峰郵局" seqNo="15" pgp="0" terminal="0" districtId="1" GoBack="2" latitude="24.06197" longitude="120.69829" inDis="50" outDis="50" oid="8108" /><Stop Id="3972" routeId="59" nameZh="霧峰" seqNo="16" pgp="0" terminal="0" districtId="1" GoBack="2" latitude="24.0635" longitude="120.69862" inDis="50" outDis="50" oid="13246" /><Stop Id="4930" routeId="59" nameZh="霧峰農會" seqNo="17" pgp="0" terminal="0" districtId="1" GoBack="2" latitude="24.06465" longitude="120.69791" inDis="50" outDis="50" oid="308835186" /><Stop Id="3512" routeId="59" nameZh="聖賢宮" seqNo="18" pgp="0" terminal="0" districtId="1" GoBack="2" latitude="24.06585" longitude="120.6958" inDis="50" outDis="50" oid="6496" /><Stop Id="4929" routeId="59" nameZh="草湖林森路口" seqNo="19" pgp="0" terminal="0" districtId="1" GoBack="2" latitude="24.07076" longitude="120.69621" inDis="50" outDis="50" oid="308835184" /><Stop Id="4928" routeId="59" nameZh="甲寅福德正神廟" seqNo="20" pgp="0" terminal="0" districtId="1" GoBack="2" latitude="24.0725" longitude="120.69481" inDis="50" outDis="50" oid="308835182" /><Stop Id="4927" routeId="59" nameZh="大峰西湖路口" seqNo="21" pgp="0" terminal="0" districtId="1" GoBack="2" latitude="24.07746" longitude="120.68926" inDis="50" outDis="50" oid="308835180" /><Stop Id="4926" routeId="59" nameZh="大峰景庄街口" seqNo="22" pgp="0" terminal="0" districtId="1" GoBack="2" latitude="24.08289" longitude="120.68833" inDis="50" outDis="50" oid="308835178" /><Stop Id="4925" routeId="59" nameZh="大峰長春路口" seqNo="23" pgp="0" terminal="0" districtId="1" GoBack="2" latitude="24.0856" longitude="120.68775" inDis="50" outDis="50" oid="308835176" /><Stop Id="4924" routeId="59" nameZh="仁化垂統街口" seqNo="24" pgp="0" terminal="0" districtId="1" GoBack="2" latitude="24.08979" longitude="120.69052" inDis="50" outDis="50" oid="308835174" /><Stop Id="4950" routeId="59" nameZh="仁化中興路口" seqNo="25" pgp="0" terminal="0" districtId="1" GoBack="2" latitude="24.09201" longitude="120.69132" inDis="50" outDis="50" oid="304725406" /><Stop Id="5087" routeId="59" nameZh="大突寮(國中路)" seqNo="26" pgp="0" terminal="0" districtId="1" GoBack="2" latitude="24.09539" longitude="120.68529" inDis="50" outDis="50" oid="7225" /><Stop Id="4923" routeId="59" nameZh="臺電大里服務所" seqNo="27" pgp="0" terminal="0" districtId="1" GoBack="2" latitude="24.09608" longitude="120.68183" inDis="50" outDis="50" oid="308835172" /><Stop Id="4922" routeId="59" nameZh="市立大里高中" seqNo="28" pgp="0" terminal="0" districtId="1" GoBack="2" latitude="24.09565" longitude="120.68032" inDis="50" outDis="50" oid="308835170" /><Stop Id="4921" routeId="59" nameZh="東里國中路口" seqNo="29" pgp="0" terminal="0" districtId="1" GoBack="2" latitude="24.09683" longitude="120.6788" inDis="50" outDis="50" oid="308835168" /><Stop Id="4920" routeId="59" nameZh="大里區公所" seqNo="30" pgp="0" terminal="0" districtId="1" GoBack="2" latitude="24.09931" longitude="120.67951" inDis="50" outDis="50" oid="308835166" /><Stop Id="5128" routeId="59" nameZh="國光大里路口" seqNo="31" pgp="0" terminal="0" districtId="1" GoBack="2" latitude="24.09991" longitude="120.68277" inDis="50" outDis="50" oid="13073" /><Stop Id="2928" routeId="59" nameZh="國光花市" seqNo="32" pgp="0" terminal="0" districtId="1" GoBack="2" latitude="24.10312" longitude="120.68185" inDis="50" outDis="50" oid="13209" /><Stop Id="4294" routeId="59" nameZh="國光德芳路口" seqNo="33" pgp="0" terminal="0" districtId="1" GoBack="2" latitude="24.10522" longitude="120.68123" inDis="50" outDis="50" oid="13213" /><Stop Id="1558" routeId="59" nameZh="大里仁愛醫院" seqNo="34" pgp="0" terminal="0" districtId="1" GoBack="2" latitude="24.10967" longitude="120.67988" inDis="50" outDis="50" oid="13103" /><Stop Id="4293" routeId="59" nameZh="國光東興路口" seqNo="35" pgp="0" terminal="0" districtId="1" GoBack="2" latitude="24.11463" longitude="120.67929" inDis="50" outDis="50" oid="13207" /><Stop Id="2930" routeId="59" nameZh="國光橋" seqNo="36" pgp="0" terminal="0" districtId="1" GoBack="2" latitude="24.11588" longitude="120.67947" inDis="50" outDis="50" oid="13215" /><Stop Id="4292" routeId="59" nameZh="國光忠明南路口" seqNo="37" pgp="0" terminal="0" districtId="1" GoBack="2" latitude="24.11823" longitude="120.67943" inDis="50" outDis="50" oid="13205" /><Stop Id="4347" routeId="59" nameZh="中興大學(國光路)" seqNo="38" pgp="0" terminal="0" districtId="1" GoBack="2" latitude="24.12135" longitude="120.67925" inDis="50" outDis="50" oid="FFADDB58C7DD4E5C9DF0726DEE651794" /><Stop Id="0038" routeId="59" nameZh="國光國小" seqNo="39" pgp="0" terminal="0" districtId="1" GoBack="2" latitude="24.1259" longitude="120.67947" inDis="50" outDis="50" oid="13211" /><Stop Id="0735" routeId="59" nameZh="恩光堂" seqNo="40" pgp="0" terminal="0" districtId="1" GoBack="2" latitude="24.12747" longitude="120.67897" inDis="50" outDis="50" oid="13189" /><Stop Id="4313" routeId="59" nameZh="醒修宮" seqNo="41" pgp="0" terminal="0" districtId="1" GoBack="2" latitude="24.13018" longitude="120.67757" inDis="50" outDis="50" oid="13239" /><Stop Id="0070" routeId="59" nameZh="地方法院" seqNo="42" pgp="0" terminal="0" districtId="1" GoBack="2" latitude="24.13407" longitude="120.67605" inDis="50" outDis="50" oid="13159" /><Stop Id="0071" routeId="59" nameZh="臺中女中" seqNo="43" pgp="0" terminal="0" districtId="1" GoBack="2" latitude="24.13593" longitude="120.67802" inDis="50" outDis="50" oid="13133" /><Stop Id="4284" routeId="59" nameZh="民權繼光街口" seqNo="44" pgp="0" terminal="0" districtId="1" GoBack="2" latitude="24.1369" longitude="120.68105" inDis="50" outDis="50" oid="13145" /><Stop Id="1824" routeId="59" nameZh="臺中火車站" seqNo="45" pgp="0" terminal="0" districtId="1" GoBack="2" latitude="24.1374" longitude="120.6848" inDis="50" outDis="50" oid="13135" /><Stop Id="0402" routeId="59" nameZh="干城站" seqNo="46" pgp="0" terminal="0" districtId="1" GoBack="2" latitude="24.1408" longitude="120.68613" inDis="50" outDis="50" oid="13088" /><Stop Id="4544" routeId="59" nameZh="臺中公園(雙十路)" seqNo="47" pgp="0" terminal="0" districtId="1" GoBack="2" latitude="24.14466" longitude="120.68617" inDis="50" outDis="50" oid="303563768" /><Stop Id="4695" routeId="59" nameZh="臺灣體大游泳池" seqNo="48" pgp="0" terminal="0" districtId="1" GoBack="2" latitude="24.1466" longitude="120.68624" inDis="50" outDis="50" oid="303563767" /><Stop Id="0149" routeId="59" nameZh="臺中一中" seqNo="49" pgp="0" terminal="0" districtId="1" GoBack="2" latitude="24.14943" longitude="120.68753" inDis="50" outDis="50" oid="10662" /><Stop Id="4694" routeId="59" nameZh="臺灣體大體育場" seqNo="50" pgp="0" terminal="0" districtId="1" GoBack="2" latitude="24.15269" longitude="120.68866" inDis="50" outDis="50" oid="303563766" /><Stop Id="0048" routeId="59" nameZh="莒光新城" seqNo="51" pgp="0" terminal="0" districtId="1" GoBack="2" latitude="24.15401" longitude="120.68797" inDis="50" outDis="50" oid="12624" /><Stop Id="4399" routeId="59" nameZh="新民高中(三民路)" seqNo="52" pgp="0" terminal="0" districtId="1" GoBack="2" latitude="24.15636" longitude="120.68819" inDis="50" outDis="50" oid="6AC85734A6F54FBCA2759A51E0CE31BE" /></BusInfo></BusDynInfo>