<?xml version="1.0" encoding="UTF-8" standalone="yes"?>
<BusDynInfo><EssentialInfo><Location><name>TCBUS</name><CenterName>Maxwin</CenterName></Location><UpdateTime>2014-12-20 08:20:58</UpdateTime><CoordinateSystem/></EssentialInfo>
<BusInfo><Stop Id="3935" routeId="227" nameZh="豐原" seqNo="1" pgp="0" terminal="0" districtId="1" GoBack="1" latitude="24.2538" longitude="120.72154" inDis="70" outDis="70" oid="6693" /><Stop Id="2097" routeId="227" nameZh="圳寮口" seqNo="2" pgp="0" terminal="0" districtId="1" GoBack="1" latitude="24.25276" longitude="120.71612" inDis="50" outDis="50" oid="5712" /><Stop Id="3939" routeId="227" nameZh="豐原郵局" seqNo="3" pgp="0" terminal="0" districtId="1" GoBack="1" latitude="24.25136" longitude="120.71526" inDis="50" outDis="50" oid="6698" /><Stop Id="3343" routeId="227" nameZh="媽祖廟" seqNo="4" pgp="0" terminal="0" districtId="1" GoBack="1" latitude="24.25157" longitude="120.71851" inDis="50" outDis="50" oid="6397" /><Stop Id="4203" routeId="227" nameZh="新都酒店" seqNo="5" pgp="0" terminal="0" districtId="1" GoBack="1" latitude="24.25229" longitude="120.72365" inDis="50" outDis="50" oid="6448" /><Stop Id="3238" routeId="227" nameZh="惠陽中陽路口" seqNo="6" pgp="0" terminal="0" districtId="1" GoBack="1" latitude="24.25075" longitude="120.72414" inDis="50" outDis="50" oid="6341" /><Stop Id="2607" routeId="227" nameZh="南陽國小" seqNo="7" pgp="0" terminal="0" districtId="1" GoBack="1" latitude="24.24911" longitude="120.7227" inDis="50" outDis="50" oid="6007" /><Stop Id="2269" routeId="227" nameZh="育樂新村" seqNo="8" pgp="0" terminal="0" districtId="1" GoBack="1" latitude="24.24764" longitude="120.72343" inDis="50" outDis="50" oid="5804" /><Stop Id="5142" routeId="227" nameZh="陽明自強南街口" seqNo="9" pgp="0" terminal="0" districtId="1" GoBack="1" latitude="24.24603" longitude="120.72278" inDis="50" outDis="50" oid="6629" /><Stop Id="4966" routeId="227" nameZh="豐原醫院" seqNo="10" pgp="0" terminal="0" districtId="1" GoBack="1" latitude="24.24326" longitude="120.7254" inDis="50" outDis="50" oid="308875007" /><Stop Id="1946" routeId="227" nameZh="永康南陽路口" seqNo="11" pgp="0" terminal="0" districtId="1" GoBack="1" latitude="24.24384" longitude="120.72749" inDis="50" outDis="50" oid="5618" /><Stop Id="1611" routeId="227" nameZh="廣福宮" seqNo="12" pgp="0" terminal="0" districtId="1" GoBack="1" latitude="24.24407" longitude="120.72918" inDis="50" outDis="50" oid="5418" /><Stop Id="2610" routeId="227" nameZh="南陽橋" seqNo="13" pgp="0" terminal="0" districtId="1" GoBack="1" latitude="24.24258" longitude="120.73049" inDis="50" outDis="50" oid="6010" /><Stop Id="1524" routeId="227" nameZh="南陽綠山巷口" seqNo="14" pgp="0" terminal="0" districtId="1" GoBack="1" latitude="24.24185" longitude="120.73244" inDis="50" outDis="50" oid="5364" /><Stop Id="5593" routeId="227" nameZh="福陽國小" seqNo="15" pgp="0" terminal="0" districtId="1" GoBack="1" latitude="24.24168" longitude="120.73512" inDis="100" outDis="100" oid="88893385" /><Stop Id="3687" routeId="227" nameZh="綠山莊口" seqNo="16" pgp="0" terminal="0" districtId="1" GoBack="1" latitude="24.24059" longitude="120.73307" inDis="50" outDis="50" oid="6576" /><Stop Id="2471" routeId="227" nameZh="武明山" seqNo="17" pgp="0" terminal="0" districtId="1" GoBack="1" latitude="24.23797" longitude="120.73458" inDis="50" outDis="50" oid="5930" /><Stop Id="2283" routeId="227" nameZh="車程" seqNo="18" pgp="0" terminal="0" districtId="1" GoBack="1" latitude="24.23681" longitude="120.73504" inDis="50" outDis="50" oid="5812" /><Stop Id="2427" routeId="227" nameZh="東陽橋" seqNo="19" pgp="0" terminal="0" districtId="1" GoBack="1" latitude="24.23593" longitude="120.73683" inDis="50" outDis="50" oid="5897" /><Stop Id="2076" routeId="227" nameZh="吊橋頭" seqNo="20" pgp="0" terminal="0" districtId="1" GoBack="1" latitude="24.23515" longitude="120.73833" inDis="50" outDis="50" oid="5701" /><Stop Id="3987" routeId="227" nameZh="寶泉犬舍" seqNo="21" pgp="0" terminal="0" districtId="1" GoBack="1" latitude="24.23689" longitude="120.73971" inDis="50" outDis="50" oid="6729" /><Stop Id="1013" routeId="227" nameZh="二號橋" seqNo="22" pgp="0" terminal="0" districtId="1" GoBack="1" latitude="24.23622" longitude="120.74192" inDis="50" outDis="50" oid="5036" /><Stop Id="2675" routeId="227" nameZh="活動中心" seqNo="23" pgp="0" terminal="0" districtId="1" GoBack="1" latitude="24.23456" longitude="120.74395" inDis="50" outDis="50" oid="6035" /><Stop Id="3695" routeId="227" nameZh="豪傑山莊" seqNo="24" pgp="0" terminal="0" districtId="1" GoBack="1" latitude="24.23398" longitude="120.74662" inDis="50" outDis="50" oid="6583" /><Stop Id="2259" routeId="227" nameZh="東陽泉洲巷口" seqNo="25" pgp="0" terminal="0" districtId="1" GoBack="1" latitude="24.23319" longitude="120.74757" inDis="50" outDis="50" oid="5798" /><Stop Id="1740" routeId="227" nameZh="東陽太坑巷口" seqNo="27" pgp="0" terminal="0" districtId="1" GoBack="1" latitude="24.23008" longitude="120.75248" inDis="50" outDis="50" oid="5502" /><Stop Id="2426" routeId="227" nameZh="東陽里" seqNo="28" pgp="0" terminal="0" districtId="1" GoBack="1" latitude="24.22667" longitude="120.75431" inDis="50" outDis="50" oid="5896" /><Stop Id="2426" routeId="227" nameZh="東陽里" seqNo="1" pgp="0" terminal="0" districtId="1" GoBack="2" latitude="24.22667" longitude="120.75431" inDis="50" outDis="50" oid="5896" /><Stop Id="1740" routeId="227" nameZh="東陽太坑巷口" seqNo="2" pgp="0" terminal="0" districtId="1" GoBack="2" latitude="24.23008" longitude="120.75248" inDis="50" outDis="50" oid="5502" /><Stop Id="2259" routeId="227" nameZh="東陽泉洲巷口" seqNo="4" pgp="0" terminal="0" districtId="1" GoBack="2" latitude="24.23319" longitude="120.74757" inDis="50" outDis="50" oid="5798" /><Stop Id="3695" routeId="227" nameZh="豪傑山莊" seqNo="5" pgp="0" terminal="0" districtId="1" GoBack="2" latitude="24.23398" longitude="120.74662" inDis="50" outDis="50" oid="6583" /><Stop Id="2675" routeId="227" nameZh="活動中心" seqNo="6" pgp="0" terminal="0" districtId="1" GoBack="2" latitude="24.23456" longitude="120.74395" inDis="50" outDis="50" oid="6035" /><Stop Id="1013" routeId="227" nameZh="二號橋" seqNo="7" pgp="0" terminal="0" districtId="1" GoBack="2" latitude="24.23622" longitude="120.74192" inDis="50" outDis="50" oid="5036" /><Stop Id="3987" routeId="227" nameZh="寶泉犬舍" seqNo="8" pgp="0" terminal="0" districtId="1" GoBack="2" latitude="24.23689" longitude="120.73971" inDis="50" outDis="50" oid="6729" /><Stop Id="2076" routeId="227" nameZh="吊橋頭" seqNo="9" pgp="0" terminal="0" districtId="1" GoBack="2" latitude="24.23515" longitude="120.73833" inDis="50" outDis="50" oid="5701" /><Stop Id="2427" routeId="227" nameZh="東陽橋" seqNo="10" pgp="0" terminal="0" districtId="1" GoBack="2" latitude="24.23593" longitude="120.73683" inDis="50" outDis="50" oid="5897" /><Stop Id="2283" routeId="227" nameZh="車程" seqNo="11" pgp="0" terminal="0" districtId="1" GoBack="2" latitude="24.23681" longitude="120.73504" inDis="50" outDis="50" oid="5812" /><Stop Id="2471" routeId="227" nameZh="武明山" seqNo="12" pgp="0" terminal="0" districtId="1" GoBack="2" latitude="24.23797" longitude="120.73458" inDis="50" outDis="50" oid="5930" /><Stop Id="3687" routeId="227" nameZh="綠山莊口" seqNo="13" pgp="0" terminal="0" districtId="1" GoBack="2" latitude="24.24059" longitude="120.73307" inDis="50" outDis="50" oid="6576" /><Stop Id="5593" routeId="227" nameZh="福陽國小" seqNo="14" pgp="0" terminal="0" districtId="1" GoBack="2" latitude="24.24168" longitude="120.73512" inDis="100" outDis="100" oid="88893385" /><Stop Id="1524" routeId="227" nameZh="南陽綠山巷口" seqNo="15" pgp="0" terminal="0" districtId="1" GoBack="2" latitude="24.24185" longitude="120.73244" inDis="50" outDis="50" oid="5364" /><Stop Id="2610" routeId="227" nameZh="南陽橋" seqNo="16" pgp="0" terminal="0" districtId="1" GoBack="2" latitude="24.24258" longitude="120.73049" inDis="50" outDis="50" oid="6010" /><Stop Id="1611" routeId="227" nameZh="廣福宮" seqNo="17" pgp="0" terminal="0" districtId="1" GoBack="2" latitude="24.24407" longitude="120.72918" inDis="50" outDis="50" oid="5418" /><Stop Id="1946" routeId="227" nameZh="永康南陽路口" seqNo="18" pgp="0" terminal="0" districtId="1" GoBack="2" latitude="24.24384" longitude="120.72749" inDis="50" outDis="50" oid="5618" /><Stop Id="4966" routeId="227" nameZh="豐原醫院" seqNo="19" pgp="0" terminal="0" districtId="1" GoBack="2" latitude="24.24326" longitude="120.7254" inDis="50" outDis="50" oid="308875007" /><Stop Id="5142" routeId="227" nameZh="陽明自強南街口" seqNo="20" pgp="0" terminal="0" districtId="1" GoBack="2" latitude="24.24603" longitude="120.72278" inDis="50" outDis="50" oid="6629" /><Stop Id="2269" routeId="227" nameZh="育樂新村" seqNo="21" pgp="0" terminal="0" districtId="1" GoBack="2" latitude="24.24764" longitude="120.72343" inDis="50" outDis="50" oid="5804" /><Stop Id="2607" routeId="227" nameZh="南陽國小" seqNo="22" pgp="0" terminal="0" districtId="1" GoBack="2" latitude="24.24911" longitude="120.7227" inDis="50" outDis="50" oid="6007" /><Stop Id="3238" routeId="227" nameZh="惠陽中陽路口" seqNo="23" pgp="0" terminal="0" districtId="1" GoBack="2" latitude="24.25075" longitude="120.72414" inDis="50" outDis="50" oid="6341" /><Stop Id="4203" routeId="227" nameZh="新都酒店" seqNo="24" pgp="0" terminal="0" districtId="1" GoBack="2" latitude="24.25229" longitude="120.72365" inDis="50" outDis="50" oid="6448" /><Stop Id="3343" routeId="227" nameZh="媽祖廟" seqNo="25" pgp="0" terminal="0" districtId="1" GoBack="2" latitude="24.25157" longitude="120.71851" inDis="50" outDis="50" oid="6397" /><Stop Id="2097" routeId="227" nameZh="圳寮口" seqNo="26" pgp="0" terminal="0" districtId="1" GoBack="2" latitude="24.25276" longitude="120.71612" inDis="50" outDis="50" oid="5712" /><Stop Id="3935" routeId="227" nameZh="豐原" seqNo="27" pgp="0" terminal="0" districtId="1" GoBack="2" latitude="24.2538" longitude="120.72154" inDis="70" outDis="70" oid="6693" /></BusInfo></BusDynInfo>