<?xml version="1.0" encoding="UTF-8" standalone="yes"?>
<BusDynInfo><EssentialInfo><Location><name>TCBUS</name><CenterName>Maxwin</CenterName></Location><UpdateTime>2014-12-20 08:08:29</UpdateTime><CoordinateSystem/></EssentialInfo>
<BusInfo><Stop Id="2248" routeId="175" nameZh="沙鹿站" seqNo="1" pgp="0" terminal="0" districtId="1" GoBack="1" latitude="24.23783" longitude="120.56106" inDis="50" outDis="50" oid="10784" /><Stop Id="5135" routeId="175" nameZh="第一銀行(沙鹿分行)" seqNo="2" pgp="0" terminal="0" districtId="1" GoBack="1" latitude="24.23932" longitude="120.56" inDis="50" outDis="50" oid="14046" /><Stop Id="1482" routeId="175" nameZh="中港國小" seqNo="3" pgp="0" terminal="0" districtId="1" GoBack="1" latitude="24.24273" longitude="120.55659" inDis="50" outDis="50" oid="14537" /><Stop Id="1088" routeId="175" nameZh="三條圳" seqNo="4" pgp="0" terminal="0" districtId="1" GoBack="1" latitude="24.24548" longitude="120.54911" inDis="50" outDis="50" oid="14538" /><Stop Id="4822" routeId="175" nameZh="東大庄" seqNo="5" pgp="0" terminal="0" districtId="1" GoBack="1" latitude="24.24643" longitude="120.54653" inDis="50" outDis="50" oid="14539" /><Stop Id="4007" routeId="175" nameZh="體育館前" seqNo="6" pgp="0" terminal="0" districtId="1" GoBack="1" latitude="24.2471" longitude="120.54472" inDis="50" outDis="50" oid="14540" /><Stop Id="4041" routeId="175" nameZh="童綜合醫院(梧棲院區)" seqNo="7" pgp="0" terminal="0" districtId="1" GoBack="1" latitude="24.24757" longitude="120.54319" inDis="50" outDis="50" oid="14541" /><Stop Id="4824" routeId="175" nameZh="邱厝庄" seqNo="8" pgp="0" terminal="0" districtId="1" GoBack="1" latitude="24.24818" longitude="120.54117" inDis="50" outDis="50" oid="14542" /><Stop Id="1334" routeId="175" nameZh="大庄" seqNo="9" pgp="0" terminal="0" districtId="1" GoBack="1" latitude="24.24908" longitude="120.53916" inDis="50" outDis="50" oid="14543" /><Stop Id="4785" routeId="175" nameZh="大庄橋" seqNo="10" pgp="0" terminal="0" districtId="1" GoBack="1" latitude="24.24676" longitude="120.53795" inDis="50" outDis="50" oid="14544" /><Stop Id="4828" routeId="175" nameZh="珍珠港" seqNo="11" pgp="0" terminal="0" districtId="1" GoBack="1" latitude="24.24413" longitude="120.53731" inDis="50" outDis="50" oid="14545" /><Stop Id="4864" routeId="175" nameZh="興農里" seqNo="12" pgp="0" terminal="0" districtId="1" GoBack="1" latitude="24.23958" longitude="120.53678" inDis="50" outDis="50" oid="14546" /><Stop Id="5371" routeId="175" nameZh="興農中排" seqNo="13" pgp="0" terminal="0" districtId="1" GoBack="1" latitude="24.23645" longitude="120.53572" inDis="50" outDis="50" oid="311871548" /><Stop Id="1025" routeId="175" nameZh="八張犁" seqNo="14" pgp="0" terminal="0" districtId="1" GoBack="1" latitude="24.23509" longitude="120.53504" inDis="50" outDis="50" oid="14548" /><Stop Id="4805" routeId="175" nameZh="永寧國小" seqNo="15" pgp="0" terminal="0" districtId="1" GoBack="1" latitude="24.23048" longitude="120.53279" inDis="50" outDis="50" oid="14549" /><Stop Id="4850" routeId="175" nameZh="園子" seqNo="16" pgp="0" terminal="0" districtId="1" GoBack="1" latitude="24.22918" longitude="120.53216" inDis="50" outDis="50" oid="14550" /><Stop Id="4804" routeId="175" nameZh="永寧里" seqNo="17" pgp="0" terminal="0" districtId="1" GoBack="1" latitude="24.2272" longitude="120.53118" inDis="50" outDis="50" oid="14551" /><Stop Id="2133" routeId="175" nameZh="百姓公" seqNo="18" pgp="0" terminal="0" districtId="1" GoBack="1" latitude="24.22461" longitude="120.52985" inDis="50" outDis="50" oid="14552" /><Stop Id="0563" routeId="175" nameZh="永安里" seqNo="19" pgp="0" terminal="0" districtId="1" GoBack="1" latitude="24.22236" longitude="120.52865" inDis="50" outDis="50" oid="14553" /><Stop Id="2802" routeId="175" nameZh="海尾巷" seqNo="20" pgp="0" terminal="0" districtId="1" GoBack="1" latitude="24.21869" longitude="120.52713" inDis="50" outDis="50" oid="14554" /><Stop Id="4838" routeId="175" nameZh="高園子" seqNo="21" pgp="0" terminal="0" districtId="1" GoBack="1" latitude="24.21627" longitude="120.5263" inDis="50" outDis="50" oid="14555" /><Stop Id="2972" routeId="175" nameZh="崙仔頂" seqNo="22" pgp="0" terminal="0" districtId="1" GoBack="1" latitude="24.21378" longitude="120.52561" inDis="50" outDis="50" oid="14556" /><Stop Id="0421" routeId="175" nameZh="中和" seqNo="23" pgp="0" terminal="0" districtId="1" GoBack="1" latitude="24.21253" longitude="120.52522" inDis="50" outDis="50" oid="14557" /><Stop Id="0980" routeId="175" nameZh="一號橋" seqNo="24" pgp="0" terminal="0" districtId="1" GoBack="1" latitude="24.2097" longitude="120.52405" inDis="50" outDis="50" oid="14558" /><Stop Id="1102" routeId="175" nameZh="三德" seqNo="25" pgp="0" terminal="0" districtId="1" GoBack="1" latitude="24.20717" longitude="120.52363" inDis="50" outDis="50" oid="14559" /><Stop Id="3848" routeId="175" nameZh="龍井市場" seqNo="26" pgp="0" terminal="0" districtId="1" GoBack="1" latitude="24.20424" longitude="120.52339" inDis="50" outDis="50" oid="14560" /><Stop Id="5136" routeId="175" nameZh="莊頭" seqNo="27" pgp="0" terminal="0" districtId="1" GoBack="1" latitude="24.20315" longitude="120.52342" inDis="50" outDis="50" oid="14561" /><Stop Id="3858" routeId="175" nameZh="龍津" seqNo="28" pgp="0" terminal="0" districtId="1" GoBack="1" latitude="24.20115" longitude="120.52346" inDis="50" outDis="50" oid="14562" /><Stop Id="1013" routeId="175" nameZh="二號橋" seqNo="29" pgp="0" terminal="0" districtId="1" GoBack="1" latitude="24.19728" longitude="120.52315" inDis="50" outDis="50" oid="14563" /><Stop Id="4867" routeId="175" nameZh="龍北路口" seqNo="30" pgp="0" terminal="0" districtId="1" GoBack="1" latitude="24.19473" longitude="120.5307" inDis="50" outDis="50" oid="14565" /><Stop Id="4807" routeId="175" nameZh="田中社區" seqNo="31" pgp="0" terminal="0" districtId="1" GoBack="1" latitude="24.19362" longitude="120.53082" inDis="50" outDis="50" oid="14564" /><Stop Id="4806" routeId="175" nameZh="田中村" seqNo="32" pgp="0" terminal="0" districtId="1" GoBack="1" latitude="24.19083" longitude="120.5305" inDis="50" outDis="50" oid="14566" /><Stop Id="4826" routeId="175" nameZh="南田中" seqNo="33" pgp="0" terminal="0" districtId="1" GoBack="1" latitude="24.18709" longitude="120.52976" inDis="50" outDis="50" oid="14567" /><Stop Id="4866" routeId="175" nameZh="龍井國小" seqNo="34" pgp="0" terminal="0" districtId="1" GoBack="1" latitude="24.18417" longitude="120.5303" inDis="50" outDis="50" oid="14568" /><Stop Id="2710" routeId="175" nameZh="茄投" seqNo="35" pgp="0" terminal="0" districtId="1" GoBack="1" latitude="24.17841" longitude="120.53036" inDis="50" outDis="50" oid="14569" /><Stop Id="5490" routeId="175" nameZh="茄頭中" seqNo="36" pgp="0" terminal="0" districtId="1" GoBack="1" latitude="24.17934" longitude="120.52728" inDis="50" outDis="50" oid="314612347" /><Stop Id="2711" routeId="175" nameZh="茄投尾" seqNo="37" pgp="0" terminal="0" districtId="1" GoBack="1" latitude="24.18014" longitude="120.52471" inDis="50" outDis="50" oid="311893254" /><Stop Id="2711" routeId="175" nameZh="茄投尾" seqNo="1" pgp="0" terminal="0" districtId="1" GoBack="2" latitude="24.18014" longitude="120.52471" inDis="50" outDis="50" oid="311893254" /><Stop Id="5490" routeId="175" nameZh="茄頭中" seqNo="2" pgp="0" terminal="0" districtId="1" GoBack="2" latitude="24.17934" longitude="120.52728" inDis="50" outDis="50" oid="314612347" /><Stop Id="2710" routeId="175" nameZh="茄投" seqNo="3" pgp="0" terminal="0" districtId="1" GoBack="2" latitude="24.17841" longitude="120.53036" inDis="50" outDis="50" oid="14500" /><Stop Id="4866" routeId="175" nameZh="龍井國小" seqNo="4" pgp="0" terminal="0" districtId="1" GoBack="2" latitude="24.18417" longitude="120.5303" inDis="50" outDis="50" oid="14501" /><Stop Id="4826" routeId="175" nameZh="南田中" seqNo="5" pgp="0" terminal="0" districtId="1" GoBack="2" latitude="24.18709" longitude="120.52976" inDis="50" outDis="50" oid="14502" /><Stop Id="4806" routeId="175" nameZh="田中村" seqNo="6" pgp="0" terminal="0" districtId="1" GoBack="2" latitude="24.19083" longitude="120.5305" inDis="50" outDis="50" oid="14503" /><Stop Id="4807" routeId="175" nameZh="田中社區" seqNo="7" pgp="0" terminal="0" districtId="1" GoBack="2" latitude="24.19337" longitude="120.53088" inDis="50" outDis="50" oid="14505" /><Stop Id="4867" routeId="175" nameZh="龍北路口" seqNo="8" pgp="0" terminal="0" districtId="1" GoBack="2" latitude="24.19485" longitude="120.53064" inDis="50" outDis="50" oid="14504" /><Stop Id="1013" routeId="175" nameZh="二號橋" seqNo="9" pgp="0" terminal="0" districtId="1" GoBack="2" latitude="24.19728" longitude="120.52315" inDis="50" outDis="50" oid="14506" /><Stop Id="3858" routeId="175" nameZh="龍津" seqNo="10" pgp="0" terminal="0" districtId="1" GoBack="2" latitude="24.20115" longitude="120.52346" inDis="50" outDis="50" oid="14507" /><Stop Id="5136" routeId="175" nameZh="莊頭" seqNo="11" pgp="0" terminal="0" districtId="1" GoBack="2" latitude="24.20315" longitude="120.52342" inDis="50" outDis="50" oid="14508" /><Stop Id="3848" routeId="175" nameZh="龍井市場" seqNo="12" pgp="0" terminal="0" districtId="1" GoBack="2" latitude="24.20424" longitude="120.52339" inDis="50" outDis="50" oid="14509" /><Stop Id="1102" routeId="175" nameZh="三德" seqNo="13" pgp="0" terminal="0" districtId="1" GoBack="2" latitude="24.20717" longitude="120.52363" inDis="50" outDis="50" oid="14510" /><Stop Id="0980" routeId="175" nameZh="一號橋" seqNo="14" pgp="0" terminal="0" districtId="1" GoBack="2" latitude="24.2097" longitude="120.52405" inDis="50" outDis="50" oid="14511" /><Stop Id="0421" routeId="175" nameZh="中和" seqNo="15" pgp="0" terminal="0" districtId="1" GoBack="2" latitude="24.21253" longitude="120.52522" inDis="50" outDis="50" oid="14512" /><Stop Id="2972" routeId="175" nameZh="崙仔頂" seqNo="16" pgp="0" terminal="0" districtId="1" GoBack="2" latitude="24.21378" longitude="120.52561" inDis="50" outDis="50" oid="14513" /><Stop Id="4838" routeId="175" nameZh="高園子" seqNo="17" pgp="0" terminal="0" districtId="1" GoBack="2" latitude="24.21627" longitude="120.5263" inDis="50" outDis="50" oid="14514" /><Stop Id="2802" routeId="175" nameZh="海尾巷" seqNo="18" pgp="0" terminal="0" districtId="1" GoBack="2" latitude="24.21869" longitude="120.52713" inDis="50" outDis="50" oid="14515" /><Stop Id="0563" routeId="175" nameZh="永安里" seqNo="19" pgp="0" terminal="0" districtId="1" GoBack="2" latitude="24.22236" longitude="120.52865" inDis="50" outDis="50" oid="14516" /><Stop Id="2133" routeId="175" nameZh="百姓公" seqNo="20" pgp="0" terminal="0" districtId="1" GoBack="2" latitude="24.22461" longitude="120.52985" inDis="50" outDis="50" oid="14517" /><Stop Id="4804" routeId="175" nameZh="永寧里" seqNo="21" pgp="0" terminal="0" districtId="1" GoBack="2" latitude="24.2272" longitude="120.53118" inDis="50" outDis="50" oid="14518" /><Stop Id="4850" routeId="175" nameZh="園子" seqNo="22" pgp="0" terminal="0" districtId="1" GoBack="2" latitude="24.22918" longitude="120.53216" inDis="50" outDis="50" oid="14519" /><Stop Id="4805" routeId="175" nameZh="永寧國小" seqNo="23" pgp="0" terminal="0" districtId="1" GoBack="2" latitude="24.23048" longitude="120.53279" inDis="50" outDis="50" oid="14520" /><Stop Id="1025" routeId="175" nameZh="八張犁" seqNo="24" pgp="0" terminal="0" districtId="1" GoBack="2" latitude="24.23509" longitude="120.53504" inDis="50" outDis="50" oid="14521" /><Stop Id="5371" routeId="175" nameZh="興農中排" seqNo="25" pgp="0" terminal="0" districtId="1" GoBack="2" latitude="24.23645" longitude="120.53572" inDis="50" outDis="50" oid="311871548" /><Stop Id="4864" routeId="175" nameZh="興農里" seqNo="26" pgp="0" terminal="0" districtId="1" GoBack="2" latitude="24.23958" longitude="120.53678" inDis="50" outDis="50" oid="14523" /><Stop Id="4828" routeId="175" nameZh="珍珠港" seqNo="27" pgp="0" terminal="0" districtId="1" GoBack="2" latitude="24.24413" longitude="120.53731" inDis="50" outDis="50" oid="14524" /><Stop Id="4785" routeId="175" nameZh="大庄橋" seqNo="28" pgp="0" terminal="0" districtId="1" GoBack="2" latitude="24.24676" longitude="120.53795" inDis="50" outDis="50" oid="14525" /><Stop Id="1334" routeId="175" nameZh="大庄" seqNo="29" pgp="0" terminal="0" districtId="1" GoBack="2" latitude="24.24908" longitude="120.53916" inDis="50" outDis="50" oid="14526" /><Stop Id="4824" routeId="175" nameZh="邱厝庄" seqNo="30" pgp="0" terminal="0" districtId="1" GoBack="2" latitude="24.24818" longitude="120.54117" inDis="50" outDis="50" oid="14527" /><Stop Id="4041" routeId="175" nameZh="童綜合醫院(梧棲院區)" seqNo="31" pgp="0" terminal="0" districtId="1" GoBack="2" latitude="24.24757" longitude="120.54319" inDis="50" outDis="50" oid="14528" /><Stop Id="4007" routeId="175" nameZh="體育館前" seqNo="32" pgp="0" terminal="0" districtId="1" GoBack="2" latitude="24.2471" longitude="120.54472" inDis="50" outDis="50" oid="14529" /><Stop Id="4822" routeId="175" nameZh="東大庄" seqNo="33" pgp="0" terminal="0" districtId="1" GoBack="2" latitude="24.24643" longitude="120.54653" inDis="50" outDis="50" oid="14530" /><Stop Id="1088" routeId="175" nameZh="三條圳" seqNo="34" pgp="0" terminal="0" districtId="1" GoBack="2" latitude="24.24548" longitude="120.54911" inDis="50" outDis="50" oid="14531" /><Stop Id="1482" routeId="175" nameZh="中港國小" seqNo="35" pgp="0" terminal="0" districtId="1" GoBack="2" latitude="24.24273" longitude="120.55659" inDis="50" outDis="50" oid="14532" /><Stop Id="5135" routeId="175" nameZh="第一銀行(沙鹿分行)" seqNo="36" pgp="0" terminal="0" districtId="1" GoBack="2" latitude="24.23932" longitude="120.56" inDis="50" outDis="50" oid="14046" /><Stop Id="2248" routeId="175" nameZh="沙鹿站" seqNo="37" pgp="0" terminal="0" districtId="1" GoBack="2" latitude="24.23783" longitude="120.56103" inDis="50" outDis="50" oid="7094" /></BusInfo></BusDynInfo>